[{"SH_ID_36":"10g7ugw","区36":"d","地址":"爱辉路1018弄","lng":121.4468570757657,"lat":31.34565805490582,"确诊日期36":"r"},{"SH_ID_36":"10g7ugh","区36":"d","地址":"白杨村","lng":121.39622479290678,"lat":31.342236791377747,"确诊日期36":"r"},{"SH_ID_36":"10g7uea","区36":"d","地址":"宝安公路325号","lng":121.41850932629191,"lat":31.36719689625509,"确诊日期36":"r"},{"SH_ID_36":"10g7ubu","区36":"d","地址":"宝荻路500弄","lng":121.39797934881128,"lat":31.36142557524462,"确诊日期36":"r"},{"SH_ID_36":"10g7ud2","区36":"d","地址":"宝荻路535弄","lng":121.39586259449999,"lat":31.360763893490414,"确诊日期36":"r"},{"SH_ID_36":"10g7ue0","区36":"d","地址":"宝林六村","lng":121.49877849531343,"lat":31.40263723731653,"确诊日期36":"r"},{"SH_ID_36":"10g7udm","区36":"d","地址":"宝林四村","lng":121.49142076233487,"lat":31.404826918147492,"确诊日期36":"r"},{"SH_ID_36":"10g7ue3","区36":"d","地址":"宝祁路399号","lng":121.34914738950178,"lat":31.303238647662024,"确诊日期36":"r"},{"SH_ID_36":"10g7ubp","区36":"d","地址":"宝山七村","lng":121.49868433779133,"lat":31.396845498297576,"确诊日期36":"r"},{"SH_ID_36":"10g7ufc","区36":"d","地址":"北金村","lng":121.35781691621871,"lat":31.385077119741062,"确诊日期36":"r"},{"SH_ID_36":"10g7uho","区36":"d","地址":"布长街52弄","lng":121.34458265579067,"lat":31.412015664886894,"确诊日期36":"r"},{"SH_ID_36":"10g7ufm","区36":"d","地址":"蔡家弄村","lng":121.36591401321623,"lat":31.372896475212208,"确诊日期36":"r"},{"SH_ID_36":"10g7uez","区36":"d","地址":"曹新公路12号","lng":121.33501462438157,"lat":31.437037960365043,"确诊日期36":"r"},{"SH_ID_36":"10g7uf0","区36":"d","地址":"场北路39弄","lng":121.43632136424694,"lat":31.3346170747921,"确诊日期36":"r"},{"SH_ID_36":"10g7ucr","区36":"d","地址":"场中路3658弄","lng":121.4263489307801,"lat":31.302142463742097,"确诊日期36":"r"},{"SH_ID_36":"10g7ug3","区36":"d","地址":"陈川路555弄","lng":121.33264511017175,"lat":31.478287974004946,"确诊日期36":"r"},{"SH_ID_36":"10g7uhk","区36":"d","地址":"陈东路79弄","lng":121.34555661792498,"lat":31.48007813221323,"确诊日期36":"r"},{"SH_ID_36":"10g7uf1","区36":"d","地址":"陈家行村","lng":121.35070146500215,"lat":31.32732853730391,"确诊日期36":"r"},{"SH_ID_36":"10g7uhh","区36":"d","地址":"城银路655弄","lng":121.3490954590025,"lat":31.316011572812997,"确诊日期36":"r"},{"SH_ID_36":"10g7ud3","区36":"d","地址":"川沙村","lng":121.37131486604079,"lat":31.475029313961574,"确诊日期36":"r"},{"SH_ID_36":"10g7ugc","区36":"d","地址":"大华二路689号","lng":121.41770254060295,"lat":31.27220940883543,"确诊日期36":"r"},{"SH_ID_36":"10g7uc8","区36":"d","地址":"大康路891弄","lng":121.42318827506124,"lat":31.330305620629847,"确诊日期36":"r"},{"SH_ID_36":"10g7uhj","区36":"d","地址":"德都路218弄","lng":121.4231975635377,"lat":31.41152049949754,"确诊日期36":"r"},{"SH_ID_36":"10g7ufg","区36":"d","地址":"德都路28弄","lng":121.42534600164034,"lat":31.40312429435738,"确诊日期36":"r"},{"SH_ID_36":"10g7uev","区36":"d","地址":"德都路58弄","lng":121.42671148505805,"lat":31.40489047768868,"确诊日期36":"r"},{"SH_ID_36":"10g7ugt","区36":"d","地址":"东街村","lng":121.43747859345153,"lat":31.38221261151276,"确诊日期36":"r"},{"SH_ID_36":"10g7ug8","区36":"d","地址":"段泾村","lng":121.39656864377027,"lat":31.421550282013637,"确诊日期36":"r"},{"SH_ID_36":"10g7ud4","区36":"d","地址":"鄂尔多斯路98弄","lng":121.39124178426431,"lat":31.295424583771656,"确诊日期36":"r"},{"SH_ID_36":"10g7ufy","区36":"d","地址":"富联路646弄","lng":121.4072876003586,"lat":31.361328426712145,"确诊日期36":"r"},{"SH_ID_36":"10g7uer","区36":"d","地址":"富南路199弄","lng":121.36623727049128,"lat":31.389677865883293,"确诊日期36":"r"},{"SH_ID_36":"10g7uhc","区36":"d","地址":"富杨路608号","lng":121.43006519811433,"lat":31.399655793984458,"确诊日期36":"r"},{"SH_ID_36":"10g7ubx","区36":"d","地址":"高境路477弄","lng":121.47207944214475,"lat":31.323657947378667,"确诊日期36":"r"},{"SH_ID_36":"10g7ucy","区36":"d","地址":"高境一村","lng":121.47830704246375,"lat":31.31915164254997,"确诊日期36":"r"},{"SH_ID_36":"10g7udn","区36":"d","地址":"高跃路133弄","lng":121.47213728515798,"lat":31.318115538819335,"确诊日期36":"r"},{"SH_ID_36":"10g7uge","区36":"d","地址":"共富四村","lng":121.42483469597187,"lat":31.35001010364262,"确诊日期36":"r"},{"SH_ID_36":"10g7udb","区36":"d","地址":"共富一村","lng":121.43336373506686,"lat":31.35052253099045,"确诊日期36":"r"},{"SH_ID_36":"10g7uco","区36":"d","地址":"共和二村","lng":121.46130061459523,"lat":31.321639231223322,"确诊日期36":"r"},{"SH_ID_36":"10g7uhq","区36":"d","地址":"共和新路4703弄","lng":121.44852434043828,"lat":31.318820740469953,"确诊日期36":"r"},{"SH_ID_36":"10g7uck","区36":"d","地址":"共康六村","lng":121.44102594948961,"lat":31.324774619996468,"确诊日期36":"r"},{"SH_ID_36":"10g7uf9","区36":"d","地址":"顾北东路188弄","lng":121.41293854124466,"lat":31.359166034258273,"确诊日期36":"r"},{"SH_ID_36":"10g7ubw","区36":"d","地址":"顾北东路39弄","lng":121.4151112249034,"lat":31.362676922938228,"确诊日期36":"r"},{"SH_ID_36":"10g7ugb","区36":"d","地址":"归王村","lng":121.35643210252157,"lat":31.358466228619832,"确诊日期36":"r"},{"SH_ID_36":"10g7ucs","区36":"d","地址":"国权北路380弄","lng":121.49461048005872,"lat":31.31799243725672,"确诊日期36":"r"},{"SH_ID_36":"10g7uc2","区36":"d","地址":"海滨七村","lng":121.49711859239876,"lat":31.383960796606704,"确诊日期36":"r"},{"SH_ID_36":"10g7uhg","区36":"d","地址":"海江二村","lng":121.50281037880026,"lat":31.393098860303216,"确诊日期36":"r"},{"SH_ID_36":"10g7uhm","区36":"d","地址":"鹤林路58弄","lng":121.40417682093333,"lat":31.44668789642658,"确诊日期36":"r"},{"SH_ID_36":"10g7ufd","区36":"d","地址":"红光村","lng":121.40908761093189,"lat":31.32848885956456,"确诊日期36":"r"},{"SH_ID_36":"10g7ugr","区36":"d","地址":"红林路576弄","lng":121.41831051784261,"lat":31.36436538693854,"确诊日期36":"r"},{"SH_ID_36":"10g7ug5","区36":"d","地址":"红林路589弄","lng":121.41927991631664,"lat":31.362093574859493,"确诊日期36":"r"},{"SH_ID_36":"10g7ufe","区36":"d","地址":"呼兰西路60弄","lng":121.43222465553664,"lat":31.339045934451885,"确诊日期36":"r"},{"SH_ID_36":"10g7ueg","区36":"d","地址":"呼玛二村","lng":121.44669899882844,"lat":31.340762019049553,"确诊日期36":"r"},{"SH_ID_36":"10g7uc1","区36":"d","地址":"呼玛三村","lng":121.44145912168419,"lat":31.339025982966945,"确诊日期36":"r"},{"SH_ID_36":"10g7ues","区36":"d","地址":"呼玛四村","lng":121.4454159778773,"lat":31.343964648816844,"确诊日期36":"r"},{"SH_ID_36":"10g7uh7","区36":"d","地址":"呼玛五村","lng":121.43887251475834,"lat":31.34110754700475,"确诊日期36":"r"},{"SH_ID_36":"10g7uch","区36":"d","地址":"胡庄村","lng":121.42071525130049,"lat":31.34787861602651,"确诊日期36":"r"},{"SH_ID_36":"10g7ugx","区36":"d","地址":"虎林路800弄","lng":121.4538106639248,"lat":31.343638800594334,"确诊日期36":"r"},{"SH_ID_36":"10g7ue5","区36":"d","地址":"虎林路911号","lng":121.45549474955925,"lat":31.34153680783618,"确诊日期36":"r"},{"SH_ID_36":"10g7ug7","区36":"d","地址":"沪联路228弄","lng":121.3653203698657,"lat":31.359941694071118,"确诊日期36":"r"},{"SH_ID_36":"10g7udu","区36":"d","地址":"沪太路3633号","lng":121.4084779640212,"lat":31.326669706267626,"确诊日期36":"r"},{"SH_ID_36":"10g7ued","区36":"d","地址":"沪太路5355弄","lng":121.37848246001501,"lat":31.359280055517573,"确诊日期36":"r"},{"SH_ID_36":"10g7ugi","区36":"d","地址":"沪太路5551号","lng":121.37457337676943,"lat":31.362797037948564,"确诊日期36":"r"},{"SH_ID_36":"10g7udd","区36":"d","地址":"沪太路6790号","lng":121.44210361771475,"lat":31.267937476127763,"确诊日期36":"r"},{"SH_ID_36":"10g7ugk","区36":"d","地址":"华灵路1225弄","lng":121.41940235654992,"lat":31.281700358042336,"确诊日期36":"r"},{"SH_ID_36":"10g7ucj","区36":"d","地址":"华灵路1681弄","lng":121.40940930386817,"lat":31.281478134993403,"确诊日期36":"r"},{"SH_ID_36":"10g7udg","区36":"d","地址":"华灵路1900弄","lng":121.40449228675786,"lat":31.277675131806436,"确诊日期36":"r"},{"SH_ID_36":"10g7ugj","区36":"d","地址":"华灵路198弄","lng":121.42172665878715,"lat":31.271846778233314,"确诊日期36":"r"},{"SH_ID_36":"10g7uby","区36":"d","地址":"环镇北路500弄","lng":121.40467888493747,"lat":31.307774515704732,"确诊日期36":"r"},{"SH_ID_36":"10g7uf2","区36":"d","地址":"环镇北路575号","lng":121.3951023771408,"lat":31.307476891707005,"确诊日期36":"r"},{"SH_ID_36":"10g7ugp","区36":"d","地址":"环镇北路600弄","lng":121.40253402952041,"lat":31.30488154327289,"确诊日期36":"r"},{"SH_ID_36":"10g7ue6","区36":"d","地址":"环镇北路700弄","lng":121.40293094681113,"lat":31.30716307935629,"确诊日期36":"r"},{"SH_ID_36":"10g7ugf","区36":"d","地址":"环镇南路858弄","lng":121.39669876409083,"lat":31.29673766203119,"确诊日期36":"r"},{"SH_ID_36":"10g7ue2","区36":"d","地址":"吉浦路615弄","lng":121.4930226634538,"lat":31.31719909227852,"确诊日期36":"r"},{"SH_ID_36":"10g7uhs","区36":"d","地址":"集贤路28号","lng":121.35677286819414,"lat":31.414345647707506,"确诊日期36":"r"},{"SH_ID_36":"10g7ucx","区36":"d","地址":"集贤路500弄","lng":121.35011376240763,"lat":31.420658368197174,"确诊日期36":"r"},{"SH_ID_36":"10g7ugs","区36":"d","地址":"集贤路501弄","lng":121.35397539542299,"lat":31.421969401182302,"确诊日期36":"r"},{"SH_ID_36":"10g7ugz","区36":"d","地址":"集贤路800弄","lng":121.35018174994534,"lat":31.424027315220467,"确诊日期36":"r"},{"SH_ID_36":"10g7uhf","区36":"d","地址":"江杨南路1098号","lng":121.46565508133526,"lat":31.326669812021226,"确诊日期36":"r"},{"SH_ID_36":"10g7uek","区36":"d","地址":"江杨南路1558弄","lng":121.46472994010004,"lat":31.33478899295297,"确诊日期36":"r"},{"SH_ID_36":"10g7uef","区36":"d","地址":"江杨南路2058号","lng":121.46151914895147,"lat":31.34252583281439,"确诊日期36":"r"},{"SH_ID_36":"10g7uh8","区36":"d","地址":"江杨南路2500弄","lng":121.45735829370317,"lat":31.350491841218922,"确诊日期36":"r"},{"SH_ID_36":"10g7ud7","区36":"d","地址":"江杨新村","lng":121.46615136974908,"lat":31.340364557297473,"确诊日期36":"r"},{"SH_ID_36":"10g7ucn","区36":"d","地址":"教育路555弄","lng":121.39508773995959,"lat":31.357343790326087,"确诊日期36":"r"},{"SH_ID_36":"10g7uen","区36":"d","地址":"锦秋路1360号","lng":121.37794362917722,"lat":31.318119188488993,"确诊日期36":"r"},{"SH_ID_36":"10g7ucw","区36":"d","地址":"锦秋路699弄","lng":121.39068559257572,"lat":31.325467594960006,"确诊日期36":"r"},{"SH_ID_36":"10g7ugo","区36":"d","地址":"菊联路233弄","lng":121.36367346914224,"lat":31.346457745278226,"确诊日期36":"r"},{"SH_ID_36":"10g7uh2","区36":"d","地址":"菊联路262弄","lng":121.35273396068695,"lat":31.34316809772863,"确诊日期36":"r"},{"SH_ID_36":"10g7ue7","区36":"d","地址":"菊联路89弄","lng":121.36786927482247,"lat":31.34768677855997,"确诊日期36":"r"},{"SH_ID_36":"10g7uh9","区36":"d","地址":"菊泉街1281弄","lng":121.37403485761618,"lat":31.360841998579716,"确诊日期36":"r"},{"SH_ID_36":"10g7uhi","区36":"d","地址":"菊泉新村","lng":121.37275932486828,"lat":31.35650652766449,"确诊日期36":"r"},{"SH_ID_36":"10g7ufv","区36":"d","地址":"菊太路1078弄","lng":121.3553269887746,"lat":31.34565382950149,"确诊日期36":"r"},{"SH_ID_36":"10g7udj","区36":"d","地址":"菊太路1609弄","lng":121.34808956102728,"lat":31.34592551711531,"确诊日期36":"r"},{"SH_ID_36":"10g7ugu","区36":"d","地址":"菊太路1755弄","lng":121.34583740255279,"lat":31.34462767559503,"确诊日期36":"r"},{"SH_ID_36":"10g7uc7","区36":"d","地址":"菊太路999弄","lng":121.3610266967818,"lat":31.351261430583936,"确诊日期36":"r"},{"SH_ID_36":"10g7ud1","区36":"d","地址":"聚丰园路669弄","lng":121.3737770148386,"lat":31.314095519540697,"确诊日期36":"r"},{"SH_ID_36":"10g7udf","区36":"d","地址":"老安村","lng":121.37339671888037,"lat":31.365854349664197,"确诊日期36":"r"},{"SH_ID_36":"10g7uey","区36":"d","地址":"莲花山路517弄","lng":121.44525145005443,"lat":31.36178003055971,"确诊日期36":"r"},{"SH_ID_36":"10g7uhl","区36":"d","地址":"联合村","lng":121.32321849935352,"lat":31.40580104482583,"确诊日期36":"r"},{"SH_ID_36":"10g7ufo","区36":"d","地址":"联谊路45号","lng":121.44528015374019,"lat":31.348993710402414,"确诊日期36":"r"},{"SH_ID_36":"10g7ucl","区36":"d","地址":"岭南路1288弄","lng":121.45645420336422,"lat":31.32456578000617,"确诊日期36":"r"},{"SH_ID_36":"10g7ubs","区36":"d","地址":"陆翔路3489弄","lng":121.33757186954838,"lat":31.400316295258705,"确诊日期36":"r"},{"SH_ID_36":"10g7ue1","区36":"d","地址":"陆翔路358弄","lng":121.36997587720114,"lat":31.351292837880596,"确诊日期36":"r"},{"SH_ID_36":"10g7uei","区36":"d","地址":"陆翔路678弄","lng":121.36840775483068,"lat":31.353349571040958,"确诊日期36":"r"},{"SH_ID_36":"10g7uf5","区36":"d","地址":"罗东路501弄","lng":121.37526435166991,"lat":31.431807834723777,"确诊日期36":"r"},{"SH_ID_36":"10g7ufa","区36":"d","地址":"罗东路600弄","lng":121.37046113508693,"lat":31.435525165251917,"确诊日期36":"r"},{"SH_ID_36":"10g7ubz","区36":"d","地址":"罗芬路98弄","lng":121.35801649456688,"lat":31.392198310145325,"确诊日期36":"r"},{"SH_ID_36":"10g7uh3","区36":"d","地址":"罗和路855弄","lng":121.33446885720484,"lat":31.391274717878794,"确诊日期36":"r"},{"SH_ID_36":"10g7ueo","区36":"d","地址":"罗南二村","lng":121.36651763717195,"lat":31.38783467272314,"确诊日期36":"r"},{"SH_ID_36":"10g7ufn","区36":"d","地址":"罗南一村","lng":121.3621742453252,"lat":31.38392413612825,"确诊日期36":"r"},{"SH_ID_36":"10g7uh0","区36":"d","地址":"罗升路257弄","lng":121.34226518899828,"lat":31.411584693055502,"确诊日期36":"r"},{"SH_ID_36":"10g7udv","区36":"d","地址":"罗溪路1001弄","lng":121.34344313829719,"lat":31.424765074410846,"确诊日期36":"r"},{"SH_ID_36":"10g7uhb","区36":"d","地址":"罗溪路101弄","lng":121.34055219586622,"lat":31.431148367214206,"确诊日期36":"r"},{"SH_ID_36":"10g7uc5","区36":"d","地址":"罗智路258弄","lng":121.34695259617249,"lat":31.385924922512825,"确诊日期36":"r"},{"SH_ID_36":"10g7uhn","区36":"d","地址":"马泾桥一村","lng":121.41734775068683,"lat":31.41895038379504,"确诊日期36":"r"},{"SH_ID_36":"10g7uhe","区36":"d","地址":"茂盛村","lng":121.39952175536311,"lat":31.410320569110482,"确诊日期36":"r"},{"SH_ID_36":"10g7ug0","区36":"d","地址":"湄浦村","lng":121.4258980508712,"lat":31.387439424008452,"确诊日期36":"r"},{"SH_ID_36":"10g7uda","区36":"d","地址":"美安路215弄","lng":121.35205339458993,"lat":31.388220911380596,"确诊日期36":"r"},{"SH_ID_36":"10g7udk","区36":"d","地址":"美安路218弄","lng":121.34897894629266,"lat":31.38904023009337,"确诊日期36":"r"},{"SH_ID_36":"10g7uft","区36":"d","地址":"美安路628号","lng":121.34328616557202,"lat":31.38608649991404,"确诊日期36":"r"},{"SH_ID_36":"10g7ucu","区36":"d","地址":"美丹路1033弄","lng":121.33752090917372,"lat":31.392272985906015,"确诊日期36":"r"},{"SH_ID_36":"10g7udt","区36":"d","地址":"美丹路689弄","lng":121.35842725411133,"lat":31.400021036601203,"确诊日期36":"r"},{"SH_ID_36":"10g7uca","区36":"d","地址":"南陈路279弄","lng":121.39854758904113,"lat":31.30889001310602,"确诊日期36":"r"},{"SH_ID_36":"10g7uf3","区36":"d","地址":"南大路200号","lng":121.39799809142168,"lat":31.29960409272925,"确诊日期36":"r"},{"SH_ID_36":"10g7ufr","区36":"d","地址":"南大路511弄","lng":121.38168824428723,"lat":31.298385631507443,"确诊日期36":"r"},{"SH_ID_36":"10g7uec","区36":"d","地址":"南弄新村","lng":121.3445192909897,"lat":31.409019490310037,"确诊日期36":"r"},{"SH_ID_36":"10g7udx","区36":"d","地址":"年吉路220弄","lng":121.34340474125945,"lat":31.40160677463755,"确诊日期36":"r"},{"SH_ID_36":"10g7uh6","区36":"d","地址":"潘广路1855号","lng":121.35808593530656,"lat":31.36244459557013,"确诊日期36":"r"},{"SH_ID_36":"10g7ugg","区36":"d","地址":"潘沪路69弄","lng":121.33653682108199,"lat":31.480229713653618,"确诊日期36":"r"},{"SH_ID_36":"10g7ubq","区36":"d","地址":"盘古路19弄","lng":121.49267443201366,"lat":31.412835806964257,"确诊日期36":"r"},{"SH_ID_36":"10g7ufh","区36":"d","地址":"祁北东路85弄","lng":121.35309519211854,"lat":31.424723491668935,"确诊日期36":"r"},{"SH_ID_36":"10g7uc9","区36":"d","地址":"祁华路300弄","lng":121.37088338361407,"lat":31.322646426539695,"确诊日期36":"r"},{"SH_ID_36":"10g7ufj","区36":"d","地址":"祁南二村","lng":121.34937736609591,"lat":31.414419220139877,"确诊日期36":"r"},{"SH_ID_36":"10g7ueq","区36":"d","地址":"前三营房","lng":121.49988690585995,"lat":31.385803247399714,"确诊日期36":"r"},{"SH_ID_36":"10g7ug9","区36":"d","地址":"羌家村","lng":121.38589951199239,"lat":31.357318567094623,"确诊日期36":"r"},{"SH_ID_36":"10g7udp","区36":"d","地址":"勤丰村","lng":121.39229629429934,"lat":31.414677130131334,"确诊日期36":"r"},{"SH_ID_36":"10g7udz","区36":"d","地址":"三门路559弄","lng":121.48871633996572,"lat":31.31157967476485,"确诊日期36":"r"},{"SH_ID_36":"10g7uel","区36":"d","地址":"三泉路1859弄","lng":121.43611431444275,"lat":31.330087983282603,"确诊日期36":"r"},{"SH_ID_36":"10g7ufq","区36":"d","地址":"三星村","lng":121.35075740954136,"lat":31.311000661437582,"确诊日期36":"r"},{"SH_ID_36":"10g7uem","区36":"d","地址":"上大路1288弄","lng":121.38440652318867,"lat":31.308417408344358,"确诊日期36":"r"},{"SH_ID_36":"10g7ude","区36":"d","地址":"韶山路245弄","lng":121.36473251353578,"lat":31.358810333438395,"确诊日期36":"r"},{"SH_ID_36":"10g7ucb","区36":"d","地址":"韶山路348弄","lng":121.36567973806538,"lat":31.362866328115597,"确诊日期36":"r"},{"SH_ID_36":"10g7ucg","区36":"d","地址":"韶山路419弄","lng":121.36411837677423,"lat":31.364453530931524,"确诊日期36":"r"},{"SH_ID_36":"10g7uhd","区36":"d","地址":"沈巷村","lng":121.41128764625506,"lat":31.419643653387464,"确诊日期36":"r"},{"SH_ID_36":"10g7uha","区36":"d","地址":"沈杨村","lng":121.37272960568264,"lat":31.33084755762727,"确诊日期36":"r"},{"SH_ID_36":"10g7uh1","区36":"d","地址":"沈宅村","lng":121.34995360202821,"lat":31.364427749853053,"确诊日期36":"r"},{"SH_ID_36":"10g7ud0","区36":"d","地址":"盛宅村","lng":121.4106435187929,"lat":31.349110480324526,"确诊日期36":"r"},{"SH_ID_36":"10g7ue8","区36":"d","地址":"石太路2088号","lng":121.4016129364961,"lat":31.45575951571822,"确诊日期36":"r"},{"SH_ID_36":"10g7uf7","区36":"d","地址":"石太路2579号","lng":121.35091999139095,"lat":31.433074480893406,"确诊日期36":"r"},{"SH_ID_36":"10g7ueu","区36":"d","地址":"石太路2888号","lng":121.35005036833292,"lat":31.432045921995584,"确诊日期36":"r"},{"SH_ID_36":"10g7ugv","区36":"d","地址":"石太路3512弄","lng":121.34278685937623,"lat":31.42977416933062,"确诊日期36":"r"},{"SH_ID_36":"10g7uhp","区36":"d","地址":"市台路408号","lng":121.35202363761442,"lat":31.315495755179008,"确诊日期36":"r"},{"SH_ID_36":"10g7uga","区36":"d","地址":"束里桥村","lng":121.37749392247139,"lat":31.41937083428679,"确诊日期36":"r"},{"SH_ID_36":"10g7uew","区36":"d","地址":"水产路1439号","lng":121.48063219990068,"lat":31.379819951823745,"确诊日期36":"r"},{"SH_ID_36":"10g7ubo","区36":"d","地址":"水产西路268弄","lng":121.42781611052928,"lat":31.35982545191331,"确诊日期36":"r"},{"SH_ID_36":"10g7udh","区36":"d","地址":"四方村","lng":121.33939771469234,"lat":31.42927102312007,"确诊日期36":"r"},{"SH_ID_36":"10g7ugl","区36":"d","地址":"泗塘八村","lng":121.45714201634242,"lat":31.32997595423533,"确诊日期36":"r"},{"SH_ID_36":"10g7uej","区36":"d","地址":"泗塘二村","lng":121.45633935632713,"lat":31.33745132887812,"确诊日期36":"r"},{"SH_ID_36":"10g7ud8","区36":"d","地址":"泗塘七村","lng":121.46241332605136,"lat":31.330276208402793,"确诊日期36":"r"},{"SH_ID_36":"10g7ucp","区36":"d","地址":"泗塘四村","lng":121.46023740829125,"lat":31.33667152257789,"确诊日期36":"r"},{"SH_ID_36":"10g7udr","区36":"d","地址":"泗塘五村","lng":121.46184704513333,"lat":31.333183253766816,"确诊日期36":"r"},{"SH_ID_36":"10g7ugq","区36":"d","地址":"泗塘一村","lng":121.45176844778756,"lat":31.338010911478907,"确诊日期36":"r"},{"SH_ID_36":"10g7uh4","区36":"d","地址":"松兰路198弄","lng":121.45109218642477,"lat":31.367902547567468,"确诊日期36":"r"},{"SH_ID_36":"10g7ufz","区36":"d","地址":"淞滨路77弄","lng":121.49921170742634,"lat":31.375250873620967,"确诊日期36":"r"},{"SH_ID_36":"10g7ufw","区36":"d","地址":"淞滨支路120弄","lng":121.48678337119158,"lat":31.369483051725243,"确诊日期36":"r"},{"SH_ID_36":"10g7ucv","区36":"d","地址":"淞发路901弄","lng":121.48710242918028,"lat":31.342777117803937,"确诊日期36":"r"},{"SH_ID_36":"10g7ufb","区36":"d","地址":"淞南八村","lng":121.48195580347041,"lat":31.334865420228677,"确诊日期36":"r"},{"SH_ID_36":"10g7ugn","区36":"d","地址":"淞南九村","lng":121.47616254464792,"lat":31.335382970016322,"确诊日期36":"r"},{"SH_ID_36":"10g7uff","区36":"d","地址":"淞南六村","lng":121.48448347526032,"lat":31.339762932742637,"确诊日期36":"r"},{"SH_ID_36":"10g7ud6","区36":"d","地址":"淞南七村","lng":121.48191004581906,"lat":31.333482416978423,"确诊日期36":"r"},{"SH_ID_36":"10g7ufl","区36":"d","地址":"淞南三村","lng":121.48954878897933,"lat":31.344360486792556,"确诊日期36":"r"},{"SH_ID_36":"10g7ucc","区36":"d","地址":"淞南四村","lng":121.49068668000486,"lat":31.348629439685872,"确诊日期36":"r"},{"SH_ID_36":"10g7uc4","区36":"d","地址":"淞南五村","lng":121.48497336937653,"lat":31.33910003793811,"确诊日期36":"r"},{"SH_ID_36":"10g7uds","区36":"d","地址":"淞南一村","lng":121.48436795342228,"lat":31.342521175089185,"确诊日期36":"r"},{"SH_ID_36":"10g7uf4","区36":"d","地址":"淞行路323弄","lng":121.5039000951566,"lat":31.344528563367646,"确诊日期36":"r"},{"SH_ID_36":"10g7ufu","区36":"d","地址":"淞兴路305弄","lng":121.4957894333067,"lat":31.371699591571385,"确诊日期36":"r"},{"SH_ID_36":"10g7uci","区36":"d","地址":"淞肇路333弄","lng":121.48227071465047,"lat":31.342809196137683,"确诊日期36":"r"},{"SH_ID_36":"10g7ucz","区36":"d","地址":"苏家浜路435弄","lng":121.39172228369918,"lat":31.359779638076397,"确诊日期36":"r"},{"SH_ID_36":"10g7udw","区36":"d","地址":"绥化路201弄","lng":121.43179191799798,"lat":31.407314322923554,"确诊日期36":"r"},{"SH_ID_36":"10g7ueb","区36":"d","地址":"塔源路302弄","lng":121.39790858114266,"lat":31.451260071880554,"确诊日期36":"r"},{"SH_ID_36":"10g7uc0","区36":"d","地址":"泰和西路3381弄","lng":121.40702580230538,"lat":31.35132850570155,"确诊日期36":"r"},{"SH_ID_36":"10g7ud5","区36":"d","地址":"泰和西路3431号","lng":121.4070788920643,"lat":31.34987115979387,"确诊日期36":"r"},{"SH_ID_36":"10g7uf6","区36":"d","地址":"泰和西路3527弄","lng":121.39997843109131,"lat":31.34762696792659,"确诊日期36":"r"},{"SH_ID_36":"10g7ug6","区36":"d","地址":"谭杨村","lng":121.39476597251381,"lat":31.374652752753164,"确诊日期36":"r"},{"SH_ID_36":"10g7ufi","区36":"d","地址":"唐家弄","lng":121.34101753805749,"lat":31.413788419203264,"确诊日期36":"r"},{"SH_ID_36":"10g7ug4","区36":"d","地址":"塘后路203弄","lng":121.50479515481506,"lat":31.39192433741586,"确诊日期36":"r"},{"SH_ID_36":"10g7ugd","区36":"d","地址":"塘西街397弄","lng":121.3424324955975,"lat":31.421964091049087,"确诊日期36":"r"},{"SH_ID_36":"10g7ud9","区36":"d","地址":"塘西街398弄","lng":121.33934544538003,"lat":31.420825625842912,"确诊日期36":"r"},{"SH_ID_36":"10g7ubr","区36":"d","地址":"铁城路1555号","lng":121.45143919989788,"lat":31.35642810184249,"确诊日期36":"r"},{"SH_ID_36":"10g7uee","区36":"d","地址":"亭前街20弄","lng":121.34257309663806,"lat":31.41257160507474,"确诊日期36":"r"},{"SH_ID_36":"10g7uce","区36":"d","地址":"通河二村","lng":121.44709073342958,"lat":31.33382087359978,"确诊日期36":"r"},{"SH_ID_36":"10g7uc3","区36":"d","地址":"通河路535号","lng":121.44570435469745,"lat":31.337361692253495,"确诊日期36":"r"},{"SH_ID_36":"10g7ufp","区36":"d","地址":"通河七村","lng":121.45196195792573,"lat":31.329192399573046,"确诊日期36":"r"},{"SH_ID_36":"10g7uct","区36":"d","地址":"通河三村","lng":121.44481443626796,"lat":31.335702642497722,"确诊日期36":"r"},{"SH_ID_36":"10g7ue4","区36":"d","地址":"通河一村","lng":121.44694102366441,"lat":31.333701693524528,"确诊日期36":"r"},{"SH_ID_36":"10g7ugm","区36":"d","地址":"通南路328弄","lng":121.47135053141503,"lat":31.3342106877419,"确诊日期36":"r"},{"SH_ID_36":"10g7udq","区36":"d","地址":"通南路369号","lng":121.46814853314254,"lat":31.335718582463546,"确诊日期36":"r"},{"SH_ID_36":"10g7uep","区36":"d","地址":"通南路369弄","lng":121.47232762834426,"lat":31.33681934053048,"确诊日期36":"r"},{"SH_ID_36":"10g7udi","区36":"d","地址":"王宅村","lng":121.359493384402,"lat":31.33551253835259,"确诊日期36":"r"},{"SH_ID_36":"10g7uex","区36":"d","地址":"纬地路375弄","lng":121.39684898926758,"lat":31.32492209179439,"确诊日期36":"r"},{"SH_ID_36":"10g7ufx","区36":"d","地址":"五星村","lng":121.34695508565315,"lat":31.30482144894867,"确诊日期36":"r"},{"SH_ID_36":"10g7uf8","区36":"d","地址":"西浜村","lng":121.44131502336599,"lat":31.358772687330095,"确诊日期36":"r"},{"SH_ID_36":"10g7uh5","区36":"d","地址":"新二路168号","lng":121.47455798497167,"lat":31.325641955198535,"确诊日期36":"r"},{"SH_ID_36":"10g7ucd","区36":"d","地址":"新沪路1099弄","lng":121.42042688316994,"lat":31.27656288454801,"确诊日期36":"r"},{"SH_ID_36":"10g7ug1","区36":"d","地址":"新沪路689号","lng":121.4180231869135,"lat":31.271915994996917,"确诊日期36":"r"},{"SH_ID_36":"10g7udy","区36":"d","地址":"行知路572弄","lng":121.41225615486739,"lat":31.284220384880808,"确诊日期36":"r"},{"SH_ID_36":"10g7ug2","区36":"d","地址":"杨泰路99弄","lng":121.45098510248312,"lat":31.366722009371628,"确诊日期36":"r"},{"SH_ID_36":"10g7uc6","区36":"d","地址":"一二八纪念路55弄","lng":121.46632078419846,"lat":31.329025070560686,"确诊日期36":"r"},{"SH_ID_36":"10g7udo","区36":"d","地址":"逸仙二村","lng":121.49566963011233,"lat":31.317361864333492,"确诊日期36":"r"},{"SH_ID_36":"10g7ucm","区36":"d","地址":"逸仙路1511弄","lng":121.48597793645025,"lat":31.31867740538149,"确诊日期36":"r"},{"SH_ID_36":"10g7ucq","区36":"d","地址":"郁江巷路129弄","lng":121.47897530596339,"lat":31.34294941470026,"确诊日期36":"r"},{"SH_ID_36":"10g7udc","区36":"d","地址":"远景村","lng":121.33753369343883,"lat":31.404080660220043,"确诊日期36":"r"},{"SH_ID_36":"10g7ufs","区36":"d","地址":"月罗公路2501号","lng":121.34605414174304,"lat":31.407509813249227,"确诊日期36":"r"},{"SH_ID_36":"10g7uet","区36":"d","地址":"月罗公路888弄","lng":121.39075256961706,"lat":31.413494210070414,"确诊日期36":"r"},{"SH_ID_36":"10g7uhr","区36":"d","地址":"月罗公路889号","lng":121.37159783611546,"lat":31.417459098123505,"确诊日期36":"r"},{"SH_ID_36":"10g7ubn","区36":"d","地址":"月罗公路88号","lng":121.390016228444,"lat":31.415614727549155,"确诊日期36":"r"},{"SH_ID_36":"10g7ue9","区36":"d","地址":"月罗路300弄","lng":121.41142312320119,"lat":31.41710972753269,"确诊日期36":"r"},{"SH_ID_36":"10g7ucf","区36":"d","地址":"月浦十村","lng":121.43082521424853,"lat":31.414675576709346,"确诊日期36":"r"},{"SH_ID_36":"10g7ugy","区36":"d","地址":"长江南路557号","lng":121.4820169201,"lat":31.336799916678675,"确诊日期36":"r"},{"SH_ID_36":"10g7ufk","区36":"d","地址":"真华路1030弄","lng":121.41255962095028,"lat":31.275481198164517,"确诊日期36":"r"},{"SH_ID_36":"10g7ubv","区36":"d","地址":"真华路999弄","lng":121.40914879090475,"lat":31.27598695421725,"确诊日期36":"r"},{"SH_ID_36":"10g7udl","区36":"d","地址":"中食新村","lng":121.4038692760672,"lat":31.301633638479366,"确诊日期36":"r"},{"SH_ID_36":"10g7ueh","区36":"d","地址":"朱家弄村","lng":121.38763680041367,"lat":31.340625909435417,"确诊日期36":"r"},{"SH_ID_36":"10g7ubt","区36":"d","地址":"竹韵路58弄","lng":121.44497488439121,"lat":31.364289151235855,"确诊日期36":"r"},{"SH_ID_36":"10g7v56","区36":"u","地址":"陈彷公路4630号","lng":121.72192279574406,"lat":31.524359070563584,"确诊日期36":"r"},{"SH_ID_36":"10g7v4v","区36":"u","地址":"创建村","lng":121.61266060935125,"lat":31.428495805401653,"确诊日期36":"r"},{"SH_ID_36":"10g7v4u","区36":"u","地址":"丰产村","lng":121.70423499878937,"lat":31.386141233451497,"确诊日期36":"r"},{"SH_ID_36":"10g7v4n","区36":"u","地址":"丰福路699弄","lng":121.70979633011176,"lat":31.38542556141486,"确诊日期36":"r"},{"SH_ID_36":"10g7v4x","区36":"u","地址":"丰福路699弄","lng":121.71006924932608,"lat":31.385426802818532,"确诊日期36":"r"},{"SH_ID_36":"10g7v4s","区36":"u","地址":"丰康路50弄","lng":121.6998081277918,"lat":31.393936013250595,"确诊日期36":"r"},{"SH_ID_36":"10g7v4w","区36":"u","地址":"凤南路46号","lng":121.68863855817172,"lat":31.38415814411878,"确诊日期36":"r"},{"SH_ID_36":"10g7v58","区36":"u","地址":"海鸥新村","lng":121.59918649785338,"lat":31.646217040517378,"确诊日期36":"r"},{"SH_ID_36":"10g7v53","区36":"u","地址":"惠民村","lng":121.5983790853554,"lat":31.56623069217024,"确诊日期36":"r"},{"SH_ID_36":"10g7v4p","区36":"u","地址":"江南大道","lng":121.73764326006656,"lat":31.36829835916064,"确诊日期36":"r"},{"SH_ID_36":"10g7v57","区36":"u","地址":"同滧村","lng":121.73431054445076,"lat":31.591410604351257,"确诊日期36":"r"},{"SH_ID_36":"10g7v55","区36":"u","地址":"卫星村","lng":121.7183175196658,"lat":31.537909449877,"确诊日期36":"r"},{"SH_ID_36":"10g7v4o","区36":"u","地址":"先进村","lng":121.68900108682713,"lat":31.391866249713043,"确诊日期36":"r"},{"SH_ID_36":"10g7v54","区36":"u","地址":"向化村","lng":121.72929701654569,"lat":31.525693030250736,"确诊日期36":"r"},{"SH_ID_36":"10g7v50","区36":"u","地址":"协隆村","lng":121.7860099431522,"lat":31.47832751565794,"确诊日期36":"r"},{"SH_ID_36":"10g7v4r","区36":"u","地址":"新港村","lng":121.44315567714129,"lat":31.736956808608102,"确诊日期36":"r"},{"SH_ID_36":"10g7v4t","区36":"u","地址":"新建村","lng":121.56016472605319,"lat":31.611402709115993,"确诊日期36":"r"},{"SH_ID_36":"10g7v52","区36":"u","地址":"兴东村","lng":121.75303579872782,"lat":31.51198208687888,"确诊日期36":"r"},{"SH_ID_36":"10g7v4z","区36":"u","地址":"裕安路48号","lng":121.83507878561721,"lat":31.526519511359915,"确诊日期36":"r"},{"SH_ID_36":"10g7v51","区36":"u","地址":"裕西村","lng":121.8242389789154,"lat":31.54756281058567,"确诊日期36":"r"},{"SH_ID_36":"10g7v4y","区36":"u","地址":"长橘路500弄","lng":121.69603573826797,"lat":31.396851679897903,"确诊日期36":"r"},{"SH_ID_36":"10g7v4q","区36":"u","地址":"长凯路277号","lng":121.73514607362388,"lat":31.375422501615937,"确诊日期36":"r"},{"SH_ID_36":"10g7v4m","区36":"k","地址":"百富路388弄","lng":121.49290272603533,"lat":30.91158180950734,"确诊日期36":"r"},{"SH_ID_36":"10g7v3o","区36":"k","地址":"北虹路67号","lng":121.44428591060642,"lat":30.96336992016916,"确诊日期36":"r"},{"SH_ID_36":"10g7v3q","区36":"k","地址":"北环路1288号","lng":121.37711477970247,"lat":30.959976822980277,"确诊日期36":"r"},{"SH_ID_36":"10g7v4e","区36":"k","地址":"北新村","lng":121.44287052110724,"lat":30.927515573330044,"确诊日期36":"r"},{"SH_ID_36":"10g7v2z","区36":"k","地址":"北行路555弄","lng":121.50772441898154,"lat":30.97040165568263,"确诊日期36":"r"},{"SH_ID_36":"10g7v2j","区36":"k","地址":"贝港南区","lng":121.44614079532174,"lat":30.90781043708452,"确诊日期36":"r"},{"SH_ID_36":"10g7v2y","区36":"k","地址":"大桥村","lng":121.71173368864952,"lat":30.955716281881028,"确诊日期36":"r"},{"SH_ID_36":"10g7v3r","区36":"k","地址":"灯民村","lng":121.6357340621346,"lat":30.906454771062343,"确诊日期36":"r"},{"SH_ID_36":"10g7v2f","区36":"k","地址":"灯塔村","lng":121.42467322960628,"lat":30.9848416036753,"确诊日期36":"r"},{"SH_ID_36":"10g7v30","区36":"k","地址":"发展村","lng":121.43196434398178,"lat":30.965739306579255,"确诊日期36":"r"},{"SH_ID_36":"10g7v4l","区36":"k","地址":"奉浦大道95弄","lng":121.46455213809378,"lat":30.941928644140482,"确诊日期36":"r"},{"SH_ID_36":"10g7v3u","区36":"k","地址":"扶港路388弄","lng":121.44145417809574,"lat":30.990286824656103,"确诊日期36":"r"},{"SH_ID_36":"10g7v2r","区36":"k","地址":"扶港路629弄","lng":121.44533158108453,"lat":30.98817695164775,"确诊日期36":"r"},{"SH_ID_36":"10g7v34","区36":"k","地址":"扶兰路9弄","lng":121.44113421839067,"lat":30.987434205563428,"确诊日期36":"r"},{"SH_ID_36":"10g7v2s","区36":"k","地址":"光大路12号","lng":121.58977223927651,"lat":30.912564983594038,"确诊日期36":"r"},{"SH_ID_36":"10g7v29","区36":"k","地址":"光辉村","lng":121.58124743473462,"lat":30.992045980794003,"确诊日期36":"r"},{"SH_ID_36":"10g7v2t","区36":"k","地址":"国顺路218弄","lng":121.46460723343058,"lat":30.933650981869256,"确诊日期36":"r"},{"SH_ID_36":"10g7v2m","区36":"k","地址":"国顺路318弄","lng":121.46122618445963,"lat":30.933036993283473,"确诊日期36":"r"},{"SH_ID_36":"10g7v3p","区36":"k","地址":"国顺路369弄","lng":121.45848807213875,"lat":30.93185555286936,"确诊日期36":"r"},{"SH_ID_36":"10g7v2n","区36":"k","地址":"海滨二村","lng":121.56987525467432,"lat":30.858448438860968,"确诊日期36":"r"},{"SH_ID_36":"10g7v3g","区36":"k","地址":"海旗路1518弄","lng":121.7377910125832,"lat":30.894495198104213,"确诊日期36":"r"},{"SH_ID_36":"10g7v46","区36":"k","地址":"航南公路2880号","lng":121.52387929151469,"lat":30.964494425491512,"确诊日期36":"r"},{"SH_ID_36":"10g7v3z","区36":"k","地址":"湖堤路199弄","lng":121.49354378743372,"lat":30.93524892823665,"确诊日期36":"r"},{"SH_ID_36":"10g7v36","区36":"k","地址":"护民村","lng":121.63558984821756,"lat":30.891771458241085,"确诊日期36":"r"},{"SH_ID_36":"10g7v4h","区36":"k","地址":"沪杭公路303弄","lng":121.43422165080753,"lat":30.987652802629988,"确诊日期36":"r"},{"SH_ID_36":"10g7v2v","区36":"k","地址":"沪杭公路397弄","lng":121.43548063417495,"lat":30.98487978905153,"确诊日期36":"r"},{"SH_ID_36":"10g7v2e","区36":"k","地址":"沪杭公路66弄","lng":121.44270269144715,"lat":30.962256258445006,"确诊日期36":"r"},{"SH_ID_36":"10g7v48","区36":"k","地址":"环城东路562号","lng":121.46094005407674,"lat":30.938298231471688,"确诊日期36":"r"},{"SH_ID_36":"10g7v3t","区36":"k","地址":"环城东路885弄","lng":121.47015388177451,"lat":30.928126591681234,"确诊日期36":"r"},{"SH_ID_36":"10g7v3c","区36":"k","地址":"环城南路1065弄","lng":121.45219698628992,"lat":30.901190175346283,"确诊日期36":"r"},{"SH_ID_36":"10g7v2a","区36":"k","地址":"汇安村","lng":121.40222814646557,"lat":30.959997237936484,"确诊日期36":"r"},{"SH_ID_36":"10g7v3x","区36":"k","地址":"集贤村","lng":121.69658335353357,"lat":30.915747388005855,"确诊日期36":"r"},{"SH_ID_36":"10g7v27","区36":"k","地址":"嘉园路361弄","lng":121.49372484501075,"lat":30.959537091656507,"确诊日期36":"r"},{"SH_ID_36":"10g7v2w","区36":"k","地址":"江海村","lng":121.44489403602473,"lat":30.89465467604036,"确诊日期36":"r"},{"SH_ID_36":"10g7v3w","区36":"k","地址":"江海路90弄","lng":121.4596950535483,"lat":30.903026074144382,"确诊日期36":"r"},{"SH_ID_36":"10g7v4k","区36":"k","地址":"郊南村","lng":121.47113077021555,"lat":30.83226262973313,"确诊日期36":"r"},{"SH_ID_36":"10g7v2i","区36":"k","地址":"解放二村","lng":121.45383225697103,"lat":30.912779539550705,"确诊日期36":"r"},{"SH_ID_36":"10g7v31","区36":"k","地址":"金碧路1980弄","lng":121.50818610433986,"lat":30.971272922907666,"确诊日期36":"r"},{"SH_ID_36":"10g7v40","区36":"k","地址":"金港村","lng":121.45517259505418,"lat":30.97968370679633,"确诊日期36":"r"},{"SH_ID_36":"10g7v4j","区36":"k","地址":"金海村","lng":121.50138316012658,"lat":30.871925907383975,"确诊日期36":"r"},{"SH_ID_36":"10g7v3e","区36":"k","地址":"金汇东街小区","lng":121.50507915471132,"lat":30.987824454081117,"确诊日期36":"r"},{"SH_ID_36":"10g7v3v","区36":"k","地址":"金齐路348弄","lng":121.49241264682932,"lat":30.954107999647142,"确诊日期36":"r"},{"SH_ID_36":"10g7v3j","区36":"k","地址":"九华路908弄","lng":121.4481487246391,"lat":30.925121036788887,"确诊日期36":"r"},{"SH_ID_36":"10g7v4i","区36":"k","地址":"兰博路1801弄","lng":121.65677508585037,"lat":30.9078214186862,"确诊日期36":"r"},{"SH_ID_36":"10g7v2p","区36":"k","地址":"李窑村","lng":121.59182249560381,"lat":30.913585394724773,"确诊日期36":"r"},{"SH_ID_36":"10g7v39","区36":"k","地址":"六墩村","lng":121.46593628396418,"lat":30.894152689618625,"确诊日期36":"r"},{"SH_ID_36":"10g7v44","区36":"k","地址":"明星村","lng":121.55322514864373,"lat":30.98177212741215,"确诊日期36":"r"},{"SH_ID_36":"10g7v3m","区36":"k","地址":"南渡村","lng":121.45155401322698,"lat":30.999545054278713,"确诊日期36":"r"},{"SH_ID_36":"10g7v3s","区36":"k","地址":"南奉公路8889弄","lng":121.47713730607661,"lat":30.911112536760815,"确诊日期36":"r"},{"SH_ID_36":"10g7v41","区36":"k","地址":"浦秀村","lng":121.40413668806585,"lat":30.98226818116307,"确诊日期36":"r"},{"SH_ID_36":"10g7v3i","区36":"k","地址":"青伟路111号","lng":121.60421226109467,"lat":30.933050262823016,"确诊日期36":"r"},{"SH_ID_36":"10g7v3y","区36":"k","地址":"清宁路359弄","lng":121.51430053183269,"lat":30.941782650477858,"确诊日期36":"r"},{"SH_ID_36":"10g7v4c","区36":"k","地址":"清宁路488弄","lng":121.51129337544197,"lat":30.942433645594352,"确诊日期36":"r"},{"SH_ID_36":"10g7v2g","区36":"k","地址":"邵平路1号","lng":121.75700407155833,"lat":30.90713064179588,"确诊日期36":"r"},{"SH_ID_36":"10g7v3n","区36":"k","地址":"邵靴村","lng":121.76997297671748,"lat":30.895888041860026,"确诊日期36":"r"},{"SH_ID_36":"10g7v4d","区36":"k","地址":"申隆一村","lng":121.57686053294006,"lat":30.88804015711347,"确诊日期36":"r"},{"SH_ID_36":"10g7v3k","区36":"k","地址":"沈陆村","lng":121.45342322677878,"lat":30.894489233183354,"确诊日期36":"r"},{"SH_ID_36":"10g7v42","区36":"k","地址":"拾村村","lng":121.74576095499427,"lat":30.946199574184714,"确诊日期36":"r"},{"SH_ID_36":"10g7v43","区36":"k","地址":"市场路46弄","lng":121.72822797303817,"lat":30.9423092958243,"确诊日期36":"r"},{"SH_ID_36":"10g7v49","区36":"k","地址":"曙光村","lng":121.4911950684462,"lat":30.90444629829926,"确诊日期36":"r"},{"SH_ID_36":"10g7v4b","区36":"k","地址":"泰南新村","lng":121.55424748948766,"lat":30.908811648193126,"确诊日期36":"r"},{"SH_ID_36":"10g7v2q","区36":"k","地址":"泰青路278号","lng":121.5644435953915,"lat":30.9823702645788,"确诊日期36":"r"},{"SH_ID_36":"10g7v4f","区36":"k","地址":"泰叶路159弄","lng":121.561161535492,"lat":30.977763195619577,"确诊日期36":"r"},{"SH_ID_36":"10g7v47","区36":"k","地址":"陶宅村","lng":121.55218831448396,"lat":30.94809168069762,"确诊日期36":"r"},{"SH_ID_36":"10g7v3l","区36":"k","地址":"湾张村","lng":121.52988406427043,"lat":30.92033193450282,"确诊日期36":"r"},{"SH_ID_36":"10g7v4g","区36":"k","地址":"万顺路2088弄","lng":121.51748511047428,"lat":30.957870678192734,"确诊日期36":"r"},{"SH_ID_36":"10g7v32","区36":"k","地址":"万顺路2968弄","lng":121.51657544221835,"lat":30.97092904520079,"确诊日期36":"r"},{"SH_ID_36":"10g7v2l","区36":"k","地址":"吴塘村","lng":121.41227072971556,"lat":30.959125190680766,"确诊日期36":"r"},{"SH_ID_36":"10g7v2k","区36":"k","地址":"吴塘路527弄","lng":121.44464370786923,"lat":30.95962948596701,"确诊日期36":"r"},{"SH_ID_36":"10g7v2u","区36":"k","地址":"吴塘路799弄","lng":121.44433183900179,"lat":30.96097985187268,"确诊日期36":"r"},{"SH_ID_36":"10g7v3h","区36":"k","地址":"西门港一村","lng":121.73799842709367,"lat":30.865696352793247,"确诊日期36":"r"},{"SH_ID_36":"10g7v2c","区36":"k","地址":"西闸路75号","lng":121.43432316412463,"lat":30.99422107243782,"确诊日期36":"r"},{"SH_ID_36":"10g7v2h","区36":"k","地址":"新粮路755弄","lng":121.46469184679609,"lat":30.862631478624206,"确诊日期36":"r"},{"SH_ID_36":"10g7v2x","区36":"k","地址":"新四平公路468弄","lng":121.74167232237886,"lat":30.89187602454099,"确诊日期36":"r"},{"SH_ID_36":"10g7v3f","区36":"k","地址":"益民村（西渡街道）","lng":121.47905346071818,"lat":30.978815212212783,"确诊日期36":"r"},{"SH_ID_36":"10g7v37","区36":"k","地址":"永南路1688号","lng":121.51681377366512,"lat":31.0060935130681,"确诊日期36":"r"},{"SH_ID_36":"10g7v28","区36":"k","地址":"邮电路188号","lng":121.64149911837953,"lat":30.90744421696407,"确诊日期36":"r"},{"SH_ID_36":"10g7v3a","区36":"k","地址":"育秀六区","lng":121.46291361401404,"lat":30.906503162847386,"确诊日期36":"r"},{"SH_ID_36":"10g7v35","区36":"k","地址":"育秀路209号","lng":121.46559542161053,"lat":30.908909297528094,"确诊日期36":"r"},{"SH_ID_36":"10g7v3b","区36":"k","地址":"育秀路438弄","lng":121.463278202059,"lat":30.908273591444743,"确诊日期36":"r"},{"SH_ID_36":"10g7v2b","区36":"k","地址":"育秀十一区","lng":121.4720571252622,"lat":30.906943390067358,"确诊日期36":"r"},{"SH_ID_36":"10g7v38","区36":"k","地址":"运河北路1351弄","lng":121.43933389253492,"lat":30.918147373128544,"确诊日期36":"r"},{"SH_ID_36":"10g7v3d","区36":"k","地址":"张翁庙路525号","lng":121.43811850974014,"lat":30.932875460530777,"确诊日期36":"r"},{"SH_ID_36":"10g7v45","区36":"k","地址":"振泰路76弄","lng":121.56359338823911,"lat":30.981226667911095,"确诊日期36":"r"},{"SH_ID_36":"10g7v2o","区36":"k","地址":"正旭路1058号","lng":121.74811538361683,"lat":30.88200284394044,"确诊日期36":"r"},{"SH_ID_36":"10g7v33","区36":"k","地址":"政旭路1058号","lng":121.4739585870239,"lat":30.91798098709667,"确诊日期36":"r"},{"SH_ID_36":"10g7v4a","区36":"k","地址":"周家村","lng":121.59897762513975,"lat":30.987602788152408,"确诊日期36":"r"},{"SH_ID_36":"10g7v2d","区36":"k","地址":"朱店村","lng":121.5544260207253,"lat":30.919763954608268,"确诊日期36":"r"},{"SH_ID_36":"10g7u6h","区36":"9","地址":"安汾路780弄","lng":121.47481680154624,"lat":31.315163618812065,"确诊日期36":"r"},{"SH_ID_36":"10g7u2q","区36":"9","地址":"安国路280号","lng":121.50520510154098,"lat":31.260189699548352,"确诊日期36":"r"},{"SH_ID_36":"10g7u2z","区36":"9","地址":"安国路56号","lng":121.50815042608761,"lat":31.257436813363242,"确诊日期36":"r"},{"SH_ID_36":"10g7u4t","区36":"9","地址":"宝山路838号","lng":121.47934241281244,"lat":31.263533341543774,"确诊日期36":"r"},{"SH_ID_36":"10g7u2w","区36":"9","地址":"保定路257号","lng":121.51046419939946,"lat":31.257847810142255,"确诊日期36":"r"},{"SH_ID_36":"10g7u6r","区36":"9","地址":"保定路320弄","lng":121.51225410161132,"lat":31.256003855009542,"确诊日期36":"r"},{"SH_ID_36":"10g7u77","区36":"9","地址":"保定路520号","lng":121.5076660328988,"lat":31.261163232109496,"确诊日期36":"r"},{"SH_ID_36":"10g7u2u","区36":"9","地址":"北苏州路410号","lng":121.4833861266098,"lat":31.242834719820284,"确诊日期36":"r"},{"SH_ID_36":"10g7u21","区36":"9","地址":"场中路4弄","lng":121.48428739301772,"lat":31.30726159739509,"确诊日期36":"r"},{"SH_ID_36":"10g7u4w","区36":"9","地址":"场中路803弄","lng":121.46944440672014,"lat":31.306509291363817,"确诊日期36":"r"},{"SH_ID_36":"10g7u7b","区36":"9","地址":"车站北路491弄","lng":121.47394118257152,"lat":31.295912951862185,"确诊日期36":"r"},{"SH_ID_36":"10g7u55","区36":"9","地址":"车站北路500弄","lng":121.47345001839308,"lat":31.297475322359798,"确诊日期36":"r"},{"SH_ID_36":"10g7u4y","区36":"9","地址":"车站北路625弄","lng":121.4701640467861,"lat":31.297232995275092,"确诊日期36":"r"},{"SH_ID_36":"10g7u73","区36":"9","地址":"车站北路715弄","lng":121.46607478588871,"lat":31.296353570642577,"确诊日期36":"r"},{"SH_ID_36":"10g7u4z","区36":"9","地址":"车站北路716弄","lng":121.46648038055534,"lat":31.297591620985276,"确诊日期36":"r"},{"SH_ID_36":"10g7u72","区36":"9","地址":"车站北路732弄","lng":121.46605669825634,"lat":31.297886539806832,"确诊日期36":"r"},{"SH_ID_36":"10g7u41","区36":"9","地址":"车站西路288弄","lng":121.48276866085453,"lat":31.299352951695383,"确诊日期36":"r"},{"SH_ID_36":"10g7u3t","区36":"9","地址":"车站西路303弄","lng":121.4828456771871,"lat":31.300244929583744,"确诊日期36":"r"},{"SH_ID_36":"10g7u47","区36":"9","地址":"赤峰路370弄","lng":121.49275447873049,"lat":31.283026375783543,"确诊日期36":"r"},{"SH_ID_36":"10g7u2r","区36":"9","地址":"川公路146弄","lng":121.48229807421568,"lat":31.25565212414548,"确诊日期36":"r"},{"SH_ID_36":"10g7u2k","区36":"9","地址":"大连西路11号","lng":121.49841823796908,"lat":31.276426545866176,"确诊日期36":"r"},{"SH_ID_36":"10g7u56","区36":"9","地址":"大连西路165弄","lng":121.49573856488674,"lat":31.276221310570417,"确诊日期36":"r"},{"SH_ID_36":"10g7u6f","区36":"9","地址":"大连西路215弄","lng":121.49131031461565,"lat":31.275269947840723,"确诊日期36":"r"},{"SH_ID_36":"10g7u76","区36":"9","地址":"大连西路257弄","lng":121.48852865174898,"lat":31.27549042622738,"确诊日期36":"r"},{"SH_ID_36":"10g7u6i","区36":"9","地址":"大连西路270弄","lng":121.48749269953679,"lat":31.27729524828761,"确诊日期36":"r"},{"SH_ID_36":"10g7u69","区36":"9","地址":"东宝兴路673号","lng":121.47648495003564,"lat":31.261983447112463,"确诊日期36":"r"},{"SH_ID_36":"10g7u2p","区36":"9","地址":"东宝兴路895号","lng":121.4732002530067,"lat":31.264591750707417,"确诊日期36":"r"},{"SH_ID_36":"10g7u2s","区36":"9","地址":"东汉阳路8号","lng":121.49536672598751,"lat":31.251018932857157,"确诊日期36":"r"},{"SH_ID_36":"10g7u4f","区36":"9","地址":"东沙虹港路10号","lng":121.49672512022467,"lat":31.269829406065625,"确诊日期36":"r"},{"SH_ID_36":"10g7u53","区36":"9","地址":"东体育会路100弄","lng":121.48168477341781,"lat":31.274545813321165,"确诊日期36":"r"},{"SH_ID_36":"10g7u4p","区36":"9","地址":"东体育会路1091号","lng":121.49001294448439,"lat":31.287392614301428,"确诊日期36":"r"},{"SH_ID_36":"10g7u3e","区36":"9","地址":"东体育会路10号","lng":121.48045807095382,"lat":31.274787241954595,"确诊日期36":"r"},{"SH_ID_36":"10g7u58","区36":"9","地址":"东体育会路119弄","lng":121.48200637037714,"lat":31.273125582390907,"确诊日期36":"r"},{"SH_ID_36":"10g7u4a","区36":"9","地址":"东体育会路657弄","lng":121.48672207763549,"lat":31.28096972426017,"确诊日期36":"r"},{"SH_ID_36":"10g7u5s","区36":"9","地址":"东体育会路990号","lng":121.4888038028232,"lat":31.28650384080509,"确诊日期36":"r"},{"SH_ID_36":"10g7u6g","区36":"9","地址":"东体育会支路65弄","lng":121.48117906978716,"lat":31.273337754420357,"确诊日期36":"r"},{"SH_ID_36":"10g7u70","区36":"9","地址":"东余杭路1062号","lng":121.50614263190882,"lat":31.258533937469696,"确诊日期36":"r"},{"SH_ID_36":"10g7u5i","区36":"9","地址":"东余杭路132号","lng":121.50859878203858,"lat":31.260835709099993,"确诊日期36":"r"},{"SH_ID_36":"10g7u5h","区36":"9","地址":"东余杭路186号","lng":121.49295374206935,"lat":31.2529031521576,"确诊日期36":"r"},{"SH_ID_36":"10g7u38","区36":"9","地址":"东余杭路211弄","lng":121.492963277424,"lat":31.252472564487196,"确诊日期36":"r"},{"SH_ID_36":"10g7u5z","区36":"9","地址":"东余杭路222号","lng":121.49351221176339,"lat":31.25171509544048,"确诊日期36":"r"},{"SH_ID_36":"10g7u5k","区36":"9","地址":"东余杭路869弄","lng":121.50343763773824,"lat":31.256212415460624,"确诊日期36":"r"},{"SH_ID_36":"10g7u57","区36":"9","地址":"多伦路177弄","lng":121.48144465341095,"lat":31.263266298820902,"确诊日期36":"r"},{"SH_ID_36":"10g7u5j","区36":"9","地址":"峨嵋路299弄","lng":121.49063442918553,"lat":31.250005751010345,"确诊日期36":"r"},{"SH_ID_36":"10g7u3h","区36":"9","地址":"峨嵋路366弄","lng":121.49038865211246,"lat":31.251854726021545,"确诊日期36":"r"},{"SH_ID_36":"10g7u3j","区36":"9","地址":"飞虹路1003弄","lng":121.50516629810491,"lat":31.26400816901844,"确诊日期36":"r"},{"SH_ID_36":"10g7u2n","区36":"9","地址":"飞虹路288弄","lng":121.50348460610205,"lat":31.26506110823078,"确诊日期36":"r"},{"SH_ID_36":"10g7u6n","区36":"9","地址":"丰镇路780号","lng":121.47034981038522,"lat":31.304714759946055,"确诊日期36":"r"},{"SH_ID_36":"10g7u49","区36":"9","地址":"公平路768弄","lng":121.50098466883783,"lat":31.260410259899245,"确诊日期36":"r"},{"SH_ID_36":"10g7u29","区36":"9","地址":"沽源路112弄","lng":121.47717467918616,"lat":31.302049416059837,"确诊日期36":"r"},{"SH_ID_36":"10g7u5r","区36":"9","地址":"沽源路6号","lng":121.479079887988,"lat":31.302118837899354,"确诊日期36":"r"},{"SH_ID_36":"10g7u35","区36":"9","地址":"广灵二村","lng":121.4786372818317,"lat":31.285864900015326,"确诊日期36":"r"},{"SH_ID_36":"10g7u48","区36":"9","地址":"广灵二路380弄","lng":121.4704713146078,"lat":31.283687683045112,"确诊日期36":"r"},{"SH_ID_36":"10g7u66","区36":"9","地址":"广灵四路365弄","lng":121.47107556913181,"lat":31.286807881661236,"确诊日期36":"r"},{"SH_ID_36":"10g7u6t","区36":"9","地址":"广灵四路881弄","lng":121.46215623562338,"lat":31.281034412318327,"确诊日期36":"r"},{"SH_ID_36":"10g7u2e","区36":"9","地址":"广灵一村","lng":121.4780923330659,"lat":31.286798878125555,"确诊日期36":"r"},{"SH_ID_36":"10g7u6m","区36":"9","地址":"广粤路1577弄","lng":121.46483300087455,"lat":31.302119272932245,"确诊日期36":"r"},{"SH_ID_36":"10g7u67","区36":"9","地址":"广粤路219号","lng":121.46557944330243,"lat":31.285002829214942,"确诊日期36":"r"},{"SH_ID_36":"10g7u4u","区36":"9","地址":"广粤路53弄","lng":121.46374325172248,"lat":31.28183248828437,"确诊日期36":"r"},{"SH_ID_36":"10g7u71","区36":"9","地址":"广粤路577弄","lng":121.4670110900013,"lat":31.293975512126874,"确诊日期36":"r"},{"SH_ID_36":"10g7u3q","区36":"9","地址":"广中二村","lng":121.47870774487711,"lat":31.27891346732435,"确诊日期36":"r"},{"SH_ID_36":"10g7u78","区36":"9","地址":"广中路564号","lng":121.46779532475406,"lat":31.27992269455104,"确诊日期36":"r"},{"SH_ID_36":"10g7u2o","区36":"9","地址":"广中路680弄","lng":121.46240711093967,"lat":31.279740718845364,"确诊日期36":"r"},{"SH_ID_36":"10g7u5y","区36":"9","地址":"广中五村","lng":121.47669746416011,"lat":31.277624238121042,"确诊日期36":"r"},{"SH_ID_36":"10g7u4q","区36":"9","地址":"海伦路178号","lng":121.49411687080212,"lat":31.25701511310096,"确诊日期36":"r"},{"SH_ID_36":"10g7u30","区36":"9","地址":"海宁路105号","lng":121.49068632339873,"lat":31.2526875146285,"确诊日期36":"r"},{"SH_ID_36":"10g7u5d","区36":"9","地址":"海宁路55号","lng":121.49048867218748,"lat":31.2520767165053,"确诊日期36":"r"},{"SH_ID_36":"10g7u31","区36":"9","地址":"海宁路5号","lng":121.49167158302726,"lat":31.252924045245877,"确诊日期36":"r"},{"SH_ID_36":"10g7u24","区36":"9","地址":"邯郸路39号","lng":121.49163902958954,"lat":31.292765399946777,"确诊日期36":"r"},{"SH_ID_36":"10g7u25","区36":"9","地址":"邯郸路47弄","lng":121.4937879321138,"lat":31.29317292495038,"确诊日期36":"r"},{"SH_ID_36":"10g7u4n","区36":"9","地址":"虹关路323弄","lng":121.49673602976682,"lat":31.264884670756583,"确诊日期36":"r"},{"SH_ID_36":"10g7u40","区36":"9","地址":"虹湾路10号","lng":121.4721346329548,"lat":31.313201826175252,"确诊日期36":"r"},{"SH_ID_36":"10g7u3z","区36":"9","地址":"虹湾路23号","lng":121.47180628800825,"lat":31.313352608318073,"确诊日期36":"r"},{"SH_ID_36":"10g7u2h","区36":"9","地址":"虹湾路288弄","lng":121.470208411958,"lat":31.31434723527862,"确诊日期36":"r"},{"SH_ID_36":"10g7u75","区36":"9","地址":"虹湾路313弄","lng":121.47082118866557,"lat":31.31211652097663,"确诊日期36":"r"},{"SH_ID_36":"10g7u2g","区36":"9","地址":"虹湾路55弄","lng":121.47477480362767,"lat":31.312726696939023,"确诊日期36":"r"},{"SH_ID_36":"10g7u3o","区36":"9","地址":"虹镇老街267号","lng":121.50362571026307,"lat":31.26738513958016,"确诊日期36":"r"},{"SH_ID_36":"10g7u3w","区36":"9","地址":"花园路118弄","lng":121.47451830541145,"lat":31.27091366799131,"确诊日期36":"r"},{"SH_ID_36":"10g7u68","区36":"9","地址":"华昌路9号","lng":121.47846957073591,"lat":31.26129834259668,"确诊日期36":"r"},{"SH_ID_36":"10g7u45","区36":"9","地址":"华严路58弄","lng":121.47404801451883,"lat":31.30188886063668,"确诊日期36":"r"},{"SH_ID_36":"10g7u63","区36":"9","地址":"辉河路43弄","lng":121.49622967385031,"lat":31.288974892239473,"确诊日期36":"r"},{"SH_ID_36":"10g7u3u","区36":"9","地址":"惠民路238号","lng":121.51404272600207,"lat":31.25411046805977,"确诊日期36":"r"},{"SH_ID_36":"10g7u3p","区36":"9","地址":"惠民路254号","lng":121.5140149958822,"lat":31.25423154301582,"确诊日期36":"r"},{"SH_ID_36":"10g7u3f","区36":"9","地址":"吉祥路448弄","lng":121.48491486512665,"lat":31.265553621957586,"确诊日期36":"r"},{"SH_ID_36":"10g7u5a","区36":"9","地址":"蒋家桥路9号","lng":121.49736451249584,"lat":31.272153921834832,"确诊日期36":"r"},{"SH_ID_36":"10g7u5e","区36":"9","地址":"九龙路515号","lng":121.49177790394386,"lat":31.252178881939262,"确诊日期36":"r"},{"SH_ID_36":"10g7u5g","区36":"9","地址":"奎照路11弄","lng":121.47126417516007,"lat":31.30021407482931,"确诊日期36":"r"},{"SH_ID_36":"10g7u5n","区36":"9","地址":"奎照路275弄","lng":121.4800083535089,"lat":31.30011196106983,"确诊日期36":"r"},{"SH_ID_36":"10g7u46","区36":"9","地址":"奎照路30弄","lng":121.48405502403659,"lat":31.30107601675256,"确诊日期36":"r"},{"SH_ID_36":"10g7u6w","区36":"9","地址":"奎照路790弄","lng":121.46894684863105,"lat":31.299783664216644,"确诊日期36":"r"},{"SH_ID_36":"10g7u3v","区36":"9","地址":"昆山路172弄","lng":121.48768006254188,"lat":31.24958923686974,"确诊日期36":"r"},{"SH_ID_36":"10g7u3g","区36":"9","地址":"溧阳路1114弄","lng":121.48773081011366,"lat":31.26161904510032,"确诊日期36":"r"},{"SH_ID_36":"10g7u60","区36":"9","地址":"溧阳路375号","lng":121.49210730695799,"lat":31.251035749083645,"确诊日期36":"r"},{"SH_ID_36":"10g7u4b","区36":"9","地址":"溧阳路479号","lng":121.49252201751891,"lat":31.252531141080038,"确诊日期36":"r"},{"SH_ID_36":"10g7u5f","区36":"9","地址":"溧阳路491号","lng":121.49252380018038,"lat":31.25255410523538,"确诊日期36":"r"},{"SH_ID_36":"10g7u6v","区36":"9","地址":"凉城路1201弄","lng":121.46985931322392,"lat":31.30336157055481,"确诊日期36":"r"},{"SH_ID_36":"10g7u36","区36":"9","地址":"凉城路126弄","lng":121.47000933022554,"lat":31.281282023180058,"确诊日期36":"r"},{"SH_ID_36":"10g7u42","区36":"9","地址":"凉城路1319号","lng":121.47084561061459,"lat":31.305897797616147,"确诊日期36":"r"},{"SH_ID_36":"10g7u43","区36":"9","地址":"凉城路539弄","lng":121.47028792256465,"lat":31.28913507859673,"确诊日期36":"r"},{"SH_ID_36":"10g7u44","区36":"9","地址":"凉城路55弄","lng":121.47472464918673,"lat":31.311934959840197,"确诊日期36":"r"},{"SH_ID_36":"10g7u2i","区36":"9","地址":"凉城路846弄","lng":121.46956310399146,"lat":31.28036002926046,"确诊日期36":"r"},{"SH_ID_36":"10g7u7a","区36":"9","地址":"临平路256弄","lng":121.49528467651933,"lat":31.26253968332371,"确诊日期36":"r"},{"SH_ID_36":"10g7u5l","区36":"9","地址":"旅顺路71弄","lng":121.49577486581927,"lat":31.24841581036316,"确诊日期36":"r"},{"SH_ID_36":"10g7u62","区36":"9","地址":"马厂路49弄","lng":121.4958180563669,"lat":31.247962304104362,"确诊日期36":"r"},{"SH_ID_36":"10g7u2d","区36":"9","地址":"密云路471弄","lng":121.49540684662612,"lat":31.282993613881672,"确诊日期36":"r"},{"SH_ID_36":"10g7u6q","区36":"9","地址":"密云路665弄","lng":121.50175539129613,"lat":31.289478016498176,"确诊日期36":"r"},{"SH_ID_36":"10g7u6o","区36":"9","地址":"欧阳路452弄","lng":121.48626047785437,"lat":31.272132126338487,"确诊日期36":"r"},{"SH_ID_36":"10g7u6c","区36":"9","地址":"欧阳路545弄","lng":121.48767439456823,"lat":31.273214792645874,"确诊日期36":"r"},{"SH_ID_36":"10g7u6d","区36":"9","地址":"曲阳路269弄","lng":121.49173758723303,"lat":31.271966908254484,"确诊日期36":"r"},{"SH_ID_36":"10g7u3n","区36":"9","地址":"曲阳路383弄","lng":121.49161654300357,"lat":31.272576751231554,"确诊日期36":"r"},{"SH_ID_36":"10g7u3s","区36":"9","地址":"曲阳路820弄","lng":121.49140878358727,"lat":31.28758569449486,"确诊日期36":"r"},{"SH_ID_36":"10g7u2a","区36":"9","地址":"曲阳路851弄","lng":121.49032271260774,"lat":31.290997574763654,"确诊日期36":"r"},{"SH_ID_36":"10g7u27","区36":"9","地址":"曲阳路890号","lng":121.49152481092496,"lat":31.272566468330403,"确诊日期36":"r"},{"SH_ID_36":"10g7u2b","区36":"9","地址":"曲阳路990弄","lng":121.4909156194901,"lat":31.29209125605866,"确诊日期36":"r"},{"SH_ID_36":"10g7u4r","区36":"9","地址":"仁德路400弄","lng":121.48338831652639,"lat":31.304062444842078,"确诊日期36":"r"},{"SH_ID_36":"10g7u6a","区36":"9","地址":"仁德路420弄","lng":121.48257628949608,"lat":31.3032791136104,"确诊日期36":"r"},{"SH_ID_36":"10g7u28","区36":"9","地址":"三门路759弄","lng":121.47952529295605,"lat":31.312192983821447,"确诊日期36":"r"},{"SH_ID_36":"10g7u3c","区36":"9","地址":"三门路77弄","lng":121.48616024318949,"lat":31.3115430061057,"确诊日期36":"r"},{"SH_ID_36":"10g7u4g","区36":"9","地址":"山阴路156弄","lng":121.48487085434947,"lat":31.266196767887184,"确诊日期36":"r"},{"SH_ID_36":"10g7u2x","区36":"9","地址":"山阴路343号","lng":121.48549319083666,"lat":31.269686745682765,"确诊日期36":"r"},{"SH_ID_36":"10g7u4c","区36":"9","地址":"商丘路399弄","lng":121.49522211282401,"lat":31.253008947687547,"确诊日期36":"r"},{"SH_ID_36":"10g7u5v","区36":"9","地址":"水电路1013弄","lng":121.47867325009439,"lat":31.28828729528036,"确诊日期36":"r"},{"SH_ID_36":"10g7u4s","区36":"9","地址":"水电路1324弄","lng":121.47594343555153,"lat":31.29184825682942,"确诊日期36":"r"},{"SH_ID_36":"10g7u5u","区36":"9","地址":"水电路1381弄","lng":121.47740147096576,"lat":31.29769175686344,"确诊日期36":"r"},{"SH_ID_36":"10g7u52","区36":"9","地址":"水电路200号","lng":121.47445320067003,"lat":31.27475811412513,"确诊日期36":"r"},{"SH_ID_36":"10g7u1x","区36":"9","地址":"水电路294号","lng":121.47456004080675,"lat":31.275381316218564,"确诊日期36":"r"},{"SH_ID_36":"10g7u1y","区36":"9","地址":"水电路541弄","lng":121.47650470240464,"lat":31.28089569506719,"确诊日期36":"r"},{"SH_ID_36":"10g7u34","区36":"9","地址":"水电路818弄","lng":121.4765010881453,"lat":31.286429154453216,"确诊日期36":"r"},{"SH_ID_36":"10g7u3l","区36":"9","地址":"四川北路163弄","lng":121.48297692660886,"lat":31.264389715022745,"确诊日期36":"r"},{"SH_ID_36":"10g7u6y","区36":"9","地址":"四川北路1858弄","lng":121.48316419392161,"lat":31.264314373765018,"确诊日期36":"r"},{"SH_ID_36":"10g7u39","区36":"9","地址":"四川北路1953弄","lng":121.4828542029393,"lat":31.262994162147574,"确诊日期36":"r"},{"SH_ID_36":"10g7u4v","区36":"9","地址":"四平路1028弄","lng":121.50656707954052,"lat":31.277484158190877,"确诊日期36":"r"},{"SH_ID_36":"10g7u59","区36":"9","地址":"四平路327弄","lng":121.49076510441908,"lat":31.26596546475001,"确诊日期36":"r"},{"SH_ID_36":"10g7u4l","区36":"9","地址":"四平路480弄","lng":121.49320031897206,"lat":31.2671388069391,"确诊日期36":"r"},{"SH_ID_36":"10g7u54","区36":"9","地址":"四平路59号","lng":121.48789876559059,"lat":31.25760284519472,"确诊日期36":"r"},{"SH_ID_36":"10g7u3i","区36":"9","地址":"四平路758弄","lng":121.49892809603566,"lat":31.27107539407259,"确诊日期36":"r"},{"SH_ID_36":"10g7u26","区36":"9","地址":"松花江路2591弄","lng":121.49835213511606,"lat":31.29151600967962,"确诊日期36":"r"},{"SH_ID_36":"10g7u32","区36":"9","地址":"唐山路2号","lng":121.50577077343137,"lat":31.255271448459954,"确诊日期36":"r"},{"SH_ID_36":"10g7u2v","区36":"9","地址":"唐山路577弄","lng":121.50502242820382,"lat":31.256176443213526,"确诊日期36":"r"},{"SH_ID_36":"10g7u2y","区36":"9","地址":"唐山路708弄","lng":121.50816378051985,"lat":31.256740572391244,"确诊日期36":"r"},{"SH_ID_36":"10g7u2l","区36":"9","地址":"唐山路778号","lng":121.50834474741482,"lat":31.25795387309613,"确诊日期36":"r"},{"SH_ID_36":"10g7u3m","区36":"9","地址":"唐山路835弄","lng":121.50836355995575,"lat":31.25959419751133,"确诊日期36":"r"},{"SH_ID_36":"10g7u2t","区36":"9","地址":"塘沽路308弄","lng":121.48911178447808,"lat":31.24796251117837,"确诊日期36":"r"},{"SH_ID_36":"10g7u4h","区36":"9","地址":"天宝路558弄","lng":121.49684646614767,"lat":31.268383942646935,"确诊日期36":"r"},{"SH_ID_36":"10g7u4i","区36":"9","地址":"天宝路66弄","lng":121.49580451586544,"lat":31.26159732695995,"确诊日期36":"r"},{"SH_ID_36":"10g7u65","区36":"9","地址":"天宝路902号","lng":121.50006505839814,"lat":31.27333319875897,"确诊日期36":"r"},{"SH_ID_36":"10g7u5w","区36":"9","地址":"天宝西路252弄","lng":121.49259741077873,"lat":31.272944500062387,"确诊日期36":"r"},{"SH_ID_36":"10g7u7c","区36":"9","地址":"天宝西路299弄","lng":121.49126691916082,"lat":31.27484343486964,"确诊日期36":"r"},{"SH_ID_36":"10g7u4e","区36":"9","地址":"天宝西路4弄","lng":121.4955886859192,"lat":31.272325372156704,"确诊日期36":"r"},{"SH_ID_36":"10g7u4j","区36":"9","地址":"天虹路328号","lng":121.49692116352352,"lat":31.264845469157265,"确诊日期36":"r"},{"SH_ID_36":"10g7u6e","区36":"9","地址":"天通庵路681号","lng":121.47689012553215,"lat":31.26386117621295,"确诊日期36":"r"},{"SH_ID_36":"10g7u22","区36":"9","地址":"同鸣路111弄","lng":121.47722665698876,"lat":31.268656983538694,"确诊日期36":"r"},{"SH_ID_36":"10g7u79","区36":"9","地址":"同鸣路143号","lng":121.47641318218182,"lat":31.268916684921678,"确诊日期36":"r"},{"SH_ID_36":"10g7u6j","区36":"9","地址":"同心路209弄","lng":121.47628235004002,"lat":31.267724822506104,"确诊日期36":"r"},{"SH_ID_36":"10g7u1z","区36":"9","地址":"同心路7号","lng":121.46833423960774,"lat":31.275192509734595,"确诊日期36":"r"},{"SH_ID_36":"10g7u5m","区36":"9","地址":"万安路1213弄","lng":121.4688794188898,"lat":31.301404427787414,"确诊日期36":"r"},{"SH_ID_36":"10g7u5p","区36":"9","地址":"万安路358号","lng":121.48363118762272,"lat":31.301805590513844,"确诊日期36":"r"},{"SH_ID_36":"10g7u5q","区36":"9","地址":"万安路971号","lng":121.47318731420378,"lat":31.30117228165443,"确诊日期36":"r"},{"SH_ID_36":"10g7u6z","区36":"9","地址":"文迁路12号","lng":121.48064977819419,"lat":31.301910612869545,"确诊日期36":"r"},{"SH_ID_36":"10g7u6l","区36":"9","地址":"汶水东路298弄","lng":121.48152265831723,"lat":31.28995134177767,"确诊日期36":"r"},{"SH_ID_36":"10g7u6b","区36":"9","地址":"汶水东路510弄","lng":121.47906018550817,"lat":31.289151310592615,"确诊日期36":"r"},{"SH_ID_36":"10g7u5x","区36":"9","地址":"梧州路218弄","lng":121.49400083811965,"lat":31.254934349012956,"确诊日期36":"r"},{"SH_ID_36":"10g7u61","区36":"9","地址":"梧州路87号","lng":121.49352376106856,"lat":31.25250732760137,"确诊日期36":"r"},{"SH_ID_36":"10g7u3b","区36":"9","地址":"梧州路95号","lng":121.49351400157293,"lat":31.252541693351784,"确诊日期36":"r"},{"SH_ID_36":"10g7u4m","区36":"9","地址":"武昌路138号","lng":121.49178854799572,"lat":31.245772763835244,"确诊日期36":"r"},{"SH_ID_36":"10g7u6x","区36":"9","地址":"武进路85号","lng":121.4893933946589,"lat":31.2534469095599,"确诊日期36":"r"},{"SH_ID_36":"10g7u6u","区36":"9","地址":"西江湾路700弄","lng":121.48053093746864,"lat":31.275939587799378,"确诊日期36":"r"},{"SH_ID_36":"10g7u1w","区36":"9","地址":"祥德路15弄","lng":121.4892187704984,"lat":31.271236020683364,"确诊日期36":"r"},{"SH_ID_36":"10g7u3k","区36":"9","地址":"祥德路55弄","lng":121.48914995930959,"lat":31.27126985578343,"确诊日期36":"r"},{"SH_ID_36":"10g7u2m","区36":"9","地址":"新港路190弄","lng":121.50022538768378,"lat":31.26970895678331,"确诊日期36":"r"},{"SH_ID_36":"10g7u5b","区36":"9","地址":"新广路251弄","lng":121.48156205013518,"lat":31.25495055956572,"确诊日期36":"r"},{"SH_ID_36":"10g7u5c","区36":"9","地址":"新广路35号","lng":121.48118265330204,"lat":31.255141285637375,"确诊日期36":"r"},{"SH_ID_36":"10g7u64","区36":"9","地址":"新嘉路1弄","lng":121.48882099801602,"lat":31.25604718727156,"确诊日期36":"r"},{"SH_ID_36":"10g7u50","区36":"9","地址":"新市北路1361弄","lng":121.4814964173495,"lat":31.30241929043454,"确诊日期36":"r"},{"SH_ID_36":"10g7u3y","区36":"9","地址":"新市北路1501弄","lng":121.48170874321166,"lat":31.30490981160434,"确诊日期36":"r"},{"SH_ID_36":"10g7u2c","区36":"9","地址":"新市南路1148弄","lng":121.4804827017725,"lat":31.299052002867597,"确诊日期36":"r"},{"SH_ID_36":"10g7u51","区36":"9","地址":"新市南路1215弄","lng":121.48189033316567,"lat":31.299863916616218,"确诊日期36":"r"},{"SH_ID_36":"10g7u3x","区36":"9","地址":"新乡路66号","lng":121.48157218550291,"lat":31.25691021467009,"确诊日期36":"r"},{"SH_ID_36":"10g7u3a","区36":"9","地址":"邢家桥北路163弄","lng":121.48667009035437,"lat":31.260017871239192,"确诊日期36":"r"},{"SH_ID_36":"10g7u4o","区36":"9","地址":"榆林路93弄","lng":121.51547835165339,"lat":31.254079473587417,"确诊日期36":"r"},{"SH_ID_36":"10g7u2f","区36":"9","地址":"玉田路311弄","lng":121.4940191669786,"lat":31.277674374999183,"确诊日期36":"r"},{"SH_ID_36":"10g7u6k","区36":"9","地址":"玉田路407弄","lng":121.48897369565921,"lat":31.278329748893174,"确诊日期36":"r"},{"SH_ID_36":"10g7u3r","区36":"9","地址":"玉田新村","lng":121.49518805284534,"lat":31.279657646333945,"确诊日期36":"r"},{"SH_ID_36":"10g7u4d","区36":"9","地址":"运光路109号","lng":121.49756512414298,"lat":31.290629570416527,"确诊日期36":"r"},{"SH_ID_36":"10g7u23","区36":"9","地址":"运光路25弄","lng":121.49141780288544,"lat":31.293018152747603,"确诊日期36":"r"},{"SH_ID_36":"10g7u2j","区36":"9","地址":"运光路45弄","lng":121.49317349123038,"lat":31.2915755049758,"确诊日期36":"r"},{"SH_ID_36":"10g7u5t","区36":"9","地址":"运光路90弄","lng":121.49715250512007,"lat":31.29092148149595,"确诊日期36":"r"},{"SH_ID_36":"10g7u37","区36":"9","地址":"乍浦路313弄","lng":121.48656503039058,"lat":31.249627651561237,"确诊日期36":"r"},{"SH_ID_36":"10g7u6s","区36":"9","地址":"张桥路140号","lng":121.49557833122002,"lat":31.266170436253983,"确诊日期36":"r"},{"SH_ID_36":"10g7u4k","区36":"9","地址":"长春路158号","lng":121.48672611649343,"lat":31.261531118039,"确诊日期36":"r"},{"SH_ID_36":"10g7u3d","区36":"9","地址":"长春路170号","lng":121.48566822312827,"lat":31.261277803998308,"确诊日期36":"r"},{"SH_ID_36":"10g7u5o","区36":"9","地址":"中山北一路1102号","lng":121.48622425261965,"lat":31.289418406636255,"确诊日期36":"r"},{"SH_ID_36":"10g7u4x","区36":"9","地址":"中山北一路1250号","lng":121.489636901501,"lat":31.291785379292847,"确诊日期36":"r"},{"SH_ID_36":"10g7u20","区36":"9","地址":"中山北一路280弄","lng":121.47893423548098,"lat":31.27691411577933,"确诊日期36":"r"},{"SH_ID_36":"10g7u74","区36":"9","地址":"周家嘴路1050号","lng":121.50693883561694,"lat":31.26174821450471,"确诊日期36":"r"},{"SH_ID_36":"10g7u6p","区36":"9","地址":"周家嘴路1052号","lng":121.50722200582284,"lat":31.26179037626585,"确诊日期36":"r"},{"SH_ID_36":"10g7u33","区36":"9","地址":"周家嘴路981弄","lng":121.50476534715149,"lat":31.261848601193698,"确诊日期36":"r"},{"SH_ID_36":"10g7t9t","区36":"1","地址":"半淞园路178号","lng":121.49749538068954,"lat":31.204869121546036,"确诊日期36":"r"},{"SH_ID_36":"10g7tc8","区36":"1","地址":"保屯路211弄","lng":121.49155399427949,"lat":31.204061303194017,"确诊日期36":"r"},{"SH_ID_36":"10g7tgm","区36":"1","地址":"保屯路221弄","lng":121.4920219888788,"lat":31.203111311867758,"确诊日期36":"r"},{"SH_ID_36":"10g7tbw","区36":"1","地址":"保屯路48号","lng":121.4900986207742,"lat":31.206079976810052,"确诊日期36":"r"},{"SH_ID_36":"10g7tai","区36":"1","地址":"保屯路50弄","lng":121.48957393107526,"lat":31.20627942564454,"确诊日期36":"r"},{"SH_ID_36":"10g7tca","区36":"1","地址":"北京东路123号","lng":121.48784540983195,"lat":31.240553208936294,"确诊日期36":"r"},{"SH_ID_36":"10g7td6","区36":"1","地址":"北京东路345号","lng":121.482920421226,"lat":31.239979734284262,"确诊日期36":"r"},{"SH_ID_36":"10g7tdw","区36":"1","地址":"北京东路528号","lng":121.48012227094924,"lat":31.239440731295367,"确诊日期36":"r"},{"SH_ID_36":"10g7tbr","区36":"1","地址":"北京西路247号","lng":121.46909944227788,"lat":31.23570087340517,"确诊日期36":"r"},{"SH_ID_36":"10g7tgb","区36":"1","地址":"曹市弄62号","lng":121.4892833467457,"lat":31.218527237048352,"确诊日期36":"r"},{"SH_ID_36":"10g7tfb","区36":"1","地址":"车站支路9弄","lng":121.49361024041767,"lat":31.208813116157838,"确诊日期36":"r"},{"SH_ID_36":"10g7tbg","区36":"1","地址":"成都北路140弄","lng":121.46777375411853,"lat":31.226280252062338,"确诊日期36":"r"},{"SH_ID_36":"10g7tb1","区36":"1","地址":"打浦路316弄","lng":121.47121150514275,"lat":31.199938705492265,"确诊日期36":"r"},{"SH_ID_36":"10g7tbn","区36":"1","地址":"打浦路316弄","lng":121.47111161415515,"lat":31.199867395656828,"确诊日期36":"r"},{"SH_ID_36":"10g7tcj","区36":"1","地址":"打浦路339弄","lng":121.47206095737513,"lat":31.199738976037306,"确诊日期36":"r"},{"SH_ID_36":"10g7tco","区36":"1","地址":"打浦路350号","lng":121.4716940948752,"lat":31.198911656743324,"确诊日期36":"r"},{"SH_ID_36":"10g7tew","区36":"1","地址":"打浦路38弄","lng":121.46872573875577,"lat":31.204651517621596,"确诊日期36":"r"},{"SH_ID_36":"10g7tgk","区36":"1","地址":"打浦路399号","lng":121.47219393168783,"lat":31.198963546852646,"确诊日期36":"r"},{"SH_ID_36":"10g7tba","区36":"1","地址":"打浦路457弄","lng":121.47331897840142,"lat":31.197542840924203,"确诊日期36":"r"},{"SH_ID_36":"10g7tb5","区36":"1","地址":"打浦路500弄","lng":121.4729343394868,"lat":31.19629557822814,"确诊日期36":"r"},{"SH_ID_36":"10g7td0","区36":"1","地址":"打浦路92号","lng":121.47084459984748,"lat":31.20256771035053,"确诊日期36":"r"},{"SH_ID_36":"10g7tfu","区36":"1","地址":"大沽路181号","lng":121.47068134610817,"lat":31.22593313185544,"确诊日期36":"r"},{"SH_ID_36":"10g7tep","区36":"1","地址":"大沽路183弄","lng":121.47121180009013,"lat":31.225880012100895,"确诊日期36":"r"},{"SH_ID_36":"10g7tau","区36":"1","地址":"大沽路189弄","lng":121.47208734998706,"lat":31.22599939964842,"确诊日期36":"r"},{"SH_ID_36":"10g7tem","区36":"1","地址":"大沽路252号","lng":121.46944482814764,"lat":31.22595190567607,"确诊日期36":"r"},{"SH_ID_36":"10g7tek","区36":"1","地址":"大林路338号","lng":121.48398701748881,"lat":31.212417052624467,"确诊日期36":"r"},{"SH_ID_36":"10g7tef","区36":"1","地址":"大林路5弄","lng":121.4878453487641,"lat":31.214014180624,"确诊日期36":"r"},{"SH_ID_36":"10g7teg","区36":"1","地址":"大林路78号","lng":121.4869260535152,"lat":31.213208363465792,"确诊日期36":"r"},{"SH_ID_36":"10g7ta7","区36":"1","地址":"大林路86号","lng":121.48634647982745,"lat":31.2129351394583,"确诊日期36":"r"},{"SH_ID_36":"10g7ta1","区36":"1","地址":"大兴街115弄","lng":121.4898630928131,"lat":31.21298297830252,"确诊日期36":"r"},{"SH_ID_36":"10g7td7","区36":"1","地址":"淡水路460弄","lng":121.47377332521877,"lat":31.21112629157982,"确诊日期36":"r"},{"SH_ID_36":"10g7tbl","区36":"1","地址":"淡水路89弄","lng":121.473013005852,"lat":31.221599208093274,"确诊日期36":"r"},{"SH_ID_36":"10g7t9u","区36":"1","地址":"滇池路119号","lng":121.48727887504037,"lat":31.239477397676502,"确诊日期36":"r"},{"SH_ID_36":"10g7tcf","区36":"1","地址":"东街48号","lng":121.497350453705,"lat":31.224310753894173,"确诊日期36":"r"},{"SH_ID_36":"10g7tcn","区36":"1","地址":"东街50号","lng":121.49748657210186,"lat":31.223973689184202,"确诊日期36":"r"},{"SH_ID_36":"10g7te3","区36":"1","地址":"东台路279号","lng":121.48245994330058,"lat":31.217243850209876,"确诊日期36":"r"},{"SH_ID_36":"10g7tct","区36":"1","地址":"方浜西路51号","lng":121.48282439626358,"lat":31.221065218781966,"确诊日期36":"r"},{"SH_ID_36":"10g7tal","区36":"1","地址":"方浜西路63弄","lng":121.48268603641846,"lat":31.22032526052573,"确诊日期36":"r"},{"SH_ID_36":"10g7te0","区36":"1","地址":"方斜路10号","lng":121.48375262909468,"lat":31.220698593393774,"确诊日期36":"r"},{"SH_ID_36":"10g7tcs","区36":"1","地址":"福佑路392号","lng":121.4884969425981,"lat":31.227825697652605,"确诊日期36":"r"},{"SH_ID_36":"10g7tck","区36":"1","地址":"福佑路427号","lng":121.48809840465812,"lat":31.22831802779783,"确诊日期36":"r"},{"SH_ID_36":"10g7tfm","区36":"1","地址":"福州路646号","lng":121.47841653550783,"lat":31.23232856164724,"确诊日期36":"r"},{"SH_ID_36":"10g7tc5","区36":"1","地址":"复兴东路464弄","lng":121.49603344217876,"lat":31.221654803427,"确诊日期36":"r"},{"SH_ID_36":"10g7tbq","区36":"1","地址":"复兴东路663弄","lng":121.49203737173787,"lat":31.222340764590168,"确诊日期36":"r"},{"SH_ID_36":"10g7tf8","区36":"1","地址":"复兴中路565弄","lng":121.46614486048296,"lat":31.214502253711203,"确诊日期36":"r"},{"SH_ID_36":"10g7tdv","区36":"1","地址":"复兴中路591号","lng":121.46524083834457,"lat":31.21492064655247,"确诊日期36":"r"},{"SH_ID_36":"10g7tgc","区36":"1","地址":"高家弄32号","lng":121.48876312234353,"lat":31.220888865892647,"确诊日期36":"r"},{"SH_ID_36":"10g7tey","区36":"1","地址":"光启路129号","lng":121.49409259035495,"lat":31.223734983515694,"确诊日期36":"r"},{"SH_ID_36":"10g7th5","区36":"1","地址":"光启路91号","lng":121.4942276663223,"lat":31.224287240085104,"确诊日期36":"r"},{"SH_ID_36":"10g7tbi","区36":"1","地址":"光启南路307号","lng":121.49538357579156,"lat":31.216988628792503,"确诊日期36":"r"},{"SH_ID_36":"10g7tb4","区36":"1","地址":"广东路152号","lng":121.48812666057819,"lat":31.233401778282765,"确诊日期36":"r"},{"SH_ID_36":"10g7tdb","区36":"1","地址":"广东路339号","lng":121.48448560546038,"lat":31.232216583918223,"确诊日期36":"r"},{"SH_ID_36":"10g7tee","区36":"1","地址":"广东路500号","lng":121.48181494500602,"lat":31.23238576161032,"确诊日期36":"r"},{"SH_ID_36":"10g7te9","区36":"1","地址":"广西北路228弄","lng":121.47866802200458,"lat":31.23341640588074,"确诊日期36":"r"},{"SH_ID_36":"10g7tcq","区36":"1","地址":"贵州路128号","lng":121.47609558283665,"lat":31.236211225048084,"确诊日期36":"r"},{"SH_ID_36":"10g7tce","区36":"1","地址":"贵州路153号","lng":121.47597962272816,"lat":31.236895432220106,"确诊日期36":"r"},{"SH_ID_36":"10g7tax","区36":"1","地址":"海潮路230弄","lng":121.49745688022946,"lat":31.207977307394394,"确诊日期36":"r"},{"SH_ID_36":"10g7tbx","区36":"1","地址":"海潮路240弄","lng":121.49718118628424,"lat":31.207892949223044,"确诊日期36":"r"},{"SH_ID_36":"10g7tat","区36":"1","地址":"海潮路256弄","lng":121.49665990932485,"lat":31.207342356432658,"确诊日期36":"r"},{"SH_ID_36":"10g7tay","区36":"1","地址":"海潮路33号","lng":121.49830628355998,"lat":31.210737537401794,"确诊日期36":"r"},{"SH_ID_36":"10g7taq","区36":"1","地址":"海潮路93弄","lng":121.49978575011865,"lat":31.210390488498316,"确诊日期36":"r"},{"SH_ID_36":"10g7t9p","区36":"1","地址":"海南西弄58号","lng":121.50021652862218,"lat":31.21377810364096,"确诊日期36":"r"},{"SH_ID_36":"10g7tdf","区36":"1","地址":"海南西弄61号","lng":121.49980325396812,"lat":31.21331389652936,"确诊日期36":"r"},{"SH_ID_36":"10g7tdl","区36":"1","地址":"汉口路515号","lng":121.48082882890749,"lat":31.23417337800095,"确诊日期36":"r"},{"SH_ID_36":"10g7tcl","区36":"1","地址":"汉口路766号","lng":121.47591995972616,"lat":31.233057423676392,"确诊日期36":"r"},{"SH_ID_36":"10g7tf1","区36":"1","地址":"合肥路293号","lng":121.474521693752,"lat":31.214407133185375,"确诊日期36":"r"},{"SH_ID_36":"10g7tgf","区36":"1","地址":"河南南路1001弄","lng":121.49320064210274,"lat":31.213799327873726,"确诊日期36":"r"},{"SH_ID_36":"10g7tad","区36":"1","地址":"河南南路1009弄","lng":121.49409066589467,"lat":31.21361312277085,"确诊日期36":"r"},{"SH_ID_36":"10g7tcp","区36":"1","地址":"河南南路368弄","lng":121.48798094792939,"lat":31.22382260884436,"确诊日期36":"r"},{"SH_ID_36":"10g7tdi","区36":"1","地址":"河南南路398弄","lng":121.48846792934127,"lat":31.22277503922921,"确诊日期36":"r"},{"SH_ID_36":"10g7tac","区36":"1","地址":"河南南路655弄","lng":121.49205632116347,"lat":31.21833323916061,"确诊日期36":"r"},{"SH_ID_36":"10g7te6","区36":"1","地址":"河南南路747号","lng":121.49280128388708,"lat":31.21571561122391,"确诊日期36":"r"},{"SH_ID_36":"10g7tb7","区36":"1","地址":"虹桥弄54弄","lng":121.49342502588696,"lat":31.22166701761796,"确诊日期36":"r"},{"SH_ID_36":"10g7tda","区36":"1","地址":"淮海东路89弄","lng":121.48168340126149,"lat":31.225353302743237,"确诊日期36":"r"},{"SH_ID_36":"10g7tb9","区36":"1","地址":"淮海中路613弄","lng":121.46723053800082,"lat":31.219890893223468,"确诊日期36":"r"},{"SH_ID_36":"10g7tc1","区36":"1","地址":"淮海中路99号","lng":121.47865020912754,"lat":31.224458253769523,"确诊日期36":"r"},{"SH_ID_36":"10g7th9","区36":"1","地址":"黄陂南路783号","lng":121.4777650527201,"lat":31.212517021620155,"确诊日期36":"r"},{"SH_ID_36":"10g7tet","区36":"1","地址":"黄河路107弄","lng":121.46934363378925,"lat":31.23392034099632,"确诊日期36":"r"},{"SH_ID_36":"10g7tgr","区36":"1","地址":"黄河路253弄","lng":121.46726378874607,"lat":31.237199049301562,"确诊日期36":"r"},{"SH_ID_36":"10g7td5","区36":"1","地址":"黄河路288号","lng":121.46971026195935,"lat":31.237755098651675,"确诊日期36":"r"},{"SH_ID_36":"10g7ted","区36":"1","地址":"黄家路55弄","lng":121.49699922709705,"lat":31.216133827193648,"确诊日期36":"r"},{"SH_ID_36":"10g7tgq","区36":"1","地址":"黄家路88号","lng":121.49592291902243,"lat":31.215676870507316,"确诊日期36":"r"},{"SH_ID_36":"10g7tb3","区36":"1","地址":"黄家路99弄","lng":121.49674141579946,"lat":31.21607136939079,"确诊日期36":"r"},{"SH_ID_36":"10g7tap","区36":"1","地址":"黄家阙路68弄","lng":121.48725183737125,"lat":31.215077803432074,"确诊日期36":"r"},{"SH_ID_36":"10g7tbt","区36":"1","地址":"徽宁路164号","lng":121.49341510859463,"lat":31.211366637255523,"确诊日期36":"r"},{"SH_ID_36":"10g7tch","区36":"1","地址":"徽宁路405号","lng":121.48911969559042,"lat":31.209926473262396,"确诊日期36":"r"},{"SH_ID_36":"10g7td3","区36":"1","地址":"徽宁路716号","lng":121.48465533176199,"lat":31.207392241840473,"确诊日期36":"r"},{"SH_ID_36":"10g7tdc","区36":"1","地址":"济南路260弄","lng":121.47945305526868,"lat":31.216724839478346,"确诊日期36":"r"},{"SH_ID_36":"10g7tge","区36":"1","地址":"建国东路328弄","lng":121.47679757354942,"lat":31.213157625879152,"确诊日期36":"r"},{"SH_ID_36":"10g7t9w","区36":"1","地址":"建国西路136号","lng":121.46420142115939,"lat":31.20743432527546,"确诊日期36":"r"},{"SH_ID_36":"10g7tec","区36":"1","地址":"建国西路158弄","lng":121.46286492953618,"lat":31.207539356901865,"确诊日期36":"r"},{"SH_ID_36":"10g7tde","区36":"1","地址":"建国中路103弄","lng":121.46956072055832,"lat":31.20952482813557,"确诊日期36":"r"},{"SH_ID_36":"10g7tfy","区36":"1","地址":"建国中路53号","lng":121.46983608815147,"lat":31.210006845621937,"确诊日期36":"r"},{"SH_ID_36":"10g7tbz","区36":"1","地址":"江西南路29号","lng":121.48887952533032,"lat":31.230954990175572,"确诊日期36":"r"},{"SH_ID_36":"10g7tc7","区36":"1","地址":"江西中路105号","lng":121.48760704630402,"lat":31.233666150000758,"确诊日期36":"r"},{"SH_ID_36":"10g7t9v","区36":"1","地址":"江西中路135弄","lng":121.48646759065312,"lat":31.23345800434354,"确诊日期36":"r"},{"SH_ID_36":"10g7tdp","区36":"1","地址":"江西中路374号","lng":121.4859983265453,"lat":31.24012718219706,"确诊日期36":"r"},{"SH_ID_36":"10g7tdn","区36":"1","地址":"江西中路412弄","lng":121.48581982297418,"lat":31.241480957021892,"确诊日期36":"r"},{"SH_ID_36":"10g7tgt","区36":"1","地址":"江西中路422号","lng":121.48822274365888,"lat":31.232853840003706,"确诊日期36":"r"},{"SH_ID_36":"10g7tah","区36":"1","地址":"江阴街16号","lng":121.49490468998778,"lat":31.214225194201248,"确诊日期36":"r"},{"SH_ID_36":"10g7tdh","区36":"1","地址":"金陵东路8号","lng":121.49140284372373,"lat":31.231430487241,"确诊日期36":"r"},{"SH_ID_36":"10g7teu","区36":"1","地址":"金坛路35弄","lng":121.49812908883764,"lat":31.21962463010706,"确诊日期36":"r"},{"SH_ID_36":"10g7tcu","区36":"1","地址":"进贤路138弄","lng":121.45956687882115,"lat":31.22154196220605,"确诊日期36":"r"},{"SH_ID_36":"10g7tcv","区36":"1","地址":"进贤路174弄","lng":121.458963865947,"lat":31.221535080084653,"确诊日期36":"r"},{"SH_ID_36":"10g7tbf","区36":"1","地址":"静修路104弄","lng":121.48710360046152,"lat":31.219562787028625,"确诊日期36":"r"},{"SH_ID_36":"10g7tcx","区36":"1","地址":"静修路114弄","lng":121.48744766751675,"lat":31.219051107477597,"确诊日期36":"r"},{"SH_ID_36":"10g7tga","区36":"1","地址":"静修路126弄","lng":121.48665810414317,"lat":31.219593174855518,"确诊日期36":"r"},{"SH_ID_36":"10g7tg9","区36":"1","地址":"静修路50弄","lng":121.48767959427654,"lat":31.21939957585648,"确诊日期36":"r"},{"SH_ID_36":"10g7te5","区36":"1","地址":"九江路202号","lng":121.48623038228881,"lat":31.236815054197695,"确诊日期36":"r"},{"SH_ID_36":"10g7tgv","区36":"1","地址":"九江路595号","lng":121.47961144612806,"lat":31.23456024062676,"确诊日期36":"r"},{"SH_ID_36":"10g7tb8","区36":"1","地址":"局门后路25号","lng":121.48064956786548,"lat":31.208649403106293,"确诊日期36":"r"},{"SH_ID_36":"10g7taj","区36":"1","地址":"局门路241弄","lng":121.4805094754004,"lat":31.20785485831758,"确诊日期36":"r"},{"SH_ID_36":"10g7tf6","区36":"1","地址":"局门路361弄","lng":121.48213733158957,"lat":31.204439659311515,"确诊日期36":"r"},{"SH_ID_36":"10g7tfo","区36":"1","地址":"局门路400号","lng":121.4817670830141,"lat":31.204273115130146,"确诊日期36":"r"},{"SH_ID_36":"10g7tbd","区36":"1","地址":"局门路405弄","lng":121.48239006909948,"lat":31.20385669894961,"确诊日期36":"r"},{"SH_ID_36":"10g7tfg","区36":"1","地址":"局门路434弄","lng":121.48097881346668,"lat":31.202775232313396,"确诊日期36":"r"},{"SH_ID_36":"10g7tfh","区36":"1","地址":"局门路45号","lng":121.48104536023713,"lat":31.206620175891814,"确诊日期36":"r"},{"SH_ID_36":"10g7tgn","区36":"1","地址":"巨鹿路254号","lng":121.45977603540008,"lat":31.223141673544767,"确诊日期36":"r"},{"SH_ID_36":"10g7tfl","区36":"1","地址":"巨鹿路360号","lng":121.45792960464077,"lat":31.22226572389358,"确诊日期36":"r"},{"SH_ID_36":"10g7ta5","区36":"1","地址":"巨鹿路403号","lng":121.45819033283571,"lat":31.222413591837594,"确诊日期36":"r"},{"SH_ID_36":"10g7ten","区36":"1","地址":"老道前街16弄","lng":121.48721945637816,"lat":31.218276723974245,"确诊日期36":"r"},{"SH_ID_36":"10g7tes","区36":"1","地址":"老道前街22号","lng":121.48724136057051,"lat":31.21804116106336,"确诊日期36":"r"},{"SH_ID_36":"10g7tgl","区36":"1","地址":"丽园路1016弄","lng":121.47244192223711,"lat":31.205443055878963,"确诊日期36":"r"},{"SH_ID_36":"10g7tb2","区36":"1","地址":"丽园路333弄","lng":121.48367445033854,"lat":31.20982758166376,"确诊日期36":"r"},{"SH_ID_36":"10g7tar","区36":"1","地址":"丽园路43弄","lng":121.48909406782869,"lat":31.211526893515156,"确诊日期36":"r"},{"SH_ID_36":"10g7tfv","区36":"1","地址":"丽园路842弄","lng":121.47599888281988,"lat":31.205648562066173,"确诊日期36":"r"},{"SH_ID_36":"10g7tcd","区36":"1","地址":"丽园路871号","lng":121.47626721370591,"lat":31.20671735110678,"确诊日期36":"r"},{"SH_ID_36":"10g7tf9","区36":"1","地址":"丽园路887号","lng":121.47509083597075,"lat":31.206793540455728,"确诊日期36":"r"},{"SH_ID_36":"10g7tez","区36":"1","地址":"柳市路80号","lng":121.49878832125613,"lat":31.212289876491305,"确诊日期36":"r"},{"SH_ID_36":"10g7tdt","区36":"1","地址":"龙华东路888弄","lng":121.47138245492737,"lat":31.193106372974192,"确诊日期36":"r"},{"SH_ID_36":"10g7tft","区36":"1","地址":"鲁班路168弄","lng":121.47325371877349,"lat":31.20506418915796,"确诊日期36":"r"},{"SH_ID_36":"10g7tdy","区36":"1","地址":"鲁班路509弄","lng":121.47798861870584,"lat":31.20143380355345,"确诊日期36":"r"},{"SH_ID_36":"10g7tdk","区36":"1","地址":"陆家浜路1256弄","lng":121.48486403545422,"lat":31.211312410194054,"确诊日期36":"r"},{"SH_ID_36":"10g7tfi","区36":"1","地址":"陆家浜路305弄","lng":121.50080234204609,"lat":31.211873424717155,"确诊日期36":"r"},{"SH_ID_36":"10g7ta4","区36":"1","地址":"陆家浜路468弄","lng":121.49731990691319,"lat":31.21048164459747,"确诊日期36":"r"},{"SH_ID_36":"10g7th4","区36":"1","地址":"陆家宅支路20弄","lng":121.4962346488762,"lat":31.22448839729145,"确诊日期36":"r"},{"SH_ID_36":"10g7tgu","区36":"1","地址":"露香园路88弄","lng":121.48500992166413,"lat":31.226202298963397,"确诊日期36":"r"},{"SH_ID_36":"10g7tgx","区36":"1","地址":"毛家园路88弄","lng":121.50282927983099,"lat":31.218730664091712,"确诊日期36":"r"},{"SH_ID_36":"10g7tf7","区36":"1","地址":"茂名南路167弄","lng":121.46228619319187,"lat":31.21494924728915,"确诊日期36":"r"},{"SH_ID_36":"10g7tdr","区36":"1","地址":"蒙自路345弄","lng":121.47853988798254,"lat":31.204359897880707,"确诊日期36":"r"},{"SH_ID_36":"10g7tbc","区36":"1","地址":"蒙自路388号","lng":121.4781592092372,"lat":31.20503160428177,"确诊日期36":"r"},{"SH_ID_36":"10g7td8","区36":"1","地址":"蒙自路601弄","lng":121.48085068486908,"lat":31.19983263742793,"确诊日期36":"r"},{"SH_ID_36":"10g7tbh","区36":"1","地址":"蒙自西路2号","lng":121.47640999841644,"lat":31.207743748984843,"确诊日期36":"r"},{"SH_ID_36":"10g7tag","区36":"1","地址":"梦花街163弄","lng":121.48667253037708,"lat":31.218804141271306,"确诊日期36":"r"},{"SH_ID_36":"10g7tbu","区36":"1","地址":"梦花街64号","lng":121.48841142465294,"lat":31.218937149593458,"确诊日期36":"r"},{"SH_ID_36":"10g7tc6","区36":"1","地址":"面筋弄60弄","lng":121.49776436801595,"lat":31.22041111853403,"确诊日期36":"r"},{"SH_ID_36":"10g7tas","区36":"1","地址":"南昌路136弄","lng":121.46786949958776,"lat":31.219064804954623,"确诊日期36":"r"},{"SH_ID_36":"10g7tg7","区36":"1","地址":"宁波路180号","lng":121.48377701968505,"lat":31.239283809119947,"确诊日期36":"r"},{"SH_ID_36":"10g7te7","区36":"1","地址":"宁波路214号","lng":121.48341968654127,"lat":31.23909511017418,"确诊日期36":"r"},{"SH_ID_36":"10g7t9r","区36":"1","地址":"宁波路620弄","lng":121.475748321023,"lat":31.236778972885432,"确诊日期36":"r"},{"SH_ID_36":"10g7tav","区36":"1","地址":"宁波路74弄","lng":121.48529279351435,"lat":31.239955408058528,"确诊日期36":"r"},{"SH_ID_36":"10g7tg2","区36":"1","地址":"牛庄路739号","lng":121.47609678176171,"lat":31.237343742578968,"确诊日期36":"r"},{"SH_ID_36":"10g7tg5","区36":"1","地址":"蓬莱路207号","lng":121.49070501809496,"lat":31.218249673330426,"确诊日期36":"r"},{"SH_ID_36":"10g7taw","区36":"1","地址":"蓬莱路257号","lng":121.48970028687019,"lat":31.217649450651663,"确诊日期36":"r"},{"SH_ID_36":"10g7tea","区36":"1","地址":"蓬莱路405弄","lng":121.48715654430376,"lat":31.216777857956547,"确诊日期36":"r"},{"SH_ID_36":"10g7taf","区36":"1","地址":"普育东路101弄","lng":121.49620938151357,"lat":31.209884319560725,"确诊日期36":"r"},{"SH_ID_36":"10g7tak","区36":"1","地址":"普育东路31号","lng":121.49638318726156,"lat":31.210630957113676,"确诊日期36":"r"},{"SH_ID_36":"10g7tgz","区36":"1","地址":"普育东路71弄","lng":121.4972284311397,"lat":31.209895740301093,"确诊日期36":"r"},{"SH_ID_36":"10g7tc4","区36":"1","地址":"乔家路19弄","lng":121.49808148016712,"lat":31.21686249969324,"确诊日期36":"r"},{"SH_ID_36":"10g7tel","区36":"1","地址":"瞿溪路1003弄","lng":121.47708264657918,"lat":31.199749616634474,"确诊日期36":"r"},{"SH_ID_36":"10g7tcz","区36":"1","地址":"瞿溪路1072弄","lng":121.47417066186863,"lat":31.198506963357783,"确诊日期36":"r"},{"SH_ID_36":"10g7tfd","区36":"1","地址":"瞿溪路1111弄","lng":121.47391806673359,"lat":31.20031698731967,"确诊日期36":"r"},{"SH_ID_36":"10g7tev","区36":"1","地址":"瞿溪路1145弄","lng":121.47291208175005,"lat":31.199008513857144,"确诊日期36":"r"},{"SH_ID_36":"10g7tbj","区36":"1","地址":"瞿溪路1199弄","lng":121.47104433965511,"lat":31.198674820413828,"确诊日期36":"r"},{"SH_ID_36":"10g7tdx","区36":"1","地址":"瞿溪路1200弄","lng":121.4726585171923,"lat":31.19750577311476,"确诊日期36":"r"},{"SH_ID_36":"10g7tbe","区36":"1","地址":"瞿溪路120弄","lng":121.49530624410252,"lat":31.20660867581054,"确诊日期36":"r"},{"SH_ID_36":"10g7tan","区36":"1","地址":"瞿溪路501弄","lng":121.48745036392572,"lat":31.20262405733951,"确诊日期36":"r"},{"SH_ID_36":"10g7tei","区36":"1","地址":"瞿溪路937弄","lng":121.47783288148652,"lat":31.200205516665175,"确诊日期36":"r"},{"SH_ID_36":"10g7taa","区36":"1","地址":"人民路875号","lng":121.48360730712105,"lat":31.226690785149746,"确诊日期36":"r"},{"SH_ID_36":"10g7tdo","区36":"1","地址":"瑞金二路130号","lng":121.4660236918836,"lat":31.210922494756225,"确诊日期36":"r"},{"SH_ID_36":"10g7tdq","区36":"1","地址":"瑞金二路223号","lng":121.46703954924148,"lat":31.20801645759184,"确诊日期36":"r"},{"SH_ID_36":"10g7tdz","区36":"1","地址":"瑞金二路225弄","lng":121.46777327700057,"lat":31.208017934327103,"确诊日期36":"r"},{"SH_ID_36":"10g7ta6","区36":"1","地址":"瑞金二路264号","lng":121.46679941478217,"lat":31.208032425627177,"确诊日期36":"r"},{"SH_ID_36":"10g7tfs","区36":"1","地址":"瑞金二路386号","lng":121.46670717938103,"lat":31.2069587466361,"确诊日期36":"r"},{"SH_ID_36":"10g7ta0","区36":"1","地址":"瑞金二路57号","lng":121.46439287807493,"lat":31.217469528485452,"确诊日期36":"r"},{"SH_ID_36":"10g7tgj","区36":"1","地址":"瑞金南路185弄","lng":121.46891591299736,"lat":31.200362639132866,"确诊日期36":"r"},{"SH_ID_36":"10g7tfw","区36":"1","地址":"瑞金南路1号","lng":121.4676259870873,"lat":31.204541942164074,"确诊日期36":"r"},{"SH_ID_36":"10g7te4","区36":"1","地址":"瑞金南路333弄","lng":121.46930903005654,"lat":31.198549119397743,"确诊日期36":"r"},{"SH_ID_36":"10g7teo","区36":"1","地址":"瑞金南路345弄","lng":121.46983925509264,"lat":31.197146172963446,"确诊日期36":"r"},{"SH_ID_36":"10g7tff","区36":"1","地址":"沙家街20弄","lng":121.48696804046003,"lat":31.21301605573425,"确诊日期36":"r"},{"SH_ID_36":"10g7tfc","区36":"1","地址":"陕西南路271弄","lng":121.46387490110456,"lat":31.208311701676298,"确诊日期36":"r"},{"SH_ID_36":"10g7ter","区36":"1","地址":"陕西南路287弄","lng":121.46248544566004,"lat":31.207129682454426,"确诊日期36":"r"},{"SH_ID_36":"10g7tbp","区36":"1","地址":"陕西南路83弄","lng":121.4589884325933,"lat":31.218164256535427,"确诊日期36":"r"},{"SH_ID_36":"10g7tae","区36":"1","地址":"尚文路257弄","lng":121.48925433830611,"lat":31.214955451684098,"确诊日期36":"r"},{"SH_ID_36":"10g7tf4","区36":"1","地址":"绍兴路60号","lng":121.46371591957424,"lat":31.209374772981537,"确诊日期36":"r"},{"SH_ID_36":"10g7tg1","区36":"1","地址":"绍兴路96弄","lng":121.46239582853661,"lat":31.2092346531889,"确诊日期36":"r"},{"SH_ID_36":"10g7tg6","区36":"1","地址":"盛家街8号","lng":121.49377345720734,"lat":31.223949742413904,"确诊日期36":"r"},{"SH_ID_36":"10g7tha","区36":"1","地址":"顺昌路550弄","lng":121.47937697937341,"lat":31.211729175053623,"确诊日期36":"r"},{"SH_ID_36":"10g7t9y","区36":"1","地址":"顺昌路612弄44号","lng":121.4791861492899,"lat":31.21106528402021,"确诊日期36":"r"},{"SH_ID_36":"10g7tbk","区36":"1","地址":"思南路113号","lng":121.47114924930797,"lat":31.208919208387766,"确诊日期36":"r"},{"SH_ID_36":"10g7tcy","区36":"1","地址":"思南路82弄","lng":121.47009538883314,"lat":31.209584412938188,"确诊日期36":"r"},{"SH_ID_36":"10g7ta2","区36":"1","地址":"思南路97号","lng":121.46995407712875,"lat":31.210979521430612,"确诊日期36":"r"},{"SH_ID_36":"10g7tab","区36":"1","地址":"四牌楼路112号","lng":121.49528025529276,"lat":31.223768600640476,"确诊日期36":"r"},{"SH_ID_36":"10g7tej","区36":"1","地址":"四牌楼路114号","lng":121.49541683618918,"lat":31.223385875525246,"确诊日期36":"r"},{"SH_ID_36":"10g7tfr","区36":"1","地址":"四牌楼路185号","lng":121.49546073100633,"lat":31.22229928014787,"确诊日期36":"r"},{"SH_ID_36":"10g7teb","区36":"1","地址":"四牌楼路95弄","lng":121.49566026789329,"lat":31.224017887626403,"确诊日期36":"r"},{"SH_ID_36":"10g7td9","区36":"1","地址":"泗泾路15号","lng":121.48723488093704,"lat":31.233483905416776,"确诊日期36":"r"},{"SH_ID_36":"10g7tgo","区36":"1","地址":"泰康路220号","lng":121.46925578938313,"lat":31.207659334320773,"确诊日期36":"r"},{"SH_ID_36":"10g7tfa","区36":"1","地址":"桃源路111弄","lng":121.47879702796585,"lat":31.22395750793749,"确诊日期36":"r"},{"SH_ID_36":"10g7tds","区36":"1","地址":"天津路138弄","lng":121.48354223802332,"lat":31.23850286823244,"确诊日期36":"r"},{"SH_ID_36":"10g7tbv","区36":"1","地址":"天津路179弄","lng":121.48269785932412,"lat":31.238128029113458,"确诊日期36":"r"},{"SH_ID_36":"10g7tdm","区36":"1","地址":"天津路423号","lng":121.47856669270382,"lat":31.236390867545666,"确诊日期36":"r"},{"SH_ID_36":"10g7tc3","区36":"1","地址":"铁道路682号","lng":121.476328777291,"lat":31.196262760551928,"确诊日期36":"r"},{"SH_ID_36":"10g7t9q","区36":"1","地址":"万竹街30弄","lng":121.48480956626392,"lat":31.224243159377448,"确诊日期36":"r"},{"SH_ID_36":"10g7tbo","区36":"1","地址":"望云路2号","lng":121.49223034711086,"lat":31.221636647418705,"确诊日期36":"r"},{"SH_ID_36":"10g7tdd","区36":"1","地址":"威海路149号","lng":121.46861672918844,"lat":31.227428691977348,"确诊日期36":"r"},{"SH_ID_36":"10g7tf5","区36":"1","地址":"威海路163号","lng":121.46820450277569,"lat":31.227636806845222,"确诊日期36":"r"},{"SH_ID_36":"10g7tby","区36":"1","地址":"文庙路253号","lng":121.48736405081641,"lat":31.217129132330783,"确诊日期36":"r"},{"SH_ID_36":"10g7th8","区36":"1","地址":"文庙路60弄","lng":121.49065272246358,"lat":31.21877110904769,"确诊日期36":"r"},{"SH_ID_36":"10g7tgs","区36":"1","地址":"五里桥路258号","lng":121.47987234640583,"lat":31.20332551150058,"确诊日期36":"r"},{"SH_ID_36":"10g7tgw","区36":"1","地址":"五里桥路269弄","lng":121.47969945138071,"lat":31.203911584230635,"确诊日期36":"r"},{"SH_ID_36":"10g7tb6","区36":"1","地址":"西仓桥街110号","lng":121.48965645220962,"lat":31.220392772025306,"确诊日期36":"r"},{"SH_ID_36":"10g7tb0","区36":"1","地址":"西仓桥街112弄","lng":121.48981305278642,"lat":31.220348447999424,"确诊日期36":"r"},{"SH_ID_36":"10g7tc9","区36":"1","地址":"西藏南路1109号","lng":121.48678223529342,"lat":31.211126695835063,"确诊日期36":"r"},{"SH_ID_36":"10g7tao","区36":"1","地址":"西藏南路1207弄","lng":121.48730141641913,"lat":31.20942657391485,"确诊日期36":"r"},{"SH_ID_36":"10g7th2","区36":"1","地址":"西藏南路1383弄","lng":121.4880530645811,"lat":31.20562332284775,"确诊日期36":"r"},{"SH_ID_36":"10g7tci","区36":"1","地址":"西藏南路1731号","lng":121.49107346896095,"lat":31.199481748165308,"确诊日期36":"r"},{"SH_ID_36":"10g7td4","区36":"1","地址":"西藏南路416号","lng":121.48189981818919,"lat":31.219957460473697,"确诊日期36":"r"},{"SH_ID_36":"10g7td1","区36":"1","地址":"西藏南路439弄10号","lng":121.48218567778233,"lat":31.221669482849208,"确诊日期36":"r"},{"SH_ID_36":"10g7ta3","区36":"1","地址":"西藏南路699弄","lng":121.48454624872934,"lat":31.217849141289893,"确诊日期36":"r"},{"SH_ID_36":"10g7t9x","区36":"1","地址":"西凌家宅路90号","lng":121.48651463629027,"lat":31.203927577057367,"确诊日期36":"r"},{"SH_ID_36":"10g7tfn","区36":"1","地址":"县左街8号","lng":121.49505338568352,"lat":31.224587817723886,"确诊日期36":"r"},{"SH_ID_36":"10g7tg8","区36":"1","地址":"小桃园街18弄","lng":121.48956092185044,"lat":31.221450812504006,"确诊日期36":"r"},{"SH_ID_36":"10g7tcr","区36":"1","地址":"小桃园街40弄","lng":121.48933456136628,"lat":31.22126918768578,"确诊日期36":"r"},{"SH_ID_36":"10g7tdu","区36":"1","地址":"斜土路145弄","lng":121.48208105171284,"lat":31.20621791159838,"确诊日期36":"r"},{"SH_ID_36":"10g7teq","区36":"1","地址":"斜土路360弄","lng":121.45900214701597,"lat":31.19537459921816,"确诊日期36":"r"},{"SH_ID_36":"10g7tdg","区36":"1","地址":"斜土路460弄","lng":121.47758355718165,"lat":31.203148529308866,"确诊日期36":"r"},{"SH_ID_36":"10g7tf2","区36":"1","地址":"斜土路85弄","lng":121.48318525903888,"lat":31.206946151774353,"确诊日期36":"r"},{"SH_ID_36":"10g7tbs","区36":"1","地址":"新昌路213号","lng":121.46854751944295,"lat":31.234485343934345,"确诊日期36":"r"},{"SH_ID_36":"10g7tg0","区36":"1","地址":"新昌路477弄","lng":121.46691723515866,"lat":31.2380881555437,"确诊日期36":"r"},{"SH_ID_36":"10g7tc0","区36":"1","地址":"新昌路488号","lng":121.46665726277936,"lat":31.23902690323773,"确诊日期36":"r"},{"SH_ID_36":"10g7tex","区36":"1","地址":"新昌路87弄","lng":121.46858801702095,"lat":31.23272740320381,"确诊日期36":"r"},{"SH_ID_36":"10g7teh","区36":"1","地址":"徐家汇路135弄","lng":121.47837670660246,"lat":31.208305559754834,"确诊日期36":"r"},{"SH_ID_36":"10g7thb","区36":"1","地址":"徐家汇路515弄","lng":121.47536877908188,"lat":31.208598151299,"确诊日期36":"r"},{"SH_ID_36":"10g7tbb","区36":"1","地址":"徐家汇路679号","lng":121.46839521339706,"lat":31.20505226920046,"确诊日期36":"r"},{"SH_ID_36":"10g7tgp","区36":"1","地址":"学前街152弄","lng":121.489581804141,"lat":31.215307878971185,"确诊日期36":"r"},{"SH_ID_36":"10g7tam","区36":"1","地址":"学前街156号","lng":121.49001297762024,"lat":31.214737025933875,"确诊日期36":"r"},{"SH_ID_36":"10g7tcg","区36":"1","地址":"学院路137号","lng":121.49450023502507,"lat":31.22314117914939,"确诊日期36":"r"},{"SH_ID_36":"10g7th0","区36":"1","地址":"学院路32弄","lng":121.49662451008089,"lat":31.223218478305853,"确诊日期36":"r"},{"SH_ID_36":"10g7th1","区36":"1","地址":"学院路71号","lng":121.49613617325795,"lat":31.223109443261322,"确诊日期36":"r"},{"SH_ID_36":"10g7th3","区36":"1","地址":"学院路79弄","lng":121.49583125534275,"lat":31.223614481210877,"确诊日期36":"r"},{"SH_ID_36":"10g7tfz","区36":"1","地址":"延安东路385号","lng":121.4805567643795,"lat":31.22930587657571,"确诊日期36":"r"},{"SH_ID_36":"10g7tcw","区36":"1","地址":"延安中路535弄11号","lng":121.45990800994196,"lat":31.223379173735243,"确诊日期36":"r"},{"SH_ID_36":"10g7tfx","区36":"1","地址":"雁荡路107号","lng":121.4698107735941,"lat":31.21846099669978,"确诊日期36":"r"},{"SH_ID_36":"10g7tfj","区36":"1","地址":"也是园弄32号","lng":121.49331329511692,"lat":31.21643290590591,"确诊日期36":"r"},{"SH_ID_36":"10g7ta9","区36":"1","地址":"迎勋北路8弄","lng":121.48960800761284,"lat":31.21701112225189,"确诊日期36":"r"},{"SH_ID_36":"10g7th7","区36":"1","地址":"永嘉路19弄","lng":121.46464215462852,"lat":31.21120350058209,"确诊日期36":"r"},{"SH_ID_36":"10g7tg3","区36":"1","地址":"永嘉路29号","lng":121.46385157672599,"lat":31.21078260716487,"确诊日期36":"r"},{"SH_ID_36":"10g7td2","区36":"1","地址":"永嘉路39弄","lng":121.4626211366806,"lat":31.210430430863216,"确诊日期36":"r"},{"SH_ID_36":"10g7taz","区36":"1","地址":"永年路149弄","lng":121.47870376748938,"lat":31.21118320016508,"确诊日期36":"r"},{"SH_ID_36":"10g7tgh","区36":"1","地址":"永泰街12号","lng":121.49720587714279,"lat":31.216199398500184,"确诊日期36":"r"},{"SH_ID_36":"10g7te8","区36":"1","地址":"长乐路161号","lng":121.46285977022168,"lat":31.220925628919588,"确诊日期36":"r"},{"SH_ID_36":"10g7tfp","区36":"1","地址":"长乐路169弄","lng":121.46205862789779,"lat":31.220851088140428,"确诊日期36":"r"},{"SH_ID_36":"10g7te2","区36":"1","地址":"长乐路340号","lng":121.46287181078768,"lat":31.221345719086454,"确诊日期36":"r"},{"SH_ID_36":"10g7tfq","区36":"1","地址":"肇周路176号","lng":121.48045021690231,"lat":31.216270357799814,"确诊日期36":"r"},{"SH_ID_36":"10g7tfe","区36":"1","地址":"浙江中路185号","lng":121.47908405914855,"lat":31.23309369612738,"确诊日期36":"r"},{"SH_ID_36":"10g7th6","区36":"1","地址":"浙江中路429号","lng":121.47772430902788,"lat":31.2367335690165,"确诊日期36":"r"},{"SH_ID_36":"10g7tgy","区36":"1","地址":"制造局路455弄","lng":121.48441746609556,"lat":31.204922505617745,"确诊日期36":"r"},{"SH_ID_36":"10g7tc2","区36":"1","地址":"制造局路567弄","lng":121.48635863275517,"lat":31.203624704723644,"确诊日期36":"r"},{"SH_ID_36":"10g7tcc","区36":"1","地址":"中华路1349弄","lng":121.48623512933317,"lat":31.21698634087932,"确诊日期36":"r"},{"SH_ID_36":"10g7tf3","区36":"1","地址":"中华路518号","lng":121.49913440072501,"lat":31.21790206771871,"确诊日期36":"r"},{"SH_ID_36":"10g7tcb","区36":"1","地址":"中山东二路575号","lng":121.49965158045246,"lat":31.226442658659217,"确诊日期36":"r"},{"SH_ID_36":"10g7tgd","区36":"1","地址":"中山南路1358弄","lng":121.49973799760703,"lat":31.210434793463172,"确诊日期36":"r"},{"SH_ID_36":"10g7tf0","区36":"1","地址":"中山南路891号","lng":121.50689762958832,"lat":31.21284449426339,"确诊日期36":"r"},{"SH_ID_36":"10g7te1","区36":"1","地址":"中山南一路1042号","lng":121.47116528994785,"lat":31.19481068731479,"确诊日期36":"r"},{"SH_ID_36":"10g7tcm","区36":"1","地址":"中山南一路1380弄","lng":121.48834562516416,"lat":31.20118467810784,"确诊日期36":"r"},{"SH_ID_36":"10g7ta8","区36":"1","地址":"中山南一路302号","lng":121.48576239549053,"lat":31.200154571998766,"确诊日期36":"r"},{"SH_ID_36":"10g7tfk","区36":"1","地址":"中山南一路500弄","lng":121.48553859764984,"lat":31.19928131956627,"确诊日期36":"r"},{"SH_ID_36":"10g7tbm","区36":"1","地址":"中山南一路804号","lng":121.47822709119914,"lat":31.197353219791516,"确诊日期36":"r"},{"SH_ID_36":"10g7tgi","区36":"1","地址":"重庆北路114号","lng":121.47046041813414,"lat":31.225569834817712,"确诊日期36":"r"},{"SH_ID_36":"10g7tdj","区36":"1","地址":"重庆南路298弄","lng":121.47082266276715,"lat":31.211144605458944,"确诊日期36":"r"},{"SH_ID_36":"10g7t9s","区36":"1","地址":"昼锦路99号","lng":121.49125949271892,"lat":31.224306291312914,"确诊日期36":"r"},{"SH_ID_36":"10g7tg4","区36":"1","地址":"庄家街45弄","lng":121.48871313130354,"lat":31.220603291856754,"确诊日期36":"r"},{"SH_ID_36":"10g7t9z","区36":"1","地址":"庄家街51弄","lng":121.48874782333709,"lat":31.220371573817836,"确诊日期36":"r"},{"SH_ID_36":"10g7tgg","区36":"1","地址":"庄家街78号","lng":121.48877128258404,"lat":31.219773639105483,"确诊日期36":"r"},{"SH_ID_36":"10g7uod","区36":"e","地址":"爱特路68弄","lng":121.32224360369351,"lat":31.234377732597608,"确诊日期36":"r"},{"SH_ID_36":"10g7ut8","区36":"e","地址":"安亭玉兰二村","lng":121.15833959953174,"lat":31.297190873298366,"确诊日期36":"r"},{"SH_ID_36":"10g7ut4","区36":"e","地址":"安亭镇安亭水产村","lng":121.1572696663162,"lat":31.301290792150805,"确诊日期36":"r"},{"SH_ID_36":"10g7usz","区36":"e","地址":"安亭镇顾浦村","lng":121.16281666833684,"lat":31.295774192291812,"确诊日期36":"r"},{"SH_ID_36":"10g7ut0","区36":"e","地址":"安亭镇火炬村","lng":121.14834273457289,"lat":31.31958018514719,"确诊日期36":"r"},{"SH_ID_36":"10g7ut1","区36":"e","地址":"安亭镇联群村","lng":121.2461828993238,"lat":31.276683363725883,"确诊日期36":"r"},{"SH_ID_36":"10g7ut2","区36":"e","地址":"安亭镇联西村","lng":121.25120872503014,"lat":31.272103878444547,"确诊日期36":"r"},{"SH_ID_36":"10g7ut3","区36":"e","地址":"安亭镇钱家村","lng":121.21683929475559,"lat":31.259762132605722,"确诊日期36":"r"},{"SH_ID_36":"10g7ut5","区36":"e","地址":"安亭镇星明村","lng":121.24192947891846,"lat":31.30812494089758,"确诊日期36":"r"},{"SH_ID_36":"10g7ut6","区36":"e","地址":"安亭镇许家村","lng":121.22409246886824,"lat":31.265548165419812,"确诊日期36":"r"},{"SH_ID_36":"10g7ut9","区36":"e","地址":"安亭镇玉兰三村","lng":121.16012509358052,"lat":31.29974190349782,"确诊日期36":"r"},{"SH_ID_36":"10g7ut7","区36":"e","地址":"安亭镇玉兰一村","lng":121.16153916948274,"lat":31.29754441491063,"确诊日期36":"r"},{"SH_ID_36":"10g7uta","区36":"e","地址":"安亭镇赵巷村","lng":121.2200206982784,"lat":31.302155293354446,"确诊日期36":"r"},{"SH_ID_36":"10g7uqw","区36":"e","地址":"宝安公路2999弄","lng":121.29234488988685,"lat":31.330776639969617,"确诊日期36":"r"},{"SH_ID_36":"10g7uqx","区36":"e","地址":"宝安公路3705弄","lng":121.26845781035036,"lat":31.325554201242646,"确诊日期36":"r"},{"SH_ID_36":"10g7uqy","区36":"e","地址":"宝安公路3799号","lng":121.26329468938698,"lat":31.32305926436583,"确诊日期36":"r"},{"SH_ID_36":"10g7una","区36":"e","地址":"宝安公路4259号","lng":121.22714850344626,"lat":31.31687422211995,"确诊日期36":"r"},{"SH_ID_36":"10g7unb","区36":"e","地址":"宝安公路5063号","lng":121.18660731040231,"lat":31.3124809237072,"确诊日期36":"r"},{"SH_ID_36":"10g7unv","区36":"e","地址":"宝钱公路2977号","lng":121.20761063702572,"lat":31.420959130781274,"确诊日期36":"r"},{"SH_ID_36":"10g7urp","区36":"e","地址":"宝钱公路5888弄","lng":121.11644827692439,"lat":31.365214279033136,"确诊日期36":"r"},{"SH_ID_36":"10g7uo8","区36":"e","地址":"北大街280弄","lng":121.24659872359564,"lat":31.391295118981517,"确诊日期36":"r"},{"SH_ID_36":"10g7unw","区36":"e","地址":"北和公路1650号","lng":121.17891925875129,"lat":31.424755153435584,"确诊日期36":"r"},{"SH_ID_36":"10g7usb","区36":"e","地址":"曹安公路1685号","lng":121.36572835452507,"lat":31.25244841929284,"确诊日期36":"r"},{"SH_ID_36":"10g7usc","区36":"e","地址":"曹安公路1718号","lng":121.3647082615356,"lat":31.2540939182689,"确诊日期36":"r"},{"SH_ID_36":"10g7usd","区36":"e","地址":"曹安公路1909号","lng":121.36026516021757,"lat":31.25295423837996,"确诊日期36":"r"},{"SH_ID_36":"10g7uoe","区36":"e","地址":"曹安公路1911号","lng":121.29517031514534,"lat":31.269161656061254,"确诊日期36":"r"},{"SH_ID_36":"10g7uof","区36":"e","地址":"曹安公路1936号","lng":121.35896248729901,"lat":31.256054042625813,"确诊日期36":"r"},{"SH_ID_36":"10g7use","区36":"e","地址":"曹安公路1978号","lng":121.35709676497876,"lat":31.25583935289787,"确诊日期36":"r"},{"SH_ID_36":"10g7uog","区36":"e","地址":"曹安公路1986号","lng":121.3538403738811,"lat":31.257109863917137,"确诊日期36":"r"},{"SH_ID_36":"10g7uoh","区36":"e","地址":"曹安公路1991号","lng":121.21512136622161,"lat":31.27408637670322,"确诊日期36":"r"},{"SH_ID_36":"10g7uop","区36":"e","地址":"曹安公路1991号","lng":121.2150320415486,"lat":31.27377562872355,"确诊日期36":"r"},{"SH_ID_36":"10g7uoi","区36":"e","地址":"曹安公路2019弄","lng":121.3494064186332,"lat":31.25733068039711,"确诊日期36":"r"},{"SH_ID_36":"10g7uoj","区36":"e","地址":"曹安公路2095号","lng":121.26938327410744,"lat":31.27356718430067,"确诊日期36":"r"},{"SH_ID_36":"10g7usf","区36":"e","地址":"曹安公路2199号","lng":121.37265088263142,"lat":31.253441225527204,"确诊日期36":"r"},{"SH_ID_36":"10g7uok","区36":"e","地址":"曹安公路2258号","lng":121.34380941234075,"lat":31.26050868963098,"确诊日期36":"r"},{"SH_ID_36":"10g7uol","区36":"e","地址":"曹安公路2380号","lng":121.34055484261806,"lat":31.261366568679364,"确诊日期36":"r"},{"SH_ID_36":"10g7uom","区36":"e","地址":"曹安公路2738号","lng":121.32808248636138,"lat":31.2639756055677,"确诊日期36":"r"},{"SH_ID_36":"10g7uon","区36":"e","地址":"曹安公路2758号","lng":121.32762797601418,"lat":31.264146545806117,"确诊日期36":"r"},{"SH_ID_36":"10g7uoo","区36":"e","地址":"曹安公路4671号","lng":121.21762033662998,"lat":31.275962353664244,"确诊日期36":"r"},{"SH_ID_36":"10g7urx","区36":"e","地址":"曹王路158弄","lng":121.3036220290679,"lat":31.433678980638064,"确诊日期36":"r"},{"SH_ID_36":"10g7unc","区36":"e","地址":"昌吉东路888弄","lng":121.20343841633944,"lat":31.2925244266173,"确诊日期36":"r"},{"SH_ID_36":"10g7und","区36":"e","地址":"昌吉路219号","lng":121.1606315332027,"lat":31.295017006995774,"确诊日期36":"r"},{"SH_ID_36":"10g7une","区36":"e","地址":"昌吉路248弄","lng":121.15700280617894,"lat":31.29572232158025,"确诊日期36":"r"},{"SH_ID_36":"10g7ury","区36":"e","地址":"澄浏公路108号","lng":121.27325448282481,"lat":31.40272170730493,"确诊日期36":"r"},{"SH_ID_36":"10g7urz","区36":"e","地址":"澄浏公路455号","lng":121.27357233251156,"lat":31.413728491690854,"确诊日期36":"r"},{"SH_ID_36":"10g7us0","区36":"e","地址":"澄浏公路700号","lng":121.2757107316032,"lat":31.4227225309935,"确诊日期36":"r"},{"SH_ID_36":"10g7us1","区36":"e","地址":"澄浏中路108号","lng":121.27322537852609,"lat":31.40301882946322,"确诊日期36":"r"},{"SH_ID_36":"10g7uqz","区36":"e","地址":"德立路88弄","lng":121.2807625836473,"lat":31.334392689177335,"确诊日期36":"r"},{"SH_ID_36":"10g7ure","区36":"e","地址":"德园路1437弄","lng":121.29746380153469,"lat":31.310894170711894,"确诊日期36":"r"},{"SH_ID_36":"10g7urf","区36":"e","地址":"德园路1509弄","lng":121.29808419655984,"lat":31.312648454270608,"确诊日期36":"r"},{"SH_ID_36":"10g7unf","区36":"e","地址":"方德路201弄","lng":121.23162181671469,"lat":31.314766633057975,"确诊日期36":"r"},{"SH_ID_36":"10g7ung","区36":"e","地址":"方陆路100弄","lng":121.22846675770325,"lat":31.313877203337707,"确诊日期36":"r"},{"SH_ID_36":"10g7ur0","区36":"e","地址":"丰登路1551弄","lng":121.27654324340875,"lat":31.350877134893853,"确诊日期36":"r"},{"SH_ID_36":"10g7ur1","区36":"e","地址":"丰功路999号","lng":121.28805301828318,"lat":31.341976730014714,"确诊日期36":"r"},{"SH_ID_36":"10g7uoq","区36":"e","地址":"丰江路188弄","lng":121.35102067589702,"lat":31.25451628559256,"确诊日期36":"r"},{"SH_ID_36":"10g7usg","区36":"e","地址":"丰江路373号","lng":121.35188164720597,"lat":31.254945150431492,"确诊日期36":"r"},{"SH_ID_36":"10g7uor","区36":"e","地址":"丰庄北路5弄","lng":121.35506231775743,"lat":31.249811030850573,"确诊日期36":"r"},{"SH_ID_36":"10g7ush","区36":"e","地址":"丰庄北路82弄","lng":121.3586462503744,"lat":31.24837069251825,"确诊日期36":"r"},{"SH_ID_36":"10g7usi","区36":"e","地址":"丰庄路268弄","lng":121.3642254982654,"lat":31.244444460196537,"确诊日期36":"r"},{"SH_ID_36":"10g7uos","区36":"e","地址":"丰庄路295号","lng":121.36250451879492,"lat":31.245669623469897,"确诊日期36":"r"},{"SH_ID_36":"10g7usj","区36":"e","地址":"丰庄路295号","lng":121.36222215939424,"lat":31.245547260794552,"确诊日期36":"r"},{"SH_ID_36":"10g7usk","区36":"e","地址":"丰庄路452号","lng":121.36508280368771,"lat":31.249130200474205,"确诊日期36":"r"},{"SH_ID_36":"10g7usl","区36":"e","地址":"丰庄西路558弄","lng":121.35853820064486,"lat":31.246524027220314,"确诊日期36":"r"},{"SH_ID_36":"10g7ur2","区36":"e","地址":"封周路885弄","lng":121.26304951528216,"lat":31.327412922078157,"确诊日期36":"r"},{"SH_ID_36":"10g7uot","区36":"e","地址":"高潮路643号","lng":121.32842991921059,"lat":31.24893931545082,"确诊日期36":"r"},{"SH_ID_36":"10g7urq","区36":"e","地址":"管新路900弄","lng":121.16769900107936,"lat":31.360449061792398,"确诊日期36":"r"},{"SH_ID_36":"10g7uou","区36":"e","地址":"海波路1000弄","lng":121.32987747046229,"lat":31.269901138730628,"确诊日期36":"r"},{"SH_ID_36":"10g7uov","区36":"e","地址":"海波路118弄","lng":121.34563559544638,"lat":31.267683891260273,"确诊日期36":"r"},{"SH_ID_36":"10g7uow","区36":"e","地址":"海波路127弄","lng":121.34533828091287,"lat":31.26702630225798,"确诊日期36":"r"},{"SH_ID_36":"10g7uox","区36":"e","地址":"海波路333弄","lng":121.34111843234837,"lat":31.266529014055727,"确诊日期36":"r"},{"SH_ID_36":"10g7uoy","区36":"e","地址":"海波路838号","lng":121.33158945776024,"lat":31.268586829712927,"确诊日期36":"r"},{"SH_ID_36":"10g7uoz","区36":"e","地址":"海波路850弄","lng":121.33137241420823,"lat":31.269433147407806,"确诊日期36":"r"},{"SH_ID_36":"10g7up0","区36":"e","地址":"海川路108号","lng":121.3504801005997,"lat":31.263881174429436,"确诊日期36":"r"},{"SH_ID_36":"10g7up1","区36":"e","地址":"海川路58弄","lng":121.34929404292295,"lat":31.264425515969446,"确诊日期36":"r"},{"SH_ID_36":"10g7up2","区36":"e","地址":"海蓝路318号","lng":121.34644398966864,"lat":31.262440550970833,"确诊日期36":"r"},{"SH_ID_36":"10g7up3","区36":"e","地址":"海蓝路98弄","lng":121.34943276670661,"lat":31.261296998861148,"确诊日期36":"r"},{"SH_ID_36":"10g7urg","区36":"e","地址":"浩翔路98弄","lng":121.31275744898845,"lat":31.314689312213158,"确诊日期36":"r"},{"SH_ID_36":"10g7up4","区36":"e","地址":"鹤霞路48号","lng":121.3190865228615,"lat":31.246731210094925,"确诊日期36":"r"},{"SH_ID_36":"10g7up5","区36":"e","地址":"鹤霞路555弄","lng":121.29677439839952,"lat":31.285730689499225,"确诊日期36":"r"},{"SH_ID_36":"10g7up6","区36":"e","地址":"鹤旋路500弄","lng":121.30855892994843,"lat":31.238872582130014,"确诊日期36":"r"},{"SH_ID_36":"10g7urr","区36":"e","地址":"恒谐路50号","lng":121.19427613842237,"lat":31.341991744456326,"确诊日期36":"r"},{"SH_ID_36":"10g7uo5","区36":"e","地址":"横仓路714号","lng":121.2917735491334,"lat":31.363301187149435,"确诊日期36":"r"},{"SH_ID_36":"10g7uny","区36":"e","地址":"红石路24弄","lng":121.22562693364925,"lat":31.386203679923753,"确诊日期36":"r"},{"SH_ID_36":"10g7uql","区36":"e","地址":"红石路730弄","lng":121.22611257672071,"lat":31.386374990175337,"确诊日期36":"r"},{"SH_ID_36":"10g7ur3","区36":"e","地址":"洪德路880号","lng":121.24857312989114,"lat":31.35291835669176,"确诊日期36":"r"},{"SH_ID_36":"10g7up7","区36":"e","地址":"沪宜公路5060号","lng":121.20770150676577,"lat":31.37077173620441,"确诊日期36":"r"},{"SH_ID_36":"10g7uo6","区36":"e","地址":"华博路1155号","lng":121.24830541453444,"lat":31.450572574192257,"确诊日期36":"r"},{"SH_ID_36":"10g7up8","区36":"e","地址":"华江公路370号","lng":121.33499244328065,"lat":31.249737714332245,"确诊日期36":"r"},{"SH_ID_36":"10g7up9","区36":"e","地址":"华江路1481弄","lng":121.3271891993173,"lat":31.231866309154235,"确诊日期36":"r"},{"SH_ID_36":"10g7upa","区36":"e","地址":"华江路35号","lng":121.3239310525638,"lat":31.239425354091647,"确诊日期36":"r"},{"SH_ID_36":"10g7upb","区36":"e","地址":"华江路370号","lng":121.33503637515813,"lat":31.24986502474656,"确诊日期36":"r"},{"SH_ID_36":"10g7upc","区36":"e","地址":"华江路4号","lng":121.34624535756657,"lat":31.25838783075416,"确诊日期36":"r"},{"SH_ID_36":"10g7upd","区36":"e","地址":"华江支路328弄","lng":121.34063538599061,"lat":31.25965558553164,"确诊日期36":"r"},{"SH_ID_36":"10g7upe","区36":"e","地址":"华江支路677弄","lng":121.33659940082975,"lat":31.265179028631398,"确诊日期36":"r"},{"SH_ID_36":"10g7ute","区36":"e","地址":"华亭镇金吕村","lng":121.29322543099967,"lat":31.454057540518242,"确诊日期36":"r"},{"SH_ID_36":"10g7utf","区36":"e","地址":"华亭镇双塘村","lng":121.23607632325266,"lat":31.478319330037074,"确诊日期36":"r"},{"SH_ID_36":"10g7uo7","区36":"e","地址":"华旺路888弄","lng":121.28408274589968,"lat":31.473744005299768,"确诊日期36":"r"},{"SH_ID_36":"10g7uqm","区36":"e","地址":"环城路160弄","lng":121.25546556031706,"lat":31.394118720039494,"确诊日期36":"r"},{"SH_ID_36":"10g7upf","区36":"e","地址":"黄家花园路201号","lng":121.32043431132955,"lat":31.256012450389992,"确诊日期36":"r"},{"SH_ID_36":"10g7upg","区36":"e","地址":"黄家花园路88弄","lng":121.32127152250655,"lat":31.252581517340754,"确诊日期36":"r"},{"SH_ID_36":"10g7uph","区36":"e","地址":"黄家花园路998弄","lng":121.32163283578862,"lat":31.27001754807901,"确诊日期36":"r"},{"SH_ID_36":"10g7unz","区36":"e","地址":"汇仁路1588号","lng":121.17271872062597,"lat":31.38919702307696,"确诊日期36":"r"},{"SH_ID_36":"10g7urh","区36":"e","地址":"惠裕路360弄","lng":121.28248206670554,"lat":31.29354210154026,"确诊日期36":"r"},