[{"SH_ID_36":"10fpkv6","区36":"d","地址":"大华路869弄","lng":121.41669253658637,"lat":31.27509711758587,"确诊日期36":"b"},{"SH_ID_36":"10fpkus","区36":"d","地址":"华灵路1681弄","lng":121.40938498071814,"lat":31.281432771904313,"确诊日期36":"b"},{"SH_ID_36":"10fpkv9","区36":"d","地址":"环镇北路500弄","lng":121.40487901058476,"lat":31.30770097266761,"确诊日期36":"b"},{"SH_ID_36":"10fpkuy","区36":"d","地址":"菊太路999弄","lng":121.36119375216335,"lat":31.35131726102821,"确诊日期36":"b"},{"SH_ID_36":"10fpkzx","区36":"d","地址":"祁华路655号","lng":121.37279747033303,"lat":31.32041616978595,"确诊日期36":"b"},{"SH_ID_36":"10fpkyy","区36":"d","地址":"上大路2弄","lng":121.40867285655399,"lat":31.313210106530466,"确诊日期36":"b"},{"SH_ID_36":"10fpkvv","区36":"d","地址":"淞南四村","lng":121.49093361210257,"lat":31.348311361140965,"确诊日期36":"b"},{"SH_ID_36":"10fpkvw","区36":"d","地址":"淞南四村","lng":121.49066236822485,"lat":31.348416409442393,"确诊日期36":"b"},{"SH_ID_36":"10fpkxo","区36":"d","地址":"泰和西路3511弄","lng":121.39902063620363,"lat":31.348925201884384,"确诊日期36":"b"},{"SH_ID_36":"10fpkzw","区36":"d","地址":"新村路789弄","lng":121.41740577007506,"lat":31.266894784375133,"确诊日期36":"b"},{"SH_ID_36":"10fpkyb","区36":"d","地址":"怡华苑路188弄","lng":121.41846900123623,"lat":31.271922898860744,"确诊日期36":"b"},{"SH_ID_36":"10fpkv7","区36":"d","地址":"真华路1030弄","lng":121.41248859294265,"lat":31.275581130901042,"确诊日期36":"b"},{"SH_ID_36":"10fpkzm","区36":"d","地址":"真华路1030弄","lng":121.41224694735112,"lat":31.275757156121184,"确诊日期36":"b"},{"SH_ID_36":"10fpkxv","区36":"d","地址":"竹韵路58弄","lng":121.44517303668337,"lat":31.364088423470772,"确诊日期36":"b"},{"SH_ID_36":"10fpkzo","区36":"u","地址":"猛东村","lng":121.3758786348291,"lat":31.742438218216684,"确诊日期36":"b"},{"SH_ID_36":"10fpkzp","区36":"u","地址":"猛东村","lng":121.37573329424272,"lat":31.742465162807488,"确诊日期36":"b"},{"SH_ID_36":"10fpky4","区36":"u","地址":"西部生活区","lng":121.73720824163293,"lat":31.36946241572346,"确诊日期36":"b"},{"SH_ID_36":"10fpkxy","区36":"k","地址":"南桥韩村路85号","lng":121.46386996773084,"lat":30.940175702533214,"确诊日期36":"b"},{"SH_ID_36":"10fpkvx","区36":"k","地址":"泰南新村","lng":121.55409949986584,"lat":30.908772662217764,"确诊日期36":"b"},{"SH_ID_36":"10fpkuz","区36":"9","地址":"宝山路888弄","lng":121.47906252442854,"lat":31.265270230857837,"确诊日期36":"b"},{"SH_ID_36":"10fpkur","区36":"9","地址":"车站北路732弄","lng":121.46589369579102,"lat":31.298112928169566,"确诊日期36":"b"},{"SH_ID_36":"10fpkyv","区36":"9","地址":"广灵二路385号","lng":121.47106237060423,"lat":31.28160560559276,"确诊日期36":"b"},{"SH_ID_36":"10fpkvj","区36":"9","地址":"广中路680弄","lng":121.4625639680687,"lat":31.27949217647157,"确诊日期36":"b"},{"SH_ID_36":"10fpkv5","区36":"9","地址":"凉城四村","lng":121.47218226619403,"lat":31.292850341486353,"确诊日期36":"b"},{"SH_ID_36":"10fpkvc","区36":"9","地址":"四川北路1906弄","lng":121.48417454213867,"lat":31.26193459467655,"确诊日期36":"b"},{"SH_ID_36":"10fpkv0","区36":"9","地址":"四达路58弄","lng":121.49134603415344,"lat":31.267756278960658,"确诊日期36":"b"},{"SH_ID_36":"10fpkvf","区36":"1","地址":"黄陂南路783号","lng":121.47764362762695,"lat":31.212444158485663,"确诊日期36":"b"},{"SH_ID_36":"10fpkz7","区36":"1","地址":"黄陂南路783号","lng":121.47769957791652,"lat":31.21249811345299,"确诊日期36":"b"},{"SH_ID_36":"10fpkvh","区36":"1","地址":"济南路181弄","lng":121.47890582461255,"lat":31.219535964759128,"确诊日期36":"b"},{"SH_ID_36":"10fpkzn","区36":"1","地址":"建德路4号","lng":121.46805551407738,"lat":31.2096000328161,"确诊日期36":"b"},{"SH_ID_36":"10fpkz2","区36":"1","地址":"顺昌路550弄","lng":121.4792520512212,"lat":31.211920020517272,"确诊日期36":"b"},{"SH_ID_36":"10fpkz3","区36":"1","地址":"顺昌路550弄","lng":121.47937863086662,"lat":31.211819631659225,"确诊日期36":"b"},{"SH_ID_36":"10fpkz4","区36":"1","地址":"顺昌路550弄","lng":121.47937570559272,"lat":31.21169791184303,"确诊日期36":"b"},{"SH_ID_36":"10fpkz6","区36":"1","地址":"顺昌路550弄","lng":121.47931604195311,"lat":31.211919800556846,"确诊日期36":"b"},{"SH_ID_36":"10fpkz1","区36":"1","地址":"顺昌路590号","lng":121.47966115748272,"lat":31.21144110940686,"确诊日期36":"b"},{"SH_ID_36":"10fpkz5","区36":"1","地址":"顺昌路600号","lng":121.47968127839668,"lat":31.21134534962894,"确诊日期36":"b"},{"SH_ID_36":"10fpkuq","区36":"1","地址":"顺昌路612弄","lng":121.47932006905751,"lat":31.211005904577245,"确诊日期36":"b"},{"SH_ID_36":"10fpkv8","区36":"1","地址":"西藏南路688弄","lng":121.48321138246202,"lat":31.21654611093573,"确诊日期36":"b"},{"SH_ID_36":"10fpkvz","区36":"1","地址":"徐家汇路515弄","lng":121.47515485840404,"lat":31.208676058746004,"确诊日期36":"b"},{"SH_ID_36":"10fpkw0","区36":"1","地址":"徐家汇路515弄","lng":121.47518445487623,"lat":31.20874574829526,"确诊日期36":"b"},{"SH_ID_36":"10fpkyz","区36":"1","地址":"永年路149弄","lng":121.47868609446836,"lat":31.211443404985573,"确诊日期36":"b"},{"SH_ID_36":"10fpkz0","区36":"1","地址":"永年路149弄","lng":121.47863405456452,"lat":31.211252957336647,"确诊日期36":"b"},{"SH_ID_36":"10fpkvy","区36":"1","地址":"制造局路后街28号","lng":121.48266763672231,"lat":31.20962709078636,"确诊日期36":"b"},{"SH_ID_36":"10fpkvt","区36":"1","地址":"中山南路1358弄","lng":121.49968533141991,"lat":31.210721577642808,"确诊日期36":"b"},{"SH_ID_36":"10fpkzq","区36":"1","地址":"中山南一路247弄","lng":121.486676549881,"lat":31.201172170616925,"确诊日期36":"b"},{"SH_ID_36":"10fpl0a","区36":"1","地址":"中山南一路247弄","lng":121.48664727902502,"lat":31.200878666376596,"确诊日期36":"b"},{"SH_ID_36":"10fpkxk","区36":"e","地址":"崇教路267号对面工地宿舍","lng":121.27436129654306,"lat":31.320745892347457,"确诊日期36":"b"},{"SH_ID_36":"10fpkxt","区36":"e","地址":"鹤望路365号","lng":121.32537002490838,"lat":31.245629267848987,"确诊日期36":"b"},{"SH_ID_36":"10fpkyt","区36":"e","地址":"华江支路677弄","lng":121.33647018788841,"lat":31.265372345785764,"确诊日期36":"b"},{"SH_ID_36":"10fpkvz","区36":"e","地址":"嘉美路1050弄","lng":121.27501661113232,"lat":31.30164027754553,"确诊日期36":"b"},{"SH_ID_36":"10fpkxm","区36":"e","地址":"嘉美路1050弄","lng":121.27494667143401,"lat":31.301773960168052,"确诊日期36":"b"},{"SH_ID_36":"10fpkyu","区36":"e","地址":"嘉涛路60弄","lng":121.33003405398027,"lat":31.265906052162563,"确诊日期36":"b"},{"SH_ID_36":"10fpl00","区36":"e","地址":"嘉涌路88弄","lng":121.33699434300473,"lat":31.269399969822455,"确诊日期36":"b"},{"SH_ID_36":"10fpkw1","区36":"e","地址":"江桥大宅五四村","lng":121.3224200540026,"lat":31.247464029335646,"确诊日期36":"b"},{"SH_ID_36":"10fpkzu","区36":"e","地址":"江桥五四村","lng":121.32667057855662,"lat":31.24960489877059,"确诊日期36":"b"},{"SH_ID_36":"10fpkzy","区36":"e","地址":"江桥五四村","lng":121.32669292412227,"lat":31.249874883890282,"确诊日期36":"b"},{"SH_ID_36":"10fpl02","区36":"e","地址":"江桥五四村","lng":121.3267458402011,"lat":31.249684763244296,"确诊日期36":"b"},{"SH_ID_36":"10fpl06","区36":"e","地址":"江桥五四村","lng":121.32667926936192,"lat":31.24978249951051,"确诊日期36":"b"},{"SH_ID_36":"10fpkw2","区36":"e","地址":"金园一路1118弄","lng":121.31494692057271,"lat":31.248911840428008,"确诊日期36":"b"},{"SH_ID_36":"10fpkw7","区36":"e","地址":"金园一路1118弄","lng":121.31493159628084,"lat":31.248833241943988,"确诊日期36":"b"},{"SH_ID_36":"10fpkw8","区36":"e","地址":"金园一路1118弄","lng":121.314658954773,"lat":31.248834062653177,"确诊日期36":"b"},{"SH_ID_36":"10fpl01","区36":"e","地址":"金园一路555号","lng":121.3174391253048,"lat":31.255992784807166,"确诊日期36":"b"},{"SH_ID_36":"10fpl08","区36":"e","地址":"临夏路801弄","lng":121.32822355475129,"lat":31.256715739252282,"确诊日期36":"b"},{"SH_ID_36":"10fpl09","区36":"e","地址":"临夏路801弄","lng":121.32837038833132,"lat":31.25695097962029,"确诊日期36":"b"},{"SH_ID_36":"10fpkw0","区36":"e","地址":"娄南村","lng":121.21749690209127,"lat":31.424679545693717,"确诊日期36":"b"},{"SH_ID_36":"10fpl04","区36":"e","地址":"娄塘路548号","lng":121.21904224863715,"lat":31.430259738426173,"确诊日期36":"b"},{"SH_ID_36":"10fpkyp","区36":"e","地址":"梅园路300弄","lng":121.24325783381435,"lat":31.386625230202647,"确诊日期36":"b"},{"SH_ID_36":"10fpkur","区36":"e","地址":"清河路205弄","lng":121.240543390389,"lat":31.380496903955944,"确诊日期36":"b"},{"SH_ID_36":"10fpky1","区36":"e","地址":"秋竹路1001弄","lng":121.21592501741272,"lat":31.38613745571709,"确诊日期36":"b"},{"SH_ID_36":"10fpkvy","区36":"e","地址":"三里村","lng":121.19983361583385,"lat":31.453068684139062,"确诊日期36":"b"},{"SH_ID_36":"10fpkyn","区36":"e","地址":"桃园小区","lng":121.2443447571183,"lat":31.388065549304645,"确诊日期36":"b"},{"SH_ID_36":"10fpkyo","区36":"e","地址":"桃园小区","lng":121.24440294077617,"lat":31.387953069952818,"确诊日期36":"b"},{"SH_ID_36":"10fpkyr","区36":"e","地址":"桃园小区","lng":121.24462076600858,"lat":31.387930732631112,"确诊日期36":"b"},{"SH_ID_36":"10fpkys","区36":"e","地址":"桃园小区","lng":121.24473118832698,"lat":31.387977112723913,"确诊日期36":"b"},{"SH_ID_36":"10fpkz8","区36":"e","地址":"温宿路39弄","lng":121.24729597305283,"lat":31.3875106244667,"确诊日期36":"b"},{"SH_ID_36":"10fpl03","区36":"e","地址":"温宿路39弄","lng":121.2473128052558,"lat":31.38748185959176,"确诊日期36":"b"},{"SH_ID_36":"10fpkyk","区36":"e","地址":"温宿路45号","lng":121.24739354323368,"lat":31.387664776842648,"确诊日期36":"b"},{"SH_ID_36":"10fpkyl","区36":"e","地址":"温宿路45号","lng":121.24770361440682,"lat":31.3878132808963,"确诊日期36":"b"},{"SH_ID_36":"10fpkym","区36":"e","地址":"温宿路45号","lng":121.24746543079982,"lat":31.387671975340396,"确诊日期36":"b"},{"SH_ID_36":"10fpkxl","区36":"e","地址":"温宿路50弄","lng":121.24678378291277,"lat":31.38781201439057,"确诊日期36":"b"},{"SH_ID_36":"10fpkyq","区36":"e","地址":"战斗村","lng":121.22322743077332,"lat":31.422354706090537,"确诊日期36":"b"},{"SH_ID_36":"10fpkyj","区36":"g","地址":"龙皓路1565弄","lng":121.33541930152282,"lat":30.7541661480409,"确诊日期36":"b"},{"SH_ID_36":"10fpkya","区36":"6","地址":"南京西路770号","lng":121.46185266228244,"lat":31.231423830883728,"确诊日期36":"b"},{"SH_ID_36":"10fpkux","区36":"6","地址":"万荣路948号","lng":121.44172969448705,"lat":31.28726803686875,"确诊日期36":"b"},{"SH_ID_36":"10fpkxn","区36":"6","地址":"阳曲路650弄","lng":121.46011495489047,"lat":31.316353601167787,"确诊日期36":"b"},{"SH_ID_36":"10fpkyw","区36":"6","地址":"永兴小马路70号","lng":121.46438618036683,"lat":31.25127346734171,"确诊日期36":"b"},{"SH_ID_36":"10fpkvk","区36":"c","地址":"春申路1580弄","lng":121.43219420523496,"lat":31.115773068230705,"确诊日期36":"b"},{"SH_ID_36":"10fpkwp","区36":"c","地址":"春申路1888弄","lng":121.42242835267812,"lat":31.11359028636949,"确诊日期36":"b"},{"SH_ID_36":"10fpkvj","区36":"c","地址":"东川路800号","lng":121.43619857597334,"lat":31.024049118558043,"确诊日期36":"b"},{"SH_ID_36":"10fpkw6","区36":"c","地址":"东风村","lng":121.54481951790056,"lat":31.102789329050797,"确诊日期36":"b"},{"SH_ID_36":"10fpkxq","区36":"c","地址":"放鹤路2号","lng":121.47719458846076,"lat":31.05096356889924,"确诊日期36":"b"},{"SH_ID_36":"10fpkxr","区36":"c","地址":"放鹤路2号","lng":121.4770366758034,"lat":31.05089678217636,"确诊日期36":"b"},{"SH_ID_36":"10fpkxs","区36":"c","地址":"放鹤路2号","lng":121.4769058552939,"lat":31.05109153845993,"确诊日期36":"b"},{"SH_ID_36":"10fpkzk","区36":"c","地址":"放鹤路2号","lng":121.4771507555648,"lat":31.051013903295356,"确诊日期36":"b"},{"SH_ID_36":"10fpkzl","区36":"c","地址":"放鹤路2号","lng":121.47694538154305,"lat":31.051245855901623,"确诊日期36":"b"},{"SH_ID_36":"10fpkze","区36":"c","地址":"华茂路1036弄","lng":121.34838316842983,"lat":31.14308985505789,"确诊日期36":"b"},{"SH_ID_36":"10fpkyg","区36":"c","地址":"纪东村","lng":121.27619775425303,"lat":31.245071695952536,"确诊日期36":"b"},{"SH_ID_36":"10fpkvm","区36":"c","地址":"江川路街道剑川路综合服务中心工地宿舍","lng":121.35346383278407,"lat":31.006836825935324,"确诊日期36":"b"},{"SH_ID_36":"10fpkvn","区36":"c","地址":"江川路街道剑川路综合服务中心工地宿舍","lng":121.35335054276463,"lat":31.006857395674526,"确诊日期36":"b"},{"SH_ID_36":"10fpkvo","区36":"c","地址":"江川路街道剑川路综合服务中心工地宿舍","lng":121.35342145086256,"lat":31.006987589954473,"确诊日期36":"b"},{"SH_ID_36":"10fpkvp","区36":"c","地址":"江川路街道剑川路综合服务中心工地宿舍","lng":121.35347170540997,"lat":31.006791265982685,"确诊日期36":"b"},{"SH_ID_36":"10fpkvq","区36":"c","地址":"江川路街道剑川路综合服务中心工地宿舍","lng":121.35351222237084,"lat":31.006816587070205,"确诊日期36":"b"},{"SH_ID_36":"10fpkvr","区36":"c","地址":"江川路街道剑川路综合服务中心工地宿舍","lng":121.35347168067729,"lat":31.007023381202778,"确诊日期36":"b"},{"SH_ID_36":"10fpkvs","区36":"c","地址":"江川路街道剑川路综合服务中心工地宿舍","lng":121.35335318170264,"lat":31.0069118489686,"确诊日期36":"b"},{"SH_ID_36":"10fpkvt","区36":"c","地址":"江川路街道剑川路综合服务中心工地宿舍","lng":121.35317677253222,"lat":31.00705602253814,"确诊日期36":"b"},{"SH_ID_36":"10fpkvu","区36":"c","地址":"江川路街道剑川路综合服务中心工地宿舍","lng":121.35350948346446,"lat":31.007035702461405,"确诊日期36":"b"},{"SH_ID_36":"10fpkw1","区36":"c","地址":"江川路街道剑川路综合服务中心工地宿舍","lng":121.35342056166364,"lat":31.006861147801583,"确诊日期36":"b"},{"SH_ID_36":"10fpkw2","区36":"c","地址":"江川路街道剑川路综合服务中心工地宿舍","lng":121.3535373699049,"lat":31.007070648785245,"确诊日期36":"b"},{"SH_ID_36":"10fpkw3","区36":"c","地址":"江川路街道剑川路综合服务中心工地宿舍","lng":121.35318416117516,"lat":31.00694404361284,"确诊日期36":"b"},{"SH_ID_36":"10fpkw4","区36":"c","地址":"江川路街道剑川路综合服务中心工地宿舍","lng":121.3534003620982,"lat":31.006812487759724,"确诊日期36":"b"},{"SH_ID_36":"10fpkw5","区36":"c","地址":"江川路街道剑川路综合服务中心工地宿舍","lng":121.35349057803585,"lat":31.00683769010398,"确诊日期36":"b"},{"SH_ID_36":"10fpkw6","区36":"c","地址":"江川路街道剑川路综合服务中心工地宿舍","lng":121.35352363439054,"lat":31.006779575760905,"确诊日期36":"b"},{"SH_ID_36":"10fpkw7","区36":"c","地址":"江川路街道剑川路综合服务中心工地宿舍","lng":121.35339171090125,"lat":31.006967143359375,"确诊日期36":"b"},{"SH_ID_36":"10fpkw8","区36":"c","地址":"江川路街道剑川路综合服务中心工地宿舍","lng":121.3534357937514,"lat":31.006876882906777,"确诊日期36":"b"},{"SH_ID_36":"10fpkw9","区36":"c","地址":"江川路街道剑川路综合服务中心工地宿舍","lng":121.3532236578291,"lat":31.006991223049784,"确诊日期36":"b"},{"SH_ID_36":"10fpkwa","区36":"c","地址":"江川路街道剑川路综合服务中心工地宿舍","lng":121.35337578523118,"lat":31.006843208885762,"确诊日期36":"b"},{"SH_ID_36":"10fpkwb","区36":"c","地址":"江川路街道剑川路综合服务中心工地宿舍","lng":121.35351788739116,"lat":31.006863235143268,"确诊日期36":"b"},{"SH_ID_36":"10fpkwc","区36":"c","地址":"江川路街道剑川路综合服务中心工地宿舍","lng":121.35321156679501,"lat":31.00684860245233,"确诊日期36":"b"},{"SH_ID_36":"10fpkwd","区36":"c","地址":"江川路街道剑川路综合服务中心工地宿舍","lng":121.35337610490937,"lat":31.00686508343973,"确诊日期36":"b"},{"SH_ID_36":"10fpkwe","区36":"c","地址":"江川路街道剑川路综合服务中心工地宿舍","lng":121.35329148684315,"lat":31.00681532918621,"确诊日期36":"b"},{"SH_ID_36":"10fpkwf","区36":"c","地址":"江川路街道剑川路综合服务中心工地宿舍","lng":121.35342244474431,"lat":31.006969586428486,"确诊日期36":"b"},{"SH_ID_36":"10fpkwg","区36":"c","地址":"江川路街道剑川路综合服务中心工地宿舍","lng":121.3533023387467,"lat":31.007100677315982,"确诊日期36":"b"},{"SH_ID_36":"10fpkwh","区36":"c","地址":"江川路街道剑川路综合服务中心工地宿舍","lng":121.35353168239222,"lat":31.006721880543193,"确诊日期36":"b"},{"SH_ID_36":"10fpkwi","区36":"c","地址":"江川路街道剑川路综合服务中心工地宿舍","lng":121.35317824990999,"lat":31.00676549159162,"确诊日期36":"b"},{"SH_ID_36":"10fpkwj","区36":"c","地址":"江川路街道剑川路综合服务中心工地宿舍","lng":121.35333204846972,"lat":31.007063518323534,"确诊日期36":"b"},{"SH_ID_36":"10fpkwk","区36":"c","地址":"江川路街道剑川路综合服务中心工地宿舍","lng":121.35345397623489,"lat":31.00678549706632,"确诊日期36":"b"},{"SH_ID_36":"10fpkwl","区36":"c","地址":"江川路街道剑川路综合服务中心工地宿舍","lng":121.35332976744763,"lat":31.00701686401858,"确诊日期36":"b"},{"SH_ID_36":"10fpkwm","区36":"c","地址":"江川路街道剑川路综合服务中心工地宿舍","lng":121.35321305950171,"lat":31.006724843060756,"确诊日期36":"b"},{"SH_ID_36":"10fpkwq","区36":"c","地址":"江川路街道剑川路综合服务中心工地宿舍","lng":121.35355815098374,"lat":31.006932649117207,"确诊日期36":"b"},{"SH_ID_36":"10fpkwr","区36":"c","地址":"江川路街道剑川路综合服务中心工地宿舍","lng":121.35329482735801,"lat":31.006742613125017,"确诊日期36":"b"},{"SH_ID_36":"10fpkws","区36":"c","地址":"江川路街道剑川路综合服务中心工地宿舍","lng":121.35338207852783,"lat":31.00686224989817,"确诊日期36":"b"},{"SH_ID_36":"10fpkwt","区36":"c","地址":"江川路街道剑川路综合服务中心工地宿舍","lng":121.3534612260213,"lat":31.007085075406057,"确诊日期36":"b"},{"SH_ID_36":"10fpkwu","区36":"c","地址":"江川路街道剑川路综合服务中心工地宿舍","lng":121.3533870187937,"lat":31.006986437604475,"确诊日期36":"b"},{"SH_ID_36":"10fpkwx","区36":"c","地址":"江川路街道剑川路综合服务中心工地宿舍","lng":121.35336155735865,"lat":31.006875991078033,"确诊日期36":"b"},{"SH_ID_36":"10fpkwy","区36":"c","地址":"江川路街道剑川路综合服务中心工地宿舍","lng":121.35339659414821,"lat":31.00675450687458,"确诊日期36":"b"},{"SH_ID_36":"10fpkwz","区36":"c","地址":"江川路街道剑川路综合服务中心工地宿舍","lng":121.35321672164442,"lat":31.006869037321252,"确诊日期36":"b"},{"SH_ID_36":"10fpkx0","区36":"c","地址":"江川路街道剑川路综合服务中心工地宿舍","lng":121.35326563743936,"lat":31.00685943142878,"确诊日期36":"b"},{"SH_ID_36":"10fpkx1","区36":"c","地址":"江川路街道剑川路综合服务中心工地宿舍","lng":121.3533967208004,"lat":31.006917390767466,"确诊日期36":"b"},{"SH_ID_36":"10fpkx2","区36":"c","地址":"江川路街道剑川路综合服务中心工地宿舍","lng":121.35344009709348,"lat":31.00686927231309,"确诊日期36":"b"},{"SH_ID_36":"10fpkx3","区36":"c","地址":"江川路街道剑川路综合服务中心工地宿舍","lng":121.35336146216763,"lat":31.00686846006549,"确诊日期36":"b"},{"SH_ID_36":"10fpkx4","区36":"c","地址":"江川路街道剑川路综合服务中心工地宿舍","lng":121.35325051033723,"lat":31.006893027313822,"确诊日期36":"b"},{"SH_ID_36":"10fpkx5","区36":"c","地址":"江川路街道剑川路综合服务中心工地宿舍","lng":121.35342615602698,"lat":31.00691944226562,"确诊日期36":"b"},{"SH_ID_36":"10fpkx6","区36":"c","地址":"江川路街道剑川路综合服务中心工地宿舍","lng":121.35332840058307,"lat":31.00673160964047,"确诊日期36":"b"},{"SH_ID_36":"10fpkx7","区36":"c","地址":"江川路街道剑川路综合服务中心工地宿舍","lng":121.35346258823047,"lat":31.006978490806585,"确诊日期36":"b"},{"SH_ID_36":"10fpkx8","区36":"c","地址":"江川路街道剑川路综合服务中心工地宿舍","lng":121.35338443024486,"lat":31.00676648771038,"确诊日期36":"b"},{"SH_ID_36":"10fpkx9","区36":"c","地址":"江川路街道剑川路综合服务中心工地宿舍","lng":121.35329909875134,"lat":31.006902842346253,"确诊日期36":"b"},{"SH_ID_36":"10fpkxa","区36":"c","地址":"江川路街道剑川路综合服务中心工地宿舍","lng":121.35329744220303,"lat":31.006952790443876,"确诊日期36":"b"},{"SH_ID_36":"10fpkxb","区36":"c","地址":"江川路街道剑川路综合服务中心工地宿舍","lng":121.35342189455186,"lat":31.00705853483845,"确诊日期36":"b"},{"SH_ID_36":"10fpkxc","区36":"c","地址":"江川路街道剑川路综合服务中心工地宿舍","lng":121.35345840489407,"lat":31.007113785683803,"确诊日期36":"b"},{"SH_ID_36":"10fpkxd","区36":"c","地址":"江川路街道剑川路综合服务中心工地宿舍","lng":121.35324337482905,"lat":31.006870254883633,"确诊日期36":"b"},{"SH_ID_36":"10fpkxe","区36":"c","地址":"江川路街道剑川路综合服务中心工地宿舍","lng":121.35351006918866,"lat":31.00704433224539,"确诊日期36":"b"},{"SH_ID_36":"10fpkxf","区36":"c","地址":"江川路街道剑川路综合服务中心工地宿舍","lng":121.35334872994393,"lat":31.006979258213132,"确诊日期36":"b"},{"SH_ID_36":"10fpkxg","区36":"c","地址":"江川路街道剑川路综合服务中心工地宿舍","lng":121.35347099126592,"lat":31.006912309514252,"确诊日期36":"b"},{"SH_ID_36":"10fpkxh","区36":"c","地址":"江川路街道剑川路综合服务中心工地宿舍","lng":121.35328886454506,"lat":31.007024500133845,"确诊日期36":"b"},{"SH_ID_36":"10fpkxi","区36":"c","地址":"江川路街道剑川路综合服务中心工地宿舍","lng":121.35335302827697,"lat":31.007088594744367,"确诊日期36":"b"},{"SH_ID_36":"10fpkxj","区36":"c","地址":"江川路街道剑川路综合服务中心工地宿舍","lng":121.35326257388452,"lat":31.0069885648793,"确诊日期36":"b"},{"SH_ID_36":"10fpkv2","区36":"c","地址":"龙吴路永德小区","lng":121.46535963422672,"lat":31.044485051372526,"确诊日期36":"b"},{"SH_ID_36":"10fpkus","区36":"c","地址":"罗秀路1339弄","lng":121.41891335965762,"lat":31.12801892727951,"确诊日期36":"b"},{"SH_ID_36":"10fpkxu","区36":"c","地址":"罗秀路1339弄","lng":121.41869753332278,"lat":31.12796957819735,"确诊日期36":"b"},{"SH_ID_36":"10fpkzi","区36":"c","地址":"普杰路100弄","lng":121.42291731690356,"lat":31.11742252637429,"确诊日期36":"b"},{"SH_ID_36":"10fpkv3","区36":"c","地址":"普乐路665弄","lng":121.42107330966982,"lat":31.118289253282626,"确诊日期36":"b"},{"SH_ID_36":"10fpkxp","区36":"c","地址":"申北路135弄","lng":121.38664214121624,"lat":31.090250829308154,"确诊日期36":"b"},{"SH_ID_36":"10fpkyh","区36":"c","地址":"莘朱路1977号","lng":121.42281842588243,"lat":31.12247672379433,"确诊日期36":"b"},{"SH_ID_36":"10fpkzj","区36":"c","地址":"盛帆沁春园二村","lng":121.37616473652542,"lat":31.094889781883644,"确诊日期36":"b"},{"SH_ID_36":"10fpkup","区36":"c","地址":"杨家巷村","lng":121.30219730745462,"lat":31.22365619099705,"确诊日期36":"b"},{"SH_ID_36":"10fpkxx","区36":"c","地址":"杨家巷村","lng":121.30215113155735,"lat":31.22383078738418,"确诊日期36":"b"},{"SH_ID_36":"10fpkvl","区36":"c","地址":"业祥路111弄","lng":121.43598448025864,"lat":31.123669422664552,"确诊日期36":"b"},{"SH_ID_36":"10fpkzg","区36":"c","地址":"银春路2200弄","lng":121.38687562217235,"lat":31.025754480987178,"确诊日期36":"b"},{"SH_ID_36":"10fpkv3","区36":"f","地址":"北项湾","lng":121.55517587740172,"lat":31.36181112091112,"确诊日期36":"b"},{"SH_ID_36":"10fpkvn","区36":"f","地址":"创新西路75弄","lng":121.65601767466617,"lat":31.202661193128076,"确诊日期36":"b"},{"SH_ID_36":"10fpkvv","区36":"f","地址":"德州三村","lng":121.49017664041024,"lat":31.169044592216718,"确诊日期36":"b"},{"SH_ID_36":"10fpkw4","区36":"f","地址":"关岳西路151弄","lng":121.57817769158585,"lat":31.11836745540329,"确诊日期36":"b"},{"SH_ID_36":"10fpkzz","区36":"f","地址":"光辉村","lng":121.7123389267406,"lat":31.063823421816874,"确诊日期36":"b"},{"SH_ID_36":"10fpl07","区36":"f","地址":"光明村","lng":121.65850392813812,"lat":31.290491361223992,"确诊日期36":"b"},{"SH_ID_36":"10fpkvg","区36":"f","地址":"鹤沙路588弄","lng":121.59319763977875,"lat":31.08176088497937,"确诊日期36":"b"},{"SH_ID_36":"10fpkvs","区36":"f","地址":"鹤沙路688弄","lng":121.58938302374573,"lat":31.08174008975843,"确诊日期36":"b"},{"SH_ID_36":"10fpkvp","区36":"f","地址":"华夏东路1036弄","lng":121.66930963211873,"lat":31.19548705551631,"确诊日期36":"b"},{"SH_ID_36":"10fpkvr","区36":"f","地址":"华夏东路1152弄","lng":121.6716939699509,"lat":31.195902030670165,"确诊日期36":"b"},{"SH_ID_36":"10fpkzt","区36":"f","地址":"华夏东路1152弄","lng":121.67182016785956,"lat":31.19580369344954,"确诊日期36":"b"},{"SH_ID_36":"10fpkzv","区36":"f","地址":"华夏东路1668弄","lng":121.68228882874632,"lat":31.196968478832915,"确诊日期36":"b"},{"SH_ID_36":"10fpkvq","区36":"f","地址":"华夏东路860弄","lng":121.66576141044403,"lat":31.19444217695723,"确诊日期36":"b"},{"SH_ID_36":"10fpkvl","区36":"f","地址":"建光村","lng":121.7469945225632,"lat":31.2126606064443,"确诊日期36":"b"},{"SH_ID_36":"10fpkvd","区36":"f","地址":"锦绣东郊","lng":121.7652288016289,"lat":31.17043711979787,"确诊日期36":"b"},{"SH_ID_36":"10fpkw9","区36":"f","地址":"龙博公寓","lng":121.55503413631857,"lat":31.178347305665294,"确诊日期36":"b"},{"SH_ID_36":"10fpkzs","区36":"f","地址":"龙居路1号","lng":121.5585826518022,"lat":31.256915877370417,"确诊日期36":"b"},{"SH_ID_36":"10fpkvk","区36":"f","地址":"妙境路124弄","lng":121.68909380217855,"lat":31.197044604451932,"确诊日期36":"b"},{"SH_ID_36":"10fpkw3","区36":"f","地址":"浦东大道580号","lng":121.52165960342202,"lat":31.240231111228404,"确诊日期36":"b"},{"SH_ID_36":"10fpkyd","区36":"f","地址":"浦建路60弄","lng":121.51835954047404,"lat":31.207210986943675,"确诊日期36":"b"},{"SH_ID_36":"10fpkux","区36":"f","地址":"栖山路1700弄","lng":121.56938205005292,"lat":31.258742026166296,"确诊日期36":"b"},{"SH_ID_36":"10fpkvo","区36":"f","地址":"人民西路128弄","lng":121.73479465696884,"lat":31.049211014071783,"确诊日期36":"b"},{"SH_ID_36":"10fpkv6","区36":"f","地址":"三三公路5020弄","lng":121.90745689499924,"lat":30.9531384895956,"确诊日期36":"b"},{"SH_ID_36":"10fpkvf","区36":"f","地址":"商城路108弄","lng":121.51026060628668,"lat":31.22794829883272,"确诊日期36":"b"},{"SH_ID_36":"10fpkvx","区36":"f","地址":"商城路1317弄","lng":121.53105598957127,"lat":31.236278935960822,"确诊日期36":"b"},{"SH_ID_36":"10fpkvi","区36":"f","地址":"上游村","lng":121.64101268422813,"lat":31.31060631153657,"确诊日期36":"b"},{"SH_ID_36":"10fpkvw","区36":"f","地址":"邵村村","lng":121.73706946594591,"lat":31.004503929462903,"确诊日期36":"b"},{"SH_ID_36":"10fpkvm","区36":"f","地址":"盛荣路288弄","lng":121.60572993231023,"lat":31.169846938261163,"确诊日期36":"b"},{"SH_ID_36":"10fpkve","区36":"f","地址":"天花庵村","lng":121.5342600623007,"lat":31.122660906765603,"确诊日期36":"b"},{"SH_ID_36":"10fpkvb","区36":"f","地址":"团新村","lng":121.75327455818905,"lat":31.01543229201545,"确诊日期36":"b"},{"SH_ID_36":"10fpkw5","区36":"f","地址":"新德路835弄","lng":121.68837577837478,"lat":31.195428082003232,"确诊日期36":"b"},{"SH_ID_36":"10fpkvc","区36":"f","地址":"新艺路53号","lng":121.64291298708622,"lat":31.020273851206525,"确诊日期36":"b"},{"SH_ID_36":"10fpkuq","区36":"f","地址":"英雄村","lng":121.7532803624954,"lat":31.029260551366704,"确诊日期36":"b"},{"SH_ID_36":"10fpkva","区36":"f","地址":"枣庄路399弄","lng":121.57820651674776,"lat":31.255633201918013,"确诊日期36":"b"},{"SH_ID_36":"10fpkvu","区36":"f","地址":"中心村养正宅","lng":121.64509719381155,"lat":31.179348167014485,"确诊日期36":"b"},{"SH_ID_36":"10fpky2","区36":"7","地址":"白玉新村","lng":121.41437464751816,"lat":31.23282405014844,"确诊日期36":"b"},{"SH_ID_36":"10fpkut","区36":"7","地址":"沪太路765弄","lng":122.32374634379642,"lat":29.971904225504165,"确诊日期36":"b"},{"SH_ID_36":"10fpkut","区36":"7","地址":"金汤路353弄","lng":121.38100696453944,"lat":31.250967834009995,"确诊日期36":"b"},{"SH_ID_36":"10fpkwn","区36":"7","地址":"泸定路555弄","lng":121.38764002204327,"lat":31.22939579910471,"确诊日期36":"b"},{"SH_ID_36":"10fpkww","区36":"7","地址":"梅岭北路1258弄","lng":121.39103431307659,"lat":31.24304981691068,"确诊日期36":"b"},{"SH_ID_36":"10fpkyx","区36":"7","地址":"西康路1288弄","lng":121.43675481074503,"lat":31.246229143869765,"确诊日期36":"b"},{"SH_ID_36":"10fpky6","区36":"7","地址":"长征金江工业园区宿舍","lng":121.3682519630698,"lat":31.23555945355646,"确诊日期36":"b"},{"SH_ID_36":"10fpl05","区36":"i","地址":"新府中路1331弄","lng":121.23023724233755,"lat":31.22580698067235,"确诊日期36":"b"},{"SH_ID_36":"10fpkv2","区36":"h","地址":"仓汇路401弄","lng":121.2004333420993,"lat":31.00898465157987,"确诊日期36":"b"},{"SH_ID_36":"10fpkuy","区36":"h","地址":"古楼公路656弄","lng":121.2604175150706,"lat":31.11732840565669,"确诊日期36":"b"},{"SH_ID_36":"10fpkup","区36":"h","地址":"九新公路2335弄","lng":121.31656192388358,"lat":31.07048613399182,"确诊日期36":"b"},{"SH_ID_36":"10fpkve","区36":"h","地址":"涞亭南路888弄","lng":121.34115182557441,"lat":31.12662839645484,"确诊日期36":"b"},{"SH_ID_36":"10fpkv9","区36":"h","地址":"泗泾镇古楼公路659弄","lng":121.25253934906368,"lat":31.104512737500695,"确诊日期36":"b"},{"SH_ID_36":"10fpkva","区36":"h","地址":"泗泾镇泗凯路291弄","lng":121.23423317940771,"lat":31.112687043200268,"确诊日期36":"b"},{"SH_ID_36":"10fpkz9","区36":"h","地址":"亭知路651弄","lng":121.3066667907863,"lat":31.146079271348842,"确诊日期36":"b"},{"SH_ID_36":"10fpkvb","区36":"h","地址":"外婆泾路299弄","lng":121.25830846848692,"lat":31.11534664759394,"确诊日期36":"b"},{"SH_ID_36":"10fpkuv","区36":"h","地址":"王家厍路55弄","lng":121.24805109760416,"lat":31.09160480374864,"确诊日期36":"b"},{"SH_ID_36":"10fpkvd","区36":"h","地址":"滟东路62号","lng":121.27834753046332,"lat":30.92765957357384,"确诊日期36":"b"},{"SH_ID_36":"10fpkv1","区36":"4","地址":"漕溪路280号","lng":121.43409164546875,"lat":31.169102774275025,"确诊日期36":"b"},{"SH_ID_36":"10fpkyi","区36":"4","地址":"大木桥路450弄","lng":121.46254071062651,"lat":31.195635910129276,"确诊日期36":"b"},{"SH_ID_36":"10fpl0b","区36":"4","地址":"大木桥路450弄","lng":121.46248246120783,"lat":31.195891439216545,"确诊日期36":"b"},{"SH_ID_36":"10fpkv4","区36":"4","地址":"东安一村","lng":121.45846984123237,"lat":31.187987794555795,"确诊日期36":"b"},{"SH_ID_36":"10fpkye","区36":"4","地址":"东泉路50弄","lng":121.44520349196958,"lat":31.155972789184908,"确诊日期36":"b"},{"SH_ID_36":"10fpkyc","区36":"4","地址":"桂林东街99弄","lng":121.42500165544693,"lat":31.15534706947629,"确诊日期36":"b"},{"SH_ID_36":"10fpkxw","区36":"4","地址":"桂林西街15弄","lng":121.41566650247917,"lat":31.15556516394933,"确诊日期36":"b"},{"SH_ID_36":"10fpkzc","区36":"4","地址":"桂林西街201弄","lng":121.42208114977898,"lat":31.153283250611576,"确诊日期36":"b"},{"SH_ID_36":"10fpky5","区36":"4","地址":"桂林西街47弄","lng":121.41655939955882,"lat":31.154231679861738,"确诊日期36":"b"},{"SH_ID_36":"10fpkv1","区36":"4","地址":"虹漕路19弄","lng":121.40943446810942,"lat":31.16556610576128,"确诊日期36":"b"},{"SH_ID_36":"10fpkzf","区36":"4","地址":"湖南路4弄","lng":121.44277424343422,"lat":31.208347967690166,"确诊日期36":"b"},{"SH_ID_36":"10fpkza","区36":"4","地址":"华发路406弄","lng":121.44696888846477,"lat":31.12845310149625,"确诊日期36":"b"},{"SH_ID_36":"10fpkzh","区36":"4","地址":"康健路105弄","lng":121.42775515758458,"lat":31.166061801205622,"确诊日期36":"b"},{"SH_ID_36":"10fpkuw","区36":"4","地址":"老沪闵路1039弄","lng":121.43436410487084,"lat":31.130548391449537,"确诊日期36":"b"},{"SH_ID_36":"10fpky7","区36":"4","地址":"老沪闵路1290弄","lng":121.43985535256185,"lat":31.12075379717219,"确诊日期36":"b"},{"SH_ID_36":"10fpkuv","区36":"4","地址":"零陵路250弄","lng":121.45973852026322,"lat":31.191246329617965,"确诊日期36":"b"},{"SH_ID_36":"10fpkv5","区36":"4","地址":"零陵路631号","lng":121.44645816882154,"lat":31.18780925062798,"确诊日期36":"b"},{"SH_ID_36":"10fpkxz","区36":"4","地址":"柳州路600弄","lng":121.41994940906962,"lat":31.178254084713846,"确诊日期36":"b"},{"SH_ID_36":"10fpky0","区36":"4","地址":"柳州路600弄","lng":121.42004235651892,"lat":31.17811028747556,"确诊日期36":"b"},{"SH_ID_36":"10fpkv4","区36":"4","地址":"龙吴路1717弄","lng":121.4526484578852,"lat":31.132053992254015,"确诊日期36":"b"},{"SH_ID_36":"10fpkzd","区36":"4","地址":"龙吴路1717弄","lng":121.4527990481296,"lat":31.131978992632824,"确诊日期36":"b"},{"SH_ID_36":"10fpkuu","区36":"4","地址":"龙吴路2418弄","lng":121.46089787196874,"lat":31.119723792415808,"确诊日期36":"b"},{"SH_ID_36":"10fpkuu","区36":"4","地址":"龙吴路2418弄","lng":121.46106964686088,"lat":31.11961734540673,"确诊日期36":"b"},{"SH_ID_36":"10fpkvh","区36":"4","地址":"龙吴路2418弄","lng":121.46097317962428,"lat":31.119783079908743,"确诊日期36":"b"},{"SH_ID_36":"10fpkuw","区36":"4","地址":"龙吴路555弄","lng":121.44958164032037,"lat":31.1569542102342,"确诊日期36":"b"},{"SH_ID_36":"10fpky3","区36":"4","地址":"龙吴路555弄","lng":121.44931204931245,"lat":31.156952441565473,"确诊日期36":"b"},{"SH_ID_36":"10fpkyf","区36":"4","地址":"龙吟路452弄","lng":121.45225102416515,"lat":31.11361860511787,"确诊日期36":"b"},{"SH_ID_36":"10fpkvg","区36":"4","地址":"龙州路425弄","lng":121.42648526606955,"lat":31.129126051763805,"确诊日期36":"b"},{"SH_ID_36":"10fpkvi","区36":"4","地址":"龙州路425弄","lng":121.42668024488128,"lat":31.12907930247905,"确诊日期36":"b"},{"SH_ID_36":"10fpky8","区36":"4","地址":"梅陇十村","lng":121.42360847589242,"lat":31.131538937576718,"确诊日期36":"b"},{"SH_ID_36":"10fpkv0","区36":"4","地址":"平江路170弄","lng":121.45524442027832,"lat":31.2002185164809,"确诊日期36":"b"},{"SH_ID_36":"10fpkzb","区36":"4","地址":"天等路259弄","lng":121.42713458222686,"lat":31.135696286877,"确诊日期36":"b"},{"SH_ID_36":"10fpkv7","区36":"4","地址":"天钥新村","lng":121.44668805128437,"lat":31.18734896010104,"确诊日期36":"b"},{"SH_ID_36":"10fpkv8","区36":"4","地址":"天钥新村","lng":121.44648140307437,"lat":31.187319548240957,"确诊日期36":"b"},{"SH_ID_36":"10fpkzr","区36":"4","地址":"宛平南路517号","lng":121.4488888243688,"lat":31.18918568239786,"确诊日期36":"b"},{"SH_ID_36":"10fpkuz","区36":"4","地址":"长桥七村","lng":121.43096850781544,"lat":31.152561837315062,"确诊日期36":"b"},{"SH_ID_36":"10fpkwo","区36":"a","地址":"延吉五村","lng":121.53771490484723,"lat":31.291226409821203,"确诊日期36":"b"},{"SH_ID_36":"10fpkwv","区36":"a","地址":"延吉五村","lng":121.53763627175015,"lat":31.291122231201044,"确诊日期36":"b"},{"SH_ID_36":"10fpky9","区36":"5","地址":"虹桥路977号","lng":121.41698268462454,"lat":31.19749451702797,"确诊日期36":"b"}]