[{"SH_ID_36":"10foak1","区36":"d","地址":"丹霞山路257弄","lng":121.36272426077211,"lat":31.36199283809511,"确诊日期36":"5"},{"SH_ID_36":"10foaks","区36":"d","地址":"四元路126号","lng":121.43008722771289,"lat":31.41319485750804,"确诊日期36":"5"},{"SH_ID_36":"10foal2","区36":"d","地址":"泗塘一村","lng":121.45176291893405,"lat":31.337848317005673,"确诊日期36":"5"},{"SH_ID_36":"10foak5","区36":"d","地址":"永顺路81弄","lng":121.34915955011027,"lat":31.412134731304967,"确诊日期36":"5"},{"SH_ID_36":"10foaki","区36":"d","地址":"永顺路81弄","lng":121.34916794420275,"lat":31.412323382284736,"确诊日期36":"5"},{"SH_ID_36":"10foakx","区36":"d","地址":"永顺路81弄","lng":121.34885505762003,"lat":31.412267001050928,"确诊日期36":"5"},{"SH_ID_36":"10foaky","区36":"d","地址":"永顺路81弄","lng":121.34912459273217,"lat":31.412340437438957,"确诊日期36":"5"},{"SH_ID_36":"10foakz","区36":"d","地址":"永顺路81弄","lng":121.34883036694534,"lat":31.412182050708036,"确诊日期36":"5"},{"SH_ID_36":"10foam6","区36":"d","地址":"长江路868号","lng":121.48344337730143,"lat":31.34622741382894,"确诊日期36":"5"},{"SH_ID_36":"10foam4","区36":"k","地址":"万顺路2768弄","lng":121.51659748202917,"lat":30.969776427832038,"确诊日期36":"5"},{"SH_ID_36":"10foak3","区36":"9","地址":"三门路747弄","lng":121.48023837632908,"lat":31.31290368317692,"确诊日期36":"5"},{"SH_ID_36":"10foaku","区36":"9","地址":"四川北路1545弄","lng":121.48200053789408,"lat":31.25583279631453,"确诊日期36":"5"},{"SH_ID_36":"10foal6","区36":"1","地址":"车站东路195号","lng":121.46940849483305,"lat":31.230004110935365,"确诊日期36":"5"},{"SH_ID_36":"10foalo","区36":"1","地址":"车站东路195号","lng":121.4693921902654,"lat":31.22984042613831,"确诊日期36":"5"},{"SH_ID_36":"10foals","区36":"1","地址":"淮海东路89弄","lng":121.48180820951566,"lat":31.225236109750064,"确诊日期36":"5"},{"SH_ID_36":"10foalb","区36":"1","地址":"西藏南路1739弄","lng":121.49185388358599,"lat":31.199195298359992,"确诊日期36":"5"},{"SH_ID_36":"10foal0","区36":"1","地址":"徐家汇路388号","lng":121.47398453629148,"lat":31.20893132217788,"确诊日期36":"5"},{"SH_ID_36":"10foakq","区36":"e","地址":"宝安公路3705弄","lng":121.26866016718898,"lat":31.325708129550037,"确诊日期36":"5"},{"SH_ID_36":"10foako","区36":"e","地址":"城中路20号","lng":121.24909297516018,"lat":31.37678496150078,"确诊日期36":"5"},{"SH_ID_36":"10foakp","区36":"e","地址":"城中路20号","lng":121.24931380233132,"lat":31.376810132098843,"确诊日期36":"5"},{"SH_ID_36":"10foakr","区36":"e","地址":"城中路20号","lng":121.24911019386707,"lat":31.37645785938269,"确诊日期36":"5"},{"SH_ID_36":"10foakl","区36":"e","地址":"陇南路嘉涛路停车场","lng":121.32725522389357,"lat":31.2687720858256,"确诊日期36":"5"},{"SH_ID_36":"10foalj","区36":"e","地址":"娄塘大北街132号","lng":121.21565912379464,"lat":31.431592019190774,"确诊日期36":"5"},{"SH_ID_36":"10foalk","区36":"e","地址":"娄塘娄南村","lng":121.21746943080791,"lat":31.42464117282637,"确诊日期36":"5"},{"SH_ID_36":"10foall","区36":"e","地址":"娄塘路626弄","lng":121.21777266233039,"lat":31.43098650042652,"确诊日期36":"5"},{"SH_ID_36":"10foali","区36":"e","地址":"娄塘路658弄","lng":121.21709553395323,"lat":31.430494012968666,"确诊日期36":"5"},{"SH_ID_36":"10foalh","区36":"e","地址":"南新路219弄","lng":121.21841510420757,"lat":31.43048624258345,"确诊日期36":"5"},{"SH_ID_36":"10foak2","区36":"e","地址":"秋竹路801弄","lng":121.21845865049329,"lat":31.382743915401928,"确诊日期36":"5"},{"SH_ID_36":"10foalg","区36":"e","地址":"新宝路88弄","lng":121.20043403469904,"lat":31.39690769755465,"确诊日期36":"5"},{"SH_ID_36":"10foalt","区36":"g","地址":"学府路1811弄","lng":121.31454126647603,"lat":30.74906999488716,"确诊日期36":"5"},{"SH_ID_36":"10foalu","区36":"g","地址":"学府路1811弄","lng":121.31456898779454,"lat":30.749001593673448,"确诊日期36":"5"},{"SH_ID_36":"10foalv","区36":"g","地址":"学府路1811弄","lng":121.31428377839154,"lat":30.749170150657335,"确诊日期36":"5"},{"SH_ID_36":"10foalw","区36":"g","地址":"学府路1811弄","lng":121.31452590678505,"lat":30.74933960808317,"确诊日期36":"5"},{"SH_ID_36":"10foakw","区36":"6","地址":"灵石路1197号","lng":121.42697817535004,"lat":31.272603822568783,"确诊日期36":"5"},{"SH_ID_36":"10foak1","区36":"6","地址":"陆丰路中宝大厦","lng":121.47468234001501,"lat":31.257698568167356,"确诊日期36":"5"},{"SH_ID_36":"10foam3","区36":"6","地址":"茂名北路93号","lng":121.4602159110954,"lat":31.225540803039944,"确诊日期36":"5"},{"SH_ID_36":"10foak2","区36":"6","地址":"塘沽路747弄","lng":121.4808901410048,"lat":31.246349231362466,"确诊日期36":"5"},{"SH_ID_36":"10foakc","区36":"c","地址":"德宏路2465号","lng":121.435064497307,"lat":31.013424479972027,"确诊日期36":"5"},{"SH_ID_36":"10foak8","区36":"c","地址":"华漕纪东","lng":121.27766799282703,"lat":31.24615300451853,"确诊日期36":"5"},{"SH_ID_36":"10foak9","区36":"c","地址":"江川路1565号","lng":121.3728870838908,"lat":30.9916765727819,"确诊日期36":"5"},{"SH_ID_36":"10foalm","区36":"c","地址":"江川路241弄","lng":121.42200349275032,"lat":31.004698145329733,"确诊日期36":"5"},{"SH_ID_36":"10foaln","区36":"c","地址":"江川路303弄","lng":121.41556558760361,"lat":31.002840877792988,"确诊日期36":"5"},{"SH_ID_36":"10foam5","区36":"c","地址":"晋豪生活广场","lng":121.34919151315569,"lat":31.170574021272103,"确诊日期36":"5"},{"SH_ID_36":"10foam1","区36":"c","地址":"景谷中路58弄","lng":121.4173225101174,"lat":31.022405222728345,"确诊日期36":"5"},{"SH_ID_36":"10foakb","区36":"c","地址":"龙茗路513弄13支弄","lng":121.38839710373,"lat":31.129260612898495,"确诊日期36":"5"},{"SH_ID_36":"10foalz","区36":"c","地址":"龙吴路5688弄","lng":121.46858048956986,"lat":31.040034721995212,"确诊日期36":"5"},{"SH_ID_36":"10foaka","区36":"c","地址":"鲁康路555弄","lng":121.5163774639309,"lat":31.027218255929004,"确诊日期36":"5"},{"SH_ID_36":"10foakt","区36":"c","地址":"罗秀路1377号","lng":121.41780284273123,"lat":31.128375317299714,"确诊日期36":"5"},{"SH_ID_36":"10foakm","区36":"c","地址":"普乐路425弄","lng":121.42370888349295,"lat":31.114729865086268,"确诊日期36":"5"},{"SH_ID_36":"10foakn","区36":"c","地址":"普乐路425弄","lng":121.4237664968352,"lat":31.11459885562387,"确诊日期36":"5"},{"SH_ID_36":"10foam0","区36":"c","地址":"申郑路18弄","lng":121.31143937199677,"lat":31.203616877274705,"确诊日期36":"5"},{"SH_ID_36":"10foala","区36":"c","地址":"同乐路158号","lng":121.41945528478225,"lat":31.125026442867075,"确诊日期36":"5"},{"SH_ID_36":"10foak5","区36":"c","地址":"银都路3151弄","lng":121.39953370083073,"lat":31.09196493726977,"确诊日期36":"5"},{"SH_ID_36":"10foakh","区36":"c","地址":"银都路3151弄","lng":121.39950195342446,"lat":31.092170605055937,"确诊日期36":"5"},{"SH_ID_36":"10foake","区36":"f","地址":"博兴路462弄","lng":121.58182895974444,"lat":31.26530047569084,"确诊日期36":"5"},{"SH_ID_36":"10foale","区36":"f","地址":"博兴路462弄","lng":121.58173513296902,"lat":31.265396815510783,"确诊日期36":"5"},{"SH_ID_36":"10foal9","区36":"f","地址":"光辉村","lng":121.71214209768561,"lat":31.063807795651144,"确诊日期36":"5"},{"SH_ID_36":"10foak6","区36":"f","地址":"光泽路120弄","lng":121.61400224125529,"lat":31.33274950418997,"确诊日期36":"5"},{"SH_ID_36":"10foakf","区36":"f","地址":"栖山路1555弄","lng":121.56498186988223,"lat":31.257525629267583,"确诊日期36":"5"},{"SH_ID_36":"10foakg","区36":"f","地址":"栖山路1555弄","lng":121.56491648554893,"lat":31.257583528224366,"确诊日期36":"5"},{"SH_ID_36":"10foaly","区36":"f","地址":"听谐路86弄","lng":121.75061076462976,"lat":31.057262160911232,"确诊日期36":"5"},{"SH_ID_36":"10foakd","区36":"f","地址":"瓦屑建设路60弄","lng":121.65424892048789,"lat":31.109797087137636,"确诊日期36":"5"},{"SH_ID_36":"10foal5","区36":"f","地址":"长清路103弄","lng":121.4892872023988,"lat":31.169913371742087,"确诊日期36":"5"},{"SH_ID_36":"10foak4","区36":"i","地址":"徐和路165弄","lng":121.28218933441782,"lat":31.157745593407718,"确诊日期36":"5"},{"SH_ID_36":"10foald","区36":"h","地址":"博安路32弄","lng":121.31204041019492,"lat":31.13699375920506,"确诊日期36":"5"},{"SH_ID_36":"10foakk","区36":"h","地址":"沪松公路1100号","lng":121.32986975554354,"lat":31.146401353927345,"确诊日期36":"5"},{"SH_ID_36":"10foakj","区36":"h","地址":"环城路616弄","lng":121.25215137800224,"lat":31.01160843516336,"确诊日期36":"5"},{"SH_ID_36":"10foalc","区36":"h","地址":"茸惠路858弄","lng":121.25758220128392,"lat":31.061317053176992,"确诊日期36":"5"},{"SH_ID_36":"10foalq","区36":"h","地址":"王家厍路55弄","lng":121.2481952678963,"lat":31.091647229858612,"确诊日期36":"5"},{"SH_ID_36":"10foalr","区36":"4","地址":"华发路368弄","lng":121.44882652644286,"lat":31.12883367121258,"确诊日期36":"5"},{"SH_ID_36":"10foak3","区36":"4","地址":"华泾路880弄","lng":121.447669266705,"lat":31.120270556105286,"确诊日期36":"5"},{"SH_ID_36":"10foal7","区36":"4","地址":"华泾路880弄","lng":121.447883221076,"lat":31.12050277313588,"确诊日期36":"5"},{"SH_ID_36":"10foal8","区36":"4","地址":"老沪闵路1039弄","lng":121.43458022076422,"lat":31.13057906749976,"确诊日期36":"5"},{"SH_ID_36":"10foak7","区36":"4","地址":"龙吴路1717弄","lng":121.45252019183788,"lat":31.132031072033,"确诊日期36":"5"},{"SH_ID_36":"10foalp","区36":"4","地址":"罗城路470号","lng":121.4402301044354,"lat":31.15107335960574,"确诊日期36":"5"},{"SH_ID_36":"10foalx","区36":"4","地址":"梅陇路130号","lng":121.42502912237457,"lat":31.14298176771202,"确诊日期36":"5"},{"SH_ID_36":"10foam2","区36":"4","地址":"天等路430弄","lng":121.42714974740824,"lat":31.13801640464587,"确诊日期36":"5"},{"SH_ID_36":"10foal4","区36":"4","地址":"田林路90弄","lng":121.4191524525113,"lat":31.170184022560335,"确诊日期36":"5"},{"SH_ID_36":"10foal1","区36":"4","地址":"田林十四村","lng":121.42368102508469,"lat":31.175711129977355,"确诊日期36":"5"},{"SH_ID_36":"10foal3","区36":"4","地址":"宜山路600号","lng":121.42384297155007,"lat":31.178929033426602,"确诊日期36":"5"},{"SH_ID_36":"10foak4","区36":"4","地址":"宜山路上海精工工地宿舍","lng":121.43115863734161,"lat":31.191860168791678,"确诊日期36":"5"},{"SH_ID_36":"10foakv","区36":"5","地址":"仙霞西路885弄","lng":121.36358056807458,"lat":31.212175822425436,"确诊日期36":"5"}]