SH_ID_36,区36,地址,lng,lat
10gcar5,f,白萱路99弄,121.59131156303597,31.329938889957017
10gcar6,f,白杨路1155弄,121.56025547560213,31.190923857759657
10gcar7,f,白杨路199弄,121.55584286614211,31.20792580150792
10gcar8,f,百龙新村,121.61663689850577,31.141162131544704
10gcar9,f,板泉路1201弄,121.50524870876303,31.16268182133007
10gcara,f,板泉路1555弄,121.51028840814571,31.163486896230403
10gcarb,f,板泉路2000弄,121.53127089873747,31.165468907216514
10gcarc,f,板泉路2101弄,121.53196319198362,31.16841377981596
10gcard,f,板泉路50号,121.49447143472388,31.157687297095368
10gcare,f,北艾路1077弄,121.53614451447436,31.181290933316017
10gcarf,f,北艾路1200弄,121.53290872816163,31.18362513830979
10gcarg,f,北艾路155弄,121.54279285025672,31.186024781867808
10gcarh,f,北艾路1660弄,121.52342508576183,31.181230883883607
10gcari,f,北艾路73弄,121.54511667214972,31.18522338235538
10gcarj,f,北艾路862弄,121.53744811656718,31.184110264526566
10gcark,f,北蔡大街31弄,121.55454318506973,31.187326841605888
10gcarl,f,北蔡镇北蔡村丁家宅,121.55607616807038,31.182589682117538
10gcarm,f,北蔡镇北蔡村周家宅,121.55627238977671,31.182355600576688
10gcarn,f,北蔡镇联勤村陈家宅,121.56777558907032,31.191839668132037
10gcaro,f,北蔡镇联勤村冯桥队冯家宅,121.55085934170758,31.16499076178321
10gcarp,f,北蔡镇联勤村冯桥队张家宅,121.5515929833963,31.16843141048438
10gcarq,f,北蔡镇联勤村麦家宅,121.54777714013743,31.164078122591388
10gcarr,f,北蔡镇联勤村张家队陈家宅,121.56766598491248,31.192001750356237
10gcars,f,北蔡镇联勤村张家队张家宅,121.5475644173795,31.168167285184186
10gcart,f,北蔡镇南新村东钟家宅,121.54218327101708,31.1666165613494
10gcaru,f,北蔡镇南新村吴家宅,121.54326886041294,31.166115122002
10gcarv,f,北蔡镇南新村西钟家宅,121.54116893421528,31.166132878915946
10gcarw,f,北蔡镇南新村徐家宅,121.54333452362533,31.16597982583381
10gcarx,f,北蔡镇南新村赵家厍,121.53830654430669,31.169906782499353
10gcary,f,北蔡镇潘姚村西刘队刘家宅,121.577304269475,31.182313581913142
10gcarz,f,北蔡镇卫行村顾家队顾家宅,121.58253506037501,31.166727435614185
10gcas0,f,北蔡镇卫行村顾家队张家宅,121.5828265890331,31.16704553306197
10gcas1,f,北蔡镇卫行村张浜队南顾家宅,121.58192221150175,31.1655598939974
10gcas2,f,北蔡镇卫行村张浜队杨家宅,121.58004935545506,31.16591140385225
10gcas3,f,北蔡镇卫行村张家队张家宅,121.54760317116879,31.167980881685846
10gcas4,f,北蔡镇卫行村朱家队朱家宅,121.58278594346888,31.161315834547654
10gcas5,f,北蔡镇五星村陈家队陈家宅,121.56767744907614,31.19177333003851
10gcas6,f,北蔡镇五星村陈家队奚家宅,121.55030358225955,31.156354871885945
10gcas7,f,北蔡镇五星村家务队顾家宅,121.56972452037995,31.168983239044323
10gcas8,f,北蔡镇五星村三联队方家宅,121.57129844884105,31.186490891757742
10gcas9,f,北蔡镇五星村三联队黄家宅,121.57065557349057,31.18243819564722
10gcasa,f,北蔡镇五星村吴家队吴家宅,121.57191461207735,31.1736924024697
10gcasb,f,北蔡镇五星村徐家队奚家宅,121.69701320987843,31.220382209483432
10gcasc,f,北蔡镇杨桥村蒋家队北季家宅,121.5732893744516,31.193279127694503
10gcasd,f,北蔡镇杨桥村西计队金家宅,121.57714587999065,31.19059381976148
10gcase,f,北蔡镇杨桥村西计队西计家宅,121.57788598131935,31.19022357889945
10gcasf,f,北蔡镇杨桥村郑家队郑家宅,121.5783949723982,31.190584605038097
10gcasg,f,北蔡镇一六村金桥队南赵家宅,121.58918955234073,31.160134847003285
10gcash,f,北蔡镇御桥村姚家队姚家宅,121.55426379104426,31.167222545781236
10gcasi,f,北蔡镇中界村陈家队陈家宅,121.5659932942014,31.192392989379048
10gcasj,f,北蔡镇中界村复兴队陈家宅,121.57177266144203,31.187931450811856
10gcask,f,北蔡镇中界村复兴队顾家宅,121.57159938375236,31.187824578839912
10gcasl,f,北蔡镇中界村复兴队苏家宅,121.570728624499,31.184743806917236
10gcasm,f,北蔡镇中界村黄家队黄家宅,121.57319148924869,31.18513178454445
10gcasn,f,北蔡镇中界村季家队季家宅,121.57081328144541,31.190161447762033
10gcaso,f,北蔡镇中界村林家队中界庙,121.57111908677679,31.184840781768923
10gcasp,f,北蔡镇中界村陆家队陆家宅,121.70824665903204,31.208984672884412
10gcasq,f,北蔡镇中界村沈家队沈家宅,121.52151858408577,31.188941519265256
10gcasr,f,北蔡镇中界村沈家队姚家宅,121.57646091401858,31.18438489737672
10gcass,f,北蔡镇中界村苏家队苏家宅,121.57067859262396,31.185248415741846
10gcast,f,北蔡镇中界村庄家队蔡家宅,121.56789978647437,31.18927245641743
10gcasu,f,北新园路460弄,121.62675976601518,31.32007198249534
10gcasv,f,北洋泾路609号,121.55119314512096,31.24278825560115
10gcasw,f,北园路258弄,121.5239070797735,31.20300330015677
10gcasx,f,北张家浜路188弄,121.52531446001882,31.216339952099002
10gcasy,f,北张家浜路28弄,121.52022217602304,31.216161913147868
10gcasz,f,北张家浜路58号,121.52065041970098,31.215824548699064
10gcat0,f,北中路280弄,121.55782328991533,31.183419418224776
10gcat1,f,北中路354弄,121.55950043759456,31.18312387855382
10gcat2,f,北中路408弄,121.56053158664935,31.183825470183173
10gcat3,f,碧云路650弄,121.58205493016995,31.238120193789875
10gcat4,f,博华路1018弄,121.5513070882639,31.170670926109576
10gcat5,f,博华路237弄,121.54639367927179,31.183673925789403
10gcat6,f,博华路999弄,121.5499666484067,31.170235771152434
10gcat7,f,博山东路112弄,121.5635471576509,31.24905204949295
10gcat8,f,博山东路20弄,121.55969380923798,31.245232465235855
10gcat9,f,博山东路41弄,121.55898129075486,31.24782586095707
10gcata,f,博山东路459弄,121.56792084373603,31.253583408518523
10gcatb,f,博山东路553弄,121.56884410221855,31.25541353145427
10gcatc,f,博山东路811弄,121.57586709843099,31.25745922850354
10gcatd,f,博山东路81弄,121.56137354056906,31.248698108634546
10gcate,f,博山路11弄,121.55844980392718,31.24535644882575
10gcatf,f,博山路12弄,121.55671871167698,31.245985113321687
10gcatg,f,博山路200弄,121.55253902323962,31.244640764982897
10gcath,f,博山路50弄,121.55606507102247,31.246181060603657
10gcati,f,博山路78弄,121.55532776211541,31.245701446571946
10gcatj,f,博兴路1185弄,121.5946150774494,31.26756911132716
10gcatk,f,博兴路1383弄,121.5989189935196,31.269355114797566
10gcatl,f,博兴路250弄,121.57881549894458,31.269076020853234
10gcatm,f,博兴路462弄,121.58166508399282,31.26536421861454
10gcatn,f,博兴路465弄,121.5853831479909,31.266204166398786
10gcato,f,博兴路616弄,121.58492638656004,31.26335137519283
10gcatp,f,博兴路760弄,121.58934707194861,31.26153306510972
10gcatq,f,博兴路799弄,121.59033255999623,31.26615000450048
10gcatr,f,博兴路986弄,121.59335743533882,31.26525163908931
10gcats,f,彩云路50弄,121.81886454376698,30.90017387312052
10gcatt,f,曹路镇东海村胡家宅,121.6716421927759,31.30072114885043
10gcatu,f,曹路镇顾东村苍龙桥,121.66167404882974,31.297393636355167
10gcatv,f,曹路镇顾东村船板桥,121.66177450213367,31.295586864869424
10gcatw,f,曹路镇顾东村胡家宅,121.6613875004039,31.293221707566296
10gcatx,f,曹路镇顾东村花厅,121.66224052444127,31.29271651333543
10gcaty,f,曹路镇顾东村李家盘,121.66740751303517,31.28869152666092
10gcatz,f,曹路镇顾东村水洞港,121.66669815018493,31.2931182084049
10gcau0,f,曹路镇顾东村田度宅,121.65971031772783,31.297271715254794
10gcau1,f,曹路镇顾东村吴家宅,121.66139961175787,31.293115821022774
10gcau2,f,曹路镇顾东村新屋宅,121.66147054911693,31.29322081663266
10gcau3,f,曹路镇顾三村外金家宅,121.68721843785322,31.294588962406397
10gcau4,f,曹路镇光明村沙桥宅,121.65152279284733,31.287599575257556
10gcau5,f,曹路镇光明村双盘宅,121.65523392478094,31.2913188540516
10gcau6,f,曹路镇黎明村张唐村,121.69645485589098,31.268246840755314
10gcau7,f,曹路镇联合村路南宅,121.66704364404828,31.278250662146363
10gcau8,f,曹路镇民建村北邵家宅,121.64924441377306,31.274612199768793
10gcau9,f,曹路镇民建村曹家宅,121.65003921734082,31.272616296457304
10gcaua,f,曹路镇民建村金家宅,121.65004114986125,31.272616196094514
10gcaub,f,曹路镇民建村瞿家宅,121.65124013227941,31.246958415002503
10gcauc,f,曹路镇民建村徐家宅,121.65050587973609,31.2710737349076
10gcaud,f,曹路镇民众村运河西,121.67064499763514,31.27646586446506
10gcaue,f,曹路镇前锋村曹黄村,121.69059286330024,31.269255076683176
10gcauf,f,曹路镇前锋村张杨村,121.69332326544638,31.271205039870697
10gcaug,f,曹路镇群乐村张家宅,121.68102134183071,31.283835416083388
10gcauh,f,曹路镇日新村北万家宅,121.66845976430551,31.2631045307966
10gcaui,f,曹路镇日新村南房宅,121.67126028631473,31.26479828578291
10gcauj,f,曹路镇日新村杨薛家宅,121.66926590710388,31.259357439933915
10gcauk,f,曹路镇五四村沈孙家宅,121.65169732447835,31.254340122521885
10gcaul,f,曹路镇新光村姜薛家宅,121.66215524637529,31.26164427368224
10gcaum,f,曹路镇新光村沈家旗杆,121.65896750875599,31.255195670256068
10gcaun,f,曹路镇新华村强顾家宅,121.66074062359085,31.264941790298725
10gcauo,f,曹路镇新华村新宅,121.66121055980163,31.264270131687113
10gcaup,f,曹路镇新星村胡家宅,121.73094894971062,31.25055098747444
10gcauq,f,曹路镇新星村黄家圈,121.70448228796307,31.257081613477478
10gcaur,f,曹路镇星火村共和村,121.69123972040958,31.251287555269855
10gcaus,f,曹路镇星火村陆家村,121.70183872205739,31.25406910523761
10gcaut,f,曹路镇迅建村蔡家宅,121.69276528739402,31.281898733400098
10gcauu,f,曹路镇迅建村撑圩村,121.69280661672951,31.28175775023988
10gcauv,f,曹路镇迅建村黄家宅南,121.6891478853479,31.280329642037234
10gcauw,f,曹路镇迅建村季家宅,121.69293170195753,31.281600815711734
10gcaux,f,曹路镇永丰村大徐家宅,121.70177036515886,31.263582689975195
10gcauy,f,曹路镇永丰村孙家宅,121.69189478249945,31.255726636042976
10gcauz,f,曹路镇永和村陆万村,121.69794735900894,31.264605502517668
10gcav0,f,曹路镇永乐村曹家油车,121.64180778226584,31.277524712736692
10gcav1,f,曹路镇永乐村东邵家弄,121.64044509484877,31.273172063819196
10gcav2,f,曹路镇永利村冯家宅,121.69587303436604,31.26406478302695
10gcav3,f,曹路镇众三村顾家宅,121.66900547491244,31.279266413097524
10gcav4,f,曹路镇众三村南俞家圈,121.66537738276422,31.28193489602574
10gcav5,f,草高支路170弄,121.58078126476195,31.352435739018727
10gcav6,f,草高支路938弄,121.56678046792995,31.351401457736145
10gcav7,f,长岛路1280弄,121.5945331983253,31.25987238538051
10gcav8,f,长岛路1338弄,121.59719286410409,31.263159243187157
10gcav9,f,长岛路259弄,121.57749714329182,31.26595834929887
10gcava,f,长岛路85弄,121.5781903233264,31.267972718543763
10gcavb,f,长岛路99号,121.57788915123612,31.267693116136034
10gcavc,f,长清路177弄,121.49023495020982,31.165813524376436
10gcavd,f,长清路643弄,121.49104602736608,31.15906517976055
10gcave,f,长清路693弄,121.49234289419744,31.157423286724747
10gcavf,f,长清路75弄,121.48908429188167,31.172426023231044
10gcavg,f,长清路773弄,121.4923388931755,31.156204936526983
10gcavh,f,长清路807弄,121.493830795928,31.156342716300028
10gcavi,f,长清路937弄,121.49256197871564,31.153020017119342
10gcavj,f,长清路94号工地生活区,121.48388148217936,31.148056536735304
10gcavk,f,昌里东路190弄,121.50545206836061,31.17600740522752
10gcavl,f,昌里东路320弄,121.51078326346656,31.176540403306916
10gcavm,f,昌里东路395弄,121.51135333436827,31.179106153605073
10gcavn,f,昌里东路411弄,121.51268721642,31.17985631698394
10gcavo,f,昌里东路550弄,121.51585377766725,31.179100456160082
10gcavp,f,昌里东路650弄,121.51785316130656,31.1791527149503
10gcavq,f,昌里东路675弄,121.51581680489019,31.180340837197733
10gcavr,f,昌里东路80弄,121.5063685408718,31.174423395722386
10gcavs,f,昌里路167弄,121.49767029532838,31.175156080548224
10gcavt,f,昌里路340弄,121.49164204639295,31.17213720773373
10gcavu,f,昌邑路55弄,121.51290197788975,31.24055786275446
10gcavv,f,潮乐路21弄,121.8528192674943,30.871947263866648
10gcavw,f,陈春东路99弄,121.56041814317264,31.175689322233563
10gcavx,f,陈春路620弄,121.54565708191966,31.17304182538512
10gcavy,f,陈邵路103号工地生活区,121.48381478035353,31.148250818658738
10gcavz,f,晨晖路825弄,121.59755566524461,31.20217762989666
10gcaw0,f,成山路1488弄,121.52846811962037,31.17516396978398
10gcaw1,f,成山路1728弄,121.53168914065357,31.177008151565982
10gcaw2,f,成山路2008弄,121.5381652895326,31.179316242527545
10gcaw3,f,成山路226弄,121.49721068153308,31.171171843435083
10gcaw4,f,成山路2399弄,121.54494691871811,31.181242975490438
10gcaw5,f,成山路24弄,121.48585288003063,31.16788613916556
10gcaw6,f,成山路300弄,121.50235373001158,31.171546400466816
10gcaw7,f,成山路345号,121.50223505859279,31.172097168662503
10gcaw8,f,成山路475弄,121.50661557614019,31.172586577724168
10gcaw9,f,成山路544弄,121.50839167030797,31.170173049996098
10gcawa,f,成山路558号,121.50815261603557,31.172436422386582
10gcawb,f,成山路608弄,121.50818526645158,31.171614998823742
10gcawc,f,成山路648弄,121.51097608870852,31.171028925227876
10gcawd,f,成山路668弄,121.51162394116884,31.17039116897435
10gcawe,f,城丰路130弄,121.68824258449939,31.19058162253848
10gcawf,f,城丰路15弄,121.6902584606426,31.191489111215105
10gcawg,f,城丰路288弄,121.68378923924773,31.19015940155588
10gcawh,f,城基路148弄,121.75239777800726,31.046490360469527
10gcawi,f,城南路303弄,121.75077389001717,31.041793620643386
10gcawj,f,城南路550弄,121.69679780958123,31.19165401999229
10gcawk,f,城南路555弄,121.75872508112168,31.04177022908723
10gcawl,f,城南路918弄,121.76984954876997,31.040428702026276
10gcawm,f,崇溪路111弄,121.71113932578953,31.108580710311234
10gcawn,f,川环南路1155弄,121.69138076455494,31.18448530591446
10gcawo,f,川环南路76弄,121.71165847595901,31.190646218112278
10gcawp,f,川沙路1666弄,121.6790992435535,31.253677054675656
10gcawq,f,川沙路2016号,121.68352750388047,31.24516570378973
10gcawr,f,川沙路389弄,121.66970218270505,31.278645269772287
10gcaws,f,川沙路4625弄,121.69869901731833,31.199055605059268
10gcawt,f,川沙新镇八灶村周家宅,121.71566128648436,31.1529502021963
10gcawu,f,川沙新镇柴场村,121.72594619977873,31.180997172678236
10gcawv,f,川沙新镇陈行村陈家宅,121.71297249942076,31.166168326139207
10gcaww,f,川沙新镇城南村朱家宅,121.69968167055266,31.1878412028693
10gcawx,f,川沙新镇果园村,121.64884760138284,31.113145935482645
10gcawy,f,川沙新镇会龙村新兴,121.72736762656834,31.09255471376462
10gcawz,f,川沙新镇会龙村朱店,121.71048846117637,31.089859243734118
10gcax0,f,川沙新镇界龙村徐顾家宅,121.67676109301584,31.18018057891587
10gcax1,f,川沙新镇栏杆村葛家宅,121.66819532149422,31.16901113486478
10gcax2,f,川沙新镇鹿溪村砖桥,121.71183823416754,31.118609728203868
10gcax3,f,川沙新镇民利村周庄家宅,121.74096089749463,31.1851726685342
10gcax4,f,川沙新镇民义村,121.69866155480497,31.127728713840774
10gcax5,f,川沙新镇牌楼村北祝家宅,121.70471733397638,31.154489054540914
10gcax6,f,川沙新镇其成村,121.6876854063316,31.112654758535985
10gcax7,f,川沙新镇太平村张家宅,121.68639246707428,31.21745289064464
10gcax8,f,川沙新镇新春村张陈家宅,121.69805971822605,31.158516436526014
10gcax9,f,川沙新镇新吉村新华,121.71472842788555,31.105961826818348
10gcaxa,f,川沙新镇药师村曹家宅,121.68270773289595,31.20271179882079
10gcaxb,f,川沙新镇长桥村潘家宅,121.73326647773176,31.14721136943836
10gcaxc,f,川银路150弄,121.68822771827155,31.19269087118193
10gcaxd,f,川周公路2788号生活区,121.62366462982212,31.14500989611928
10gcaxe,f,川周公路2828弄,121.61758091963257,31.14366243555648
10gcaxf,f,川周公路2880号,121.61446671789835,31.144040446384334
10gcaxg,f,川周公路3333弄,121.59242249814652,31.126955190110817
10gcaxh,f,川周公路4293弄,121.58132692160774,31.120571759163322
10gcaxi,f,川周公路4318弄,121.58008314567822,31.121900363890287
10gcaxj,f,川周公路8288弄,121.70978046698689,31.178418355695015
10gcaxk,f,川周公路凌空路交界口工地生活区,121.72516163190255,31.184053291211235
10gcaxl,f,创新西路199弄,121.65501262202005,31.20082111543719
10gcaxm,f,创新西路333弄,121.65166906750247,31.201389093996315
10gcaxn,f,创新西路75弄,121.65586813563347,31.202694736999902
10gcaxo,f,创新中路399弄,121.66545775064151,31.21155743028477
10gcaxp,f,创新中路593弄,121.66884704312488,31.211190829679346
10gcaxq,f,创业路66弄,121.61077207815961,31.145606480658138
10gcaxr,f,创业路78弄,121.61140224083644,31.144113636774968
10gcaxs,f,创业路798号,121.6965002724235,31.215089070841643
10gcaxt,f,春晖路25弄,121.588324739516,31.342741021827933
10gcaxu,f,春晖路368弄,121.58256576440209,31.33949332612102
10gcaxv,f,春晖路446弄,121.58210738613313,31.33711101850503
10gcaxw,f,达秀路151号,121.65271286354148,31.237730315579622
10gcaxx,f,大同路1010弄,121.57271063955572,31.335479320714345
10gcaxy,f,大同路868弄,121.57372198969327,31.336763701543532
10gcaxz,f,大同路922弄,121.57252297725842,31.33649208452293
10gcay0,f,大团镇扶栏村,121.75012944789357,31.001499048814434
10gcay1,f,大团镇园艺村农艺,121.76685250348315,30.97416056041243
10gcay2,f,大团镇周埠村,121.77118200403378,30.996537315636328
10gcay3,f,荡湾路2号,121.76476338223671,31.044427842274487
10gcay4,f,德爱路380弄,121.5863623832202,31.300298984425794
10gcay5,f,德堡路100号生活区,121.60969900712,31.30734150936211
10gcay6,f,德平路100弄,121.5615473540123,31.248073512283398
10gcay7,f,德平路1066弄,121.5673456252213,31.24181612921355
10gcay8,f,德平路1125弄,121.56996434642369,31.241817892975085
10gcay9,f,德平路1134弄,121.56969833125981,31.23936808220054
10gcaya,f,德平路1189弄,121.5713620548216,31.24007748225371
10gcayb,f,德平路12弄,121.55621388512013,31.254380252267723
10gcayc,f,德平路155弄,121.56141380625168,31.250061167418448
10gcayd,f,德平路215弄,121.56336391973235,31.2479137556864
10gcaye,f,德平路25弄,121.55775598346412,31.254157535730528
10gcayf,f,德平路730弄,121.56516264686815,31.245266423481556
10gcayg,f,德平路76弄,121.55997490959876,31.251460985625606
10gcayh,f,德州路150弄,121.49908101048176,31.167881781494042
10gcayi,f,德州路220弄,121.49575628517567,31.16816937906417
10gcayj,f,德州路223弄,121.49538293421442,31.168522486692325
10gcayk,f,德州路255弄,121.49213762860222,31.168688378743433
10gcayl,f,德州路300弄,121.49055834316634,31.167462180304987
10gcaym,f,德州路380弄,121.48598357936233,31.16451249166848
10gcayn,f,德州路465弄,121.48160776929744,31.166492541758807
10gcayo,f,丁香路1299弄,121.56412807827006,31.23180010542931
10gcayp,f,丁香路1599弄,121.5655720775692,31.228563535653624
10gcayq,f,丁香路910弄,121.55588992367419,31.225678989478723
10gcayr,f,定水路50弄,121.54931637841943,31.24147127313244
10gcays,f,东波路192弄,121.57885616120144,31.283259901948043
10gcayt,f,东波路325弄,121.58315038132382,31.28480734264184
10gcayu,f,东波路49弄,121.57648587818653,31.285696375891956
10gcayv,f,东波路585弄,121.5865376488557,31.28490946944244
10gcayw,f,东昌路490弄,121.51224147958035,31.231110865979247
10gcayx,f,东昌新村,121.51164492339517,31.23272618573475
10gcayy,f,东方路1800弄,121.52252689539914,31.202777594260453
10gcayz,f,东方路1881弄,121.52190070670467,31.19916819670317
10gcaz0,f,东方路2993弄,121.51972746009272,31.19444374095959
10gcaz1,f,东方路2995弄,121.52075272347008,31.192616804236934
10gcaz2,f,东环龙路181弄,121.52792738153518,31.201208973296655
10gcaz3,f,东建路228弄,121.53212275589604,31.201075459224526
10gcaz4,f,东建新村,121.53341769624731,31.201864809701995
10gcaz5,f,东靖路2250弄,121.61134281596247,31.2891377943916
10gcaz6,f,东靖路393弄,121.57954398564834,31.29337760908513
10gcaz7,f,东靖路人民塘路交界口工地生活区,121.54852595963072,31.204616535167474
10gcaz8,f,东陆路1018弄,121.5925418276905,31.27304424941131
10gcaz9,f,东陆路1182弄,121.59587706164824,31.27088228155455
10gcaza,f,东陆路1268弄,121.59639687186629,31.26864205476034
10gcazb,f,东陆路1528弄,121.6000259817982,31.266191895773034
10gcazc,f,东陆路2000弄,121.6093624057196,31.262500453358946
10gcazd,f,东陆路898弄,121.59148445424799,31.27337796780282
10gcaze,f,东明路560弄,121.50913887966514,31.179580659524785
10gcazf,f,东明路660弄,121.50912263539249,31.177839914989928
10gcazg,f,东三街102弄,121.50992399082376,31.201444032866267
10gcazh,f,东三街15弄,121.50740216740174,31.201158772295454
10gcazi,f,东三里桥路160弄,121.51057529503244,31.199254921801522
10gcazj,f,东三里桥路170弄,121.51072479528781,31.200620719314664
10gcazk,f,东三里桥路190弄,121.5112756310266,31.20026376511691
10gcazl,f,东三里桥路211弄,121.51400648498333,31.200220521795917
10gcazm,f,东三里桥路79弄,121.50888188774634,31.200474206056825
10gcazn,f,东书房路390弄,121.53526470330732,31.164997844855108
10gcazo,f,东书房路560弄,121.5347735706713,31.161256777603427
10gcazp,f,东泰林路799弄,121.54358683069518,31.143126216701116
10gcazq,f,东绣路1086弄,121.53621811009985,31.199197639321245
10gcazr,f,东绣路1155弄,121.53505660184304,31.198921039086134
10gcazs,f,东绣路1389弄,121.53193871349352,31.199576791394364
10gcazt,f,东园四村,121.51309008646574,31.230089083823284
10gcazu,f,杜鹃路150弄,121.54789806200473,31.20145393247185
10gcazv,f,渡桥路288弄,121.54685470374379,31.112577245721074
10gcazw,f,峨山路280弄,121.52655291534215,31.214006768493704
10gcazx,f,峨山路420弄,121.52557710686533,31.21383758657661
10gcazy,f,峨山路485弄,121.52521641170134,31.215073488563196
10gcazz,f,峨山路500弄,121.52389015398707,31.214186347651456
10gcb00,f,峨山路605弄,121.52191113729802,31.214827545690582
10gcb01,f,繁荣东路150弄,121.58750201343196,31.106051081086555
10gcb02,f,繁荣东路159弄,121.58575930184938,31.107797873419617
10gcb03,f,方竹路222弄,121.90986535052058,30.89457925544894
10gcb04,f,芳草路258弄,121.55679674662692,31.192960527862784
10gcb05,f,芳草路352弄,121.55760447168731,31.19269706554668
10gcb06,f,芳甸路77弄,121.55918016236517,31.229944599715996
10gcb07,f,芳华路229弄,121.55453489497512,31.19572572096549
10gcb08,f,芳华路329弄,121.55717019752107,31.196071350627385
10gcb09,f,芳华路455弄,121.55937413089866,31.196719908084038
10gcb0a,f,芳华路478弄,121.5601107654319,31.194963560758495
10gcb0b,f,芳华路503弄,121.5612114254344,31.196336653307814
10gcb0c,f,芳华路573弄,121.56223732765743,31.19686998870215
10gcb0d,f,芳华路580弄,121.56232849584468,31.196113122525304
10gcb0e,f,芳华路630弄,121.56396086794763,31.196412028649377
10gcb0f,f,芳华路63号工地生活区,121.5518545205076,31.194502243616206
10gcb0g,f,芳华路713弄,121.56370421225952,31.197023051684603
10gcb0h,f,芳华路739弄,121.56904481872701,31.19694832652234
10gcb0i,f,芳华路916弄,121.5678067250812,31.196213847286764
10gcb0j,f,芳华路933弄,121.56873004766685,31.197958042800796
10gcb0k,f,芳芯路175弄,121.5543577936328,31.19174872095297
10gcb0l,f,芳芯路210弄,121.55743962185298,31.190859186438388
10gcb0m,f,芳芯路363弄,121.55837998907509,31.192036861455115
10gcb0n,f,福山路100弄,121.52727993115455,31.232334907517764
10gcb0o,f,福山路102弄,121.5265392168142,31.231238350487644
10gcb0p,f,高宝路528弄,121.62791531174335,31.292760758747676
10gcb0q,f,高宝路68弄,121.61831563378384,31.28941678219017
10gcb0r,f,高博路188弄,121.58002452983969,31.297499387533108
10gcb0s,f,高东二路118弄,121.62699099991197,31.323043097982215
10gcb0t,f,高东新路500弄,121.62104656571107,31.336345702628215
10gcb0u,f,高东镇革新村周家桥,121.64332560027103,31.321341591550375
10gcb0v,f,高东镇竞赛村龙稍宅,121.65307062133196,31.300752583312534
10gcb0w,f,高东镇龙桥村叠桥宅,121.62071668989758,31.32378135389228
10gcb0x,f,高东镇沙港村西沙港,121.6212867748246,31.33710466050106
10gcb0y,f,高东镇珊黄村苍头宅,121.64003678245652,31.330887988418727
10gcb0z,f,高东镇上游村中薛家宅,121.6338052194844,31.309492831888726
10gcb10,f,高东镇先锋村卢家宅,121.63156570767262,31.308385185483186
10gcb11,f,高东镇先锋村王朱家宅,121.6299477164148,31.305241740674482
10gcb12,f,高东镇徐路村,121.64857205437939,31.31329832221377
10gcb13,f,高东镇永新村金王家宅,121.66184864319627,31.311504906737344
10gcb14,f,高东镇永新村李蔡家宅,121.66348465990785,31.309271193712224
10gcb15,f,高东镇踊跃村东孙家沟,121.65716609673346,31.30640078526968
10gcb16,f,高东镇踊跃村黄家门,121.65618292770588,31.305501056592927
10gcb17,f,高东镇踊跃村小宅,121.65205135560967,31.3062057990612
10gcb18,f,高科东路500弄,121.65312885226184,31.210748653854104
10gcb19,f,高科西路2111弄,121.535992048175,31.188210559288954
10gcb1a,f,高科西路2763弄,121.55324150187334,31.190688254745986
10gcb1b,f,高科西路3000弄,121.56177499101622,31.189249580341517
10gcb1c,f,高科西路3030弄,121.5629597248615,31.18960278962083
10gcb1d,f,高科西路3050弄,121.5636174044295,31.18962579786434
10gcb1e,f,高科西路3060弄,121.56421489338584,31.189665209466348
10gcb1f,f,高桥镇北新村中新村,121.54179229605542,31.35161918842487
10gcb1g,f,高桥镇仓房村南沟头,121.50973708534639,31.365234397224466
10gcb1h,f,高桥镇凌桥村仓房浜,121.53374396754097,31.364930634511353
10gcb1i,f,高桥镇陆凌村陆家宅,121.56306962296316,31.34550735934679
10gcb1j,f,高桥镇陆凌村宋家宅,121.5629227977619,31.34571534245612
10gcb1k,f,高桥镇陆凌村西凌家宅,121.56296540246674,31.345708518812867
10gcb1l,f,高桥镇南塘村龚家宅,121.56835962959697,31.338000628877694
10gcb1m,f,高桥镇南塘村顾家宅,121.56827278285935,31.339053345096946
10gcb1n,f,高桥镇南塘村姚家宅,121.56809276592452,31.339209279132962
10gcb1o,f,高桥镇三岔港村丁家浜,121.5176279177908,31.370934441940634
10gcb1p,f,高桥镇新建村东钟家弄,121.57283290029747,31.363100217299454
10gcb1q,f,高桥镇新建村太平桥,121.5729541576388,31.36311783218441
10gcb1r,f,高桥镇镇南村西浜头,121.5822332080616,31.341771840644768
10gcb1s,f,高青路2861弄,121.52838106874229,31.161594783956346
10gcb1t,f,高青路4518号生活区,121.56282735144725,31.169976023057774
10gcb1u,f,高青路4567弄,121.56164228569547,31.170874582184243
10gcb1v,f,龚华路35弄,121.68604608885687,31.27043408577421
10gcb1w,f,龚华路425弄,121.68642539127642,31.261537489908886
10gcb1x,f,龚华路479弄,121.68831583079724,31.25923006782055
10gcb1y,f,龚华路50弄,121.68374452524591,31.266998355558147
10gcb1z,f,拱北路399弄,121.77112475839908,31.05572057995185
10gcb20,f,拱川路411弄,121.74364418704855,31.064284397068143
10gcb21,f,拱川路561弄,121.74725295939918,31.064488596180457
10gcb22,f,拱海路240弄,121.73982256595053,31.0694512560167
10gcb23,f,拱乐路698弄,121.7712626100371,31.06465550368056
10gcb24,f,拱为路2600弄,121.73987059904643,31.058097642340215
10gcb25,f,古桐南路117弄,121.61644051524075,31.20083788794673
10gcb26,f,顾唐路138弄,121.65637039686065,31.263171633466676
10gcb27,f,崮山路157号,121.55221454364192,31.24692454480243
10gcb28,f,崮山路459号,121.55677582633592,31.24351708053065
10gcb29,f,崮山路626弄,121.55835243594827,31.24113015609621
10gcb2a,f,崮山路717号,121.56051503681563,31.239015576154184
10gcb2b,f,崮山路95号,121.55071529378965,31.247278717449365
10gcb2c,f,崮山路968号,121.56139818716811,31.235105371790553
10gcb2d,f,观海路1588弄,121.78361271916741,31.065647980836413
10gcb2e,f,光明路132弄,121.6149544697027,31.333535575826673
10gcb2f,f,光泽路428弄,121.61848439428478,31.32807536386958
10gcb2g,f,光泽路429弄,121.61831796436964,31.330451972787124
10gcb2h,f,广兰路50弄,121.61579922251478,31.22004668736903
10gcb2i,f,归昌路351弄,121.60028802272979,31.27803876425541
10gcb2j,f,国展路767号工地生活区,121.52786258835064,31.179976159553366
10gcb2k,f,海春路150弄,121.58529090698451,31.347843293525116
10gcb2l,f,海鸣路1号工地生活区,121.67035185285746,31.28303912537628
10gcb2m,f,海鸣路98弄,121.67245487420182,31.282596742045424
10gcb2n,f,海鹏路301弄,121.67442001524971,31.289520455761487
10gcb2o,f,海鹏路380弄,121.67775735635155,31.28815091677235
10gcb2p,f,海鹏路529弄,121.67242338664765,31.2884831664135
10gcb2q,f,海容路99弄,121.67395886769764,31.280177541234355
10gcb2r,f,海旺路同望路交界口工地生活区 ,121.89306273149381,30.86634727760449
10gcb2s,f,海霞路493弄,121.74452347431972,31.169988078690956
10gcb2t,f,海阳路1001弄,121.50492052115278,31.158982634995045
10gcb2u,f,海阳路1065弄,121.50532539947046,31.159204657872735
10gcb2v,f,海阳路1080弄,121.5066156358869,31.15741515760819
10gcb2w,f,海阳路1125弄,121.50714814712124,31.15888649462864
10gcb2x,f,海阳路1333弄,121.51356680085513,31.160513751187207
10gcb2y,f,海阳路612弄,121.49756267311557,31.15595510861164
10gcb2z,f,海阳路629号生活区,121.49717994939854,31.155968661934075
10gcb30,f,海阳路654弄,121.49700143695938,31.155495874632603
10gcb31,f,海阳西路500弄,121.48148660160052,31.150236218024588
10gcb32,f,航昌路489弄,121.60945842657046,31.075100411512377
10gcb33,f,航城七路450弄,121.7577696727171,31.14142038425613
10gcb34,f,航都南路29弄,121.61224782652081,31.025366365807006
10gcb35,f,航鹤路1000弄,121.58635283955432,31.03520043189432
10gcb36,f,航鹤路1858弄,121.58442328900136,31.04999042041519
10gcb37,f,航梅路525弄,121.57403652607024,31.0243832960988
10gcb38,f,航梅路526弄,121.58222428994102,31.023914925223156
10gcb39,f,航梅路533号,121.57898041479231,31.026461779097236
10gcb3a,f,航头路1137弄,121.59321007880096,31.032457323214505
10gcb3b,f,航头路1257弄,121.59016041751615,31.032401102503105
10gcb3c,f,航头镇福善村飞桥,121.61484759067864,31.043898918611426
10gcb3d,f,航头镇果园村,121.63576994483354,31.01972873208291
10gcb3e,f,航头镇航东村,121.59931552194355,31.028537347089205
10gcb3f,f,航头镇梅园村沙北,121.58669174005216,31.05944838755427
10gcb3g,f,航头镇牌楼村谈弄,121.55721071808468,31.055343575378956
10gcb3h,f,航头镇王楼村,121.61772083499977,31.0685634744339
10gcb3i,f,航绣路50弄,121.59649676672655,31.070822319930897
10gcb3j,f,合庆镇蔡路村包家宅,121.75805999888547,31.199846973408903
10gcb3k,f,合庆镇蔡路村南丁家宅,121.73037933018817,31.21408653621236
10gcb3l,f,合庆镇蔡路村西蔡家宅,121.733316287819,31.21416573047892
10gcb3m,f,合庆镇蔡路村杨家宅,121.73009178234558,31.21423181135423
10gcb3n,f,合庆镇蔡路村赵家宅,121.71590205951867,31.21759806884042
10gcb3o,f,合庆镇大星村张家宅,121.68639119859074,31.217433059163543
10gcb3p,f,合庆镇东风村曹家宅,121.69876448652768,31.227893200009543
10gcb3q,f,合庆镇共一村包家宅,121.70924038844203,31.250625452791127
10gcb3r,f,合庆镇海塘村顾家宅,121.75672414071538,31.212208813199883
10gcb3s,f,合庆镇红星村姚家宅,121.70439297298226,31.23955438033534
10gcb3t,f,合庆镇华星村东宋家宅,121.71518959856107,31.200447124022077
10gcb3u,f,合庆镇前哨村包家宅,121.73385712192027,31.240956202636344
10gcb3v,f,合庆镇勤昌村西蔡家宅,121.73349614654114,31.214527492979027
10gcb3w,f,合庆镇勤奋村九队新村,121.72300655839867,31.2616229671622
10gcb3x,f,合庆镇勤奋村徐家宅,121.7071342807258,31.208522005313885
10gcb3y,f,合庆镇勤奋村颜家宅,121.72168773160446,31.260912701930632
10gcb3z,f,合庆镇勤奋村张家宅,121.72197836004534,31.25530461718107
10gcb40,f,合庆镇勤益村徐家宅,121.70725335122553,31.2088666332571
10gcb41,f,合庆镇庆丰村顾家宅,121.7172133262288,31.24118901349098
10gcb42,f,合庆镇庆星村西圈夏家宅,121.71538274453918,31.23102070903743
10gcb43,f,合庆镇向东村顾家宅,121.7439466178471,31.23353390080365
10gcb44,f,合庆镇向东村黄家宅,121.74382598764782,31.23352146919858
10gcb45,f,合庆镇向东村马家宅,121.74375696972794,31.23336929996752
10gcb46,f,合庆镇向东村唐家宅,121.74385196886546,31.233456970053062
10gcb47,f,合庆镇营房村高路三宅,121.7353495224137,31.210452160045847
10gcb48,f,合庆镇营房村青晏二宅,121.7343729914404,31.208178748823194
10gcb49,f,合庆镇永红村丁家宅,121.70533169403879,31.23438180385509
10gcb4a,f,合庆镇永红村薛家宅,121.70544185398622,31.23445158646088
10gcb4b,f,合庆镇友谊村西凌家宅,121.73701031634695,31.22563620631837
10gcb4c,f,合庆镇跃进村西石家宅,121.70510820780447,31.211886729274866
10gcb4d,f,和佳路105弄,121.51319229302109,31.12831426010252
10gcb4e,f,和炯路501弄,121.50780734343576,31.123574773386828
10gcb4f,f,和炯路601弄,121.50934444338021,31.125446614929654
10gcb4g,f,和炯路77弄,121.50193294822817,31.120644214915693
10gcb4h,f,和龙路218号,121.57231872902551,31.342059020829932
10gcb4i,f,和龙路666弄,121.56925979959303,31.3500929848294
10gcb4j,f,和融路55弄,121.49978137082648,31.125364260921543
10gcb4k,f,菏泽路25弄,121.59038656313467,31.27404492051605
10gcb4l,f,菏泽路287弄,121.59377415893874,31.26876634689572
10gcb4m,f,鹤波路航昌路交界口工地生活区,121.60920539987843,31.075276226561094
10gcb4n,f,鹤驰路99弄,121.59465789915254,31.079102928065
10gcb4o,f,鹤洁路346弄,121.60356364224111,31.06898172391058
10gcb4p,f,鹤永路750弄,121.60341351246497,31.071991202130828
10gcb4q,f,鹤永路751弄,121.60464575295411,31.071982113458976
10gcb4r,f,鹤韵路550弄,121.59580759672157,31.075268705123513
10gcb4s,f,虹盛路107弄,121.68030317159247,31.237615869843925
10gcb4t,f,虹盛路250弄,121.68115081668338,31.24136528087422
10gcb4u,f,洪山路121弄,121.49926873583712,31.178777165960952
10gcb4v,f,洪山路180弄,121.4987517490822,31.175485787866
10gcb4w,f,洪山路1889弄,121.51113996341488,31.15151500572153
10gcb4x,f,洪山路237弄,121.50173744144485,31.173116072027316
10gcb4y,f,洪山路851弄,121.50509997369414,31.160742527428333
10gcb4z,f,后长街91弄,121.49657757237867,31.163313094289112
10gcb50,f,沪东路282号生活区,121.58141280817019,31.269622377692336
10gcb51,f,沪东路67号,121.58067092807201,31.270658154663067
10gcb52,f,沪二小区,121.58272041201457,31.26885173525783
10gcb53,f,沪南路1168弄,121.5551138604876,31.178694838735403
10gcb54,f,沪南路2688弄,121.56365236403687,31.137748148896822
10gcb55,f,沪南路2785号,121.56908215156633,31.141325067500162
10gcb56,f,沪南路3150弄,121.565246429511,31.1220640028142
10gcb57,f,沪南路3219弄,121.56827633850676,31.12348371344323
10gcb58,f,沪南路3468弄,121.56732123317676,31.14026731508097
10gcb59,f,沪南路577弄,121.55263973699478,31.18954936370711
10gcb5a,f,沪一小区,121.58413280127806,31.26969534542627
10gcb5b,f,花木街道龙王庙村南杨家堂,121.55034308439612,31.19434512838331
10gcb5c,f,花木路500弄,121.54322306288877,31.210669771359232
10gcb5d,f,花木路788弄,121.5502327536445,31.209576992012035
10gcb5e,f,花山路300弄,121.57458968391587,31.346461729227492
10gcb5f,f,花山路618弄,121.57528491923559,31.345586827330404
10gcb5g,f,华安路24弄,121.51585323023725,31.211924493666526
10gcb5h,f,华春路成山路交界口工地生活区,121.52752117869095,31.180413241067935
10gcb5i,f,华东路齐友路交界口工地生活区,121.6810044852692,31.20389054617466
10gcb5j,f,华丰路50弄,121.50802390027015,31.190710603524337
10gcb5k,f,华夏东路1152弄,121.67167395684464,31.19596424499789
10gcb5l,f,华夏东路2170弄,121.69366657192096,31.19898230011522
10gcb5m,f,华夏东路2345弄,121.69805340754914,31.201274556800545
10gcb5n,f,华夏二路1455弄,121.69239497192034,31.173505199447575
10gcb5o,f,华绣路179弄,121.52744276745572,31.186599949402204
10gcb5p,f,华中路88号,121.56992208220198,31.18769203908216
10gcb5q,f,环林东路271弄,121.52667293663528,31.149026554741575
10gcb5r,f,环林东路906弄,121.52847503821936,31.14146697799574
10gcb5s,f,环林西路608弄,121.52168941601276,31.13993316126794
10gcb5t,f,环林西路777弄,121.52575858133079,31.14063485795455
10gcb5u,f,环林西路848弄,121.52641913776715,31.139478421670322
10gcb5v,f,环桥路1136弄,121.60463729165104,31.136354191137585
10gcb5w,f,环桥路1481弄,121.60105844701985,31.140765299362112
10gcb5x,f,环桥路1488弄,121.60347323862914,31.1416398593439
10gcb5y,f,环庆南路239弄,121.72475431917125,31.229152158944096
10gcb5z,f,环庆南路336弄,121.72801501770303,31.227126839601087
10gcb60,f,环镇东路138弄,121.60080140818215,31.024105496458027
10gcb61,f,惠南镇富强村,121.77309673375271,31.031773750663262
10gcb62,f,惠南镇黄路村,121.7644105802033,31.030156203930837
10gcb63,f,惠南镇惠东村,121.77687713860101,31.04012478442748
10gcb64,f,惠南镇陆楼村,121.76487053839243,31.07447507832955
10gcb65,f,惠南镇幸福村,121.77734274529932,31.025699170290242
10gcb66,f,惠南镇徐庙村,121.71486718011928,31.030443629916867
10gcb67,f,即墨路95号,121.51304165563346,31.239847363358876
10gcb68,f,季景北路185弄,121.5858916717058,31.342546887704465
10gcb69,f,季景路19弄,121.58706168056953,31.339898931654794
10gcb6a,f,济阳路65弄,121.48212946136124,31.167380609102853
10gcb6b,f,佳虹路50弄,121.61340411860587,31.266301165527913
10gcb6c,f,佳乐路255弄,121.61523116954514,31.269557647223138
10gcb6d,f,佳林路115弄,121.60851090632434,31.26946887619573
10gcb6e,f,建中路126弄,121.61339769856832,31.20324686702804
10gcb6f,f,江东路1217弄,121.54005832859063,31.366627362387348
10gcb6g,f,江东路1380弄,121.54269548803863,31.364057097098026
10gcb6h,f,江东路238号,121.61580178479005,31.206073281056458
10gcb6i,f,江东路25号,121.61593338115908,31.20610672916221
10gcb6j,f,胶东路818弄,121.60172643799227,31.260232018070965
10gcb6k,f,胶东路855弄,121.60233122211228,31.262365072985297
10gcb6l,f,界浜路55弄,121.5840892342712,31.34453366649575
10gcb6m,f,金港路333号,121.61256236530858,31.254607938306847
10gcb6n,f,金高路2131弄,121.60945468688008,31.261304826583913
10gcb6o,f,金工路172弄,121.59021678106527,31.2560287231417
10gcb6p,f,金沪路1218弄,121.60205203856997,31.240852871174198
10gcb6q,f,金吉路33弄,121.6326238290988,31.27322741876141
10gcb6r,f,金口路155弄,121.57795301269142,31.24888825998537
10gcb6s,f,金口路25弄,121.57616646696808,31.252050574462338
10gcb6t,f,金口路411弄,121.57938377393316,31.247253432974276
10gcb6u,f,金口路44弄,121.57615526416008,31.249250968334938
10gcb6v,f,金口路471弄,121.58213682498825,31.246313448608756
10gcb6w,f,金口路53弄,121.57686061804614,31.25059142051149
10gcb6x,f,金葵路1115弄,121.63071521096069,31.240148764597418
10gcb6y,f,金葵路1315弄,121.63533348138915,31.24037510216189
10gcb6z,f,金葵路945弄,121.62759373285894,31.240316516902652
10gcb70,f,金闽路539号,121.6268541957861,31.255888750751105
10gcb71,f,金桥路1221弄,121.58478801433002,31.25567800381497
10gcb72,f,金桥路1502弄,121.58782486962563,31.24880240088932
10gcb73,f,金桥路1508弄,121.59003939310422,31.24921626592967
10gcb74,f,金桥路1510弄,121.58875367650913,31.247784905574292
10gcb75,f,金桥路226弄,121.56969782412912,31.266236820014477
10gcb76,f,金桥路2346弄,121.60192959503237,31.23664486508169
10gcb77,f,金桥路2552弄,121.60258594883432,31.23454476654799
10gcb78,f,金桥路2618号,121.60327813897607,31.23307346769032
10gcb79,f,金桥路3299弄,121.60780876392765,31.223246551298192
10gcb7a,f,金桥路351弄,121.57280889902715,31.26618011708345
10gcb7b,f,金桥路825号,121.5794062423702,31.259940813502304
10gcb7c,f,金桥路835弄,121.57837418102116,31.259330624988774
10gcb7d,f,金桥镇王家桥村孙家浜,121.63552435039756,31.247929832225523
10gcb7e,f,金桥镇王家桥村新宅,121.63527357961634,31.244275425318186
10gcb7f,f,金桥镇张桥村李家宅,121.6470056172423,31.204439188230193
10gcb7g,f,金台路115弄,121.58345046561301,31.250211331745202
10gcb7h,f,金台路161弄,121.58605844054672,31.250679440547685
10gcb7i,f,金皖路55号工地生活区,121.61398105679218,31.259332424651642
10gcb7j,f,金湘路199号,121.61322060603024,31.256300303995605
10gcb7k,f,金湘路201弄,121.61256285422417,31.25541827771385
10gcb7l,f,金杨街道金浜村,121.5638269245544,31.25815034576674
10gcb7m,f,金杨路220弄,121.57513952166364,31.24690546802831
10gcb7n,f,金杨路308弄,121.57733182933586,31.245884257858332
10gcb7o,f,金杨路660弄,121.58179829799865,31.25101357601389
10gcb7p,f,金银花路凌霄花路交界口工地生活区,121.62478557071226,31.09869310492618
10gcb7q,f,金钻路669弄,121.67677399260995,31.284210653508268
10gcb7r,f,锦安东路458弄,121.54266328096288,31.199626448164246
10gcb7s,f,锦安东路567弄,121.53966266546588,31.19846396127072
10gcb7t,f,锦安东路593弄,121.53911172675869,31.199104211806937
10gcb7u,f,锦和路99弄,121.532987708508,31.20512262473583
10gcb7v,f,锦绣路1650弄,121.53951374648172,31.211114591921174
10gcb7w,f,锦绣路2466弄,121.53470532994116,31.194810351649874
10gcb7x,f,锦绣路2885弄,121.54233286942274,31.185702914925805
10gcb7y,f,锦绣路5088弄,121.54721964659267,31.14498468018455
10gcb7z,f,锦绣路666弄,121.55664961916132,31.22239420985712
10gcb80,f,锦绣路800弄,121.5550292065057,31.222292107050915
10gcb81,f,京浦路160弄,121.56787152962319,31.153136718645122
10gcb82,f,京浦路82弄,121.56524890906286,31.152656555203567
10gcb83,f,靖海南路567弄,121.76959605888128,31.03319113309036
10gcb84,f,居家桥路151弄,121.56190486479605,31.260661861380132
10gcb85,f,居家桥路19弄,121.56059524064158,31.26146344209981
10gcb86,f,居家桥路520弄,121.56362614304375,31.254466377243443
10gcb87,f,巨峰路1589弄,121.6219216413134,31.281988954139646
10gcb88,f,巨峰路176弄,121.59709148658385,31.279170492938547
10gcb89,f,巨峰路667弄,121.60127883178171,31.282205086334447
10gcb8a,f,巨峰路90弄,121.59482673903166,31.277870441571825
10gcb8b,f,巨峰路997弄,121.61235813119158,31.282561574858974
10gcb8c,f,巨野路197弄,121.54586720800334,31.242071565937927
10gcb8d,f,巨野路61弄,121.54482478567891,31.244155561707185
10gcb8e,f,俱进路285弄,121.6093009529464,31.302915972904056
10gcb8f,f,康安路御桥路交界口工地生活区,121.56727090688965,31.156827594409435
10gcb8g,f,康达路508弄,121.59763741431641,31.122380590415922
10gcb8h,f,康涵路58弄,121.54659457526796,31.116443152563182
10gcb8i,f,康桥东路1365弄,121.63663326033216,31.160657003429186
10gcb8j,f,康桥东路905弄,121.62267138956447,31.158760801086242
10gcb8k,f,康桥路1111弄,121.56927153443064,31.1496280237895
10gcb8l,f,康桥路1558弄,121.57310931903685,31.150673876901486
10gcb8m,f,康桥路90弄,121.58220533463897,31.150857039665947
10gcb8n,f,康桥镇叠桥村,121.61624168705974,31.12812790682988
10gcb8o,f,康桥镇花墙村,121.54908835537537,31.148297013985527
10gcb8p,f,康桥镇火箭村,121.60851873886465,31.13928720190858
10gcb8q,f,康桥镇人南村,121.62438643968535,31.138470890925888
10gcb8r,f,康桥镇太平村,121.5533044562108,31.12179133879364
10gcb8s,f,康桥镇汤巷村,121.60365419753131,31.147124499403535
10gcb8t,f,康桥镇沿北村,121.58994873168447,31.144079907704747
10gcb8u,f,康桥镇营房村,121.57370698948414,31.12933032838596
10gcb8v,f,康沈路1118号,121.57380187381415,31.12695811609566
10gcb8w,f,康沈路1199弄,121.57490226111796,31.125177509378847
10gcb8x,f,康沈路1238弄,121.58161927254238,31.09626983258973
10gcb8y,f,康沈路400弄,121.57083236566443,31.139887313976185
10gcb8z,f,康沈路633弄,121.57300761311471,31.135693892436617
10gcb90,f,康士路15弄,121.56304485112946,31.14928379948183
10gcb91,f,康士路1弄,121.56478058841368,31.14680497947074
10gcb92,f,康悦路325弄,121.53403040043398,31.35858501127782
10gcb93,f,科农路99弄,121.62295841228337,31.167789393754365
10gcb94,f,莱阳路1443弄,121.583857614354,31.295006821797788
10gcb95,f,莱阳路2328弄,121.58443587088965,31.309256727581147
10gcb96,f,莱阳路301弄,121.57962130378318,31.27493268149542
10gcb97,f,莱阳路350弄,121.58286764896566,31.273902636904257
10gcb98,f,莱阳路451弄,121.58268467692962,31.275572900686573
10gcb99,f,莱阳路881弄,121.58293188171733,31.28371998895395
10gcb9a,f,兰陵路23弄,121.51689001140865,31.195339699289143
10gcb9b,f,兰亭路孙浦路交界口工地生活区,121.54858338777717,31.204705995371015
10gcb9c,f,蓝村路31弄,121.53241593423529,31.21253783428683
10gcb9d,f,蓝村路471弄,121.52729526734501,31.21219360175413
10gcb9e,f,崂山路502号,121.51713488526384,31.237322465191003
10gcb9f,f,崂山路551弄,121.5221731880747,31.226433616322257
10gcb9g,f,崂山路571弄,121.5231497727142,31.226153178186884
10gcb9h,f,崂山路644弄,121.52595109728796,31.221954398397116
10gcb9i,f,崂山路645弄,121.5235969075116,31.223132070291086
10gcb9j,f,崂山路80弄,121.51556134239844,31.238763713830448
10gcb9k,f,崂山四村,121.51825678825375,31.23515810970039
10gcb9l,f,老港镇建港村,121.84102405882393,31.03029408986079
10gcb9m,f,乐园路298号,121.61230748637232,31.276619201825206
10gcb9n,f,历城路100弄,121.49252299166042,31.174835916510663
10gcb9o,f,历城路22弄,121.49266313761495,31.174427161816944
10gcb9p,f,历城路81弄,121.49260935377568,31.17538287371905
10gcb9q,f,丽雅路122号,121.68335982458335,31.234934474783522
10gcb9r,f,利川路421弄,121.68335334236274,31.204453095457577
10gcb9s,f,利津路185弄,121.58034315254136,31.279618910439137
10gcb9t,f,利津路53弄,121.5785392532183,31.279405426952597
10gcb9u,f,连波路26弄,121.55060154110393,31.195226457398213
10gcb9v,f,莲安东路243弄,121.5596398102313,31.18130596237188
10gcb9w,f,莲安西路125弄,121.5538114334814,31.17926722304677
10gcb9x,f,莲溪路1099弄,121.5658202000784,31.173329900646717
10gcb9y,f,莲溪路126弄,121.55965008104485,31.186903501721847
10gcb9z,f,莲溪路430弄,121.56019128166096,31.1821158930359
10gcba0,f,莲溪路550弄,121.56168860720987,31.180908124011932
10gcba1,f,莲溪路780弄,121.56134527930298,31.176658257526668
10gcba2,f,莲园路100弄,121.54819867193662,31.18373215688711
10gcba3,f,莲园路150弄,121.55044720438067,31.18399942361099
10gcba4,f,莲园路505弄,121.55790804869591,31.18568570054895
10gcba5,f,莲园路77弄,121.54563710819264,31.186174120583217
10gcba6,f,莲振路269号,121.56792977036895,31.16809694916948
10gcba7,f,莲中路174弄,121.5574574236767,31.182144618490042
10gcba8,f,林德路718弄,121.50981282093319,31.129552956489835
10gcba9,f,林培路红临路交界口工地生活区,121.4852177548551,31.117657750536516
10gcbaa,f,林浦路1240弄,121.47646768638903,31.126359985386976
10gcbab,f,林展路267弄,121.50786297921162,31.127945394289267
10gcbac,f,林展路411弄,121.51010654452445,31.12302210729923
10gcbad,f,林展路422弄,121.50841712703674,31.122128346947516
10gcbae,f,临沂北路150弄,121.51701398873524,31.20589889705383
10gcbaf,f,临沂路181弄,121.51313867818621,31.19328087798176
10gcbag,f,临沂路280弄,121.5088075538089,31.192768844498787
10gcbah,f,临沂路301弄,121.51046118511158,31.19099891468695
10gcbai,f,临沂路339弄,121.50934971894488,31.19195114785288
10gcbaj,f,临沂路381弄,121.51024534286555,31.190575243355852
10gcbak,f,临沂路81弄,121.51742696788902,31.197081499784037
10gcbal,f,灵山路1396弄,121.5644126701731,31.236615869858138
10gcbam,f,灵山路1415弄,121.56242844842473,31.238748587532193
10gcban,f,灵山路1671弄,121.56686656283036,31.23999363606543
10gcbao,f,灵山路2000弄,121.57418452808805,31.24222766350718
10gcbap,f,灵山路866弄,121.55272056921146,31.23130664599113
10gcbaq,f,灵岩路56弄,121.49364515146904,31.16663625520714
10gcbar,f,灵岩路79弄,121.49428867936125,31.166247685988832
10gcbas,f,灵岩南路1180弄,121.499519941906,31.14013753202967
10gcbat,f,灵岩南路156弄,121.49450006122726,31.15935990998357
10gcbau,f,灵岩南路233弄,121.49426682543832,31.160034660158274
10gcbav,f,灵岩南路380弄,121.49654737115715,31.154129264810706
10gcbaw,f,凌川佳苑,121.54433209204124,31.221628748565724
10gcbax,f,凌高路149弄,121.54540814765544,31.36603515594844
10gcbay,f,凌河路188弄,121.59679653103248,31.274853898216872
10gcbaz,f,凌河路200弄,121.5969462239121,31.275379773949883
10gcbb0,f,凌河路420弄,121.59964276212953,31.272989396400625
10gcbb1,f,凌河路618弄,121.60290864593844,31.271820910686333
10gcbb2,f,凌兆路127弄,121.49273411638804,31.142467199659222
10gcbb3,f,凌兆路256弄,121.49630086280786,31.14095408676991
10gcbb4,f,凌兆路285弄,121.49523805141064,31.1432734996626
10gcbb5,f,凌兆路379弄,121.49747853265598,31.14381566369936
10gcbb6,f,凌兆路396弄,121.49936291293766,31.14229566566109
10gcbb7,f,凌兆路405弄,121.49799431657904,31.143892835188538
10gcbb8,f,凌兆路500弄,121.50027716388966,31.1433775102706
10gcbb9,f,凌兆路555弄,121.50157402393077,31.144557463528557
10gcbba,f,凌兆路586弄,121.50211145078877,31.143190746486788
10gcbbb,f,凌兆路608弄,121.50488360415603,31.143004266062768
10gcbbc,f,凌兆路711弄,121.50479233306982,31.145560776192596
10gcbbd,f,凌兆路88弄,121.49234444053165,31.140091012420093
10gcbbe,f,柳埠路135弄,121.58408809574013,31.261871062625342
10gcbbf,f,柳埠路196弄,121.5832938223123,31.26421697203406
10gcbbg,f,龙东大道5401弄,121.68107110148165,31.234276792204096
10gcbbh,f,龙东大道6459号,121.70537527263438,31.238908527419902
10gcbbi,f,龙东大道云山路交界口工地生活区,121.4574087868188,31.157926612752288
10gcbbj,f,龙居路147号,121.56278700370453,31.25239509053666
10gcbbk,f,龙居路150弄,121.56115151665749,31.252120321507604
10gcbbl,f,龙居路191弄,121.56424096889327,31.252351240401644
10gcbbm,f,龙居路30弄,121.55928485183311,31.255045371890684
10gcbbn,f,龙新路395号生活区,121.65746637646004,31.2298798997025
10gcbbo,f,龙阳路158号工地生活区,121.51142366267612,31.202813519310535
10gcbbp,f,龙阳路1880弄,121.55365426948663,31.201060504880893
10gcbbq,f,罗山路108弄,121.55238560938359,31.248354978796257
10gcbbr,f,罗山路1502弄,121.56908872311288,31.228386746983354
10gcbbs,f,罗山路4088弄,121.5783556102777,31.17908833596894
10gcbbt,f,绿林路320弄,121.54756529953868,31.170183476075042
10gcbbu,f,绿林路51弄,121.54869090748942,31.174668549759314
10gcbbv,f,梅花路768弄,121.55478265068899,31.208976254237136
10gcbbw,f,苗圃路112弄,121.54652865692745,31.244549823683204
10gcbbx,f,苗圃路463弄,121.55010055400957,31.236733463186063
10gcbby,f,苗圃路466弄,121.55288827870842,31.237533889022863
10gcbbz,f,苗桥路935弄,121.6226912591625,31.141349543020603
10gcbc0,f,妙川路1111弄,121.71412417182931,31.182597774450908
10gcbc1,f,妙川路300弄,121.69732721283864,31.176397702977585
10gcbc2,f,妙川路800号,121.70472843602589,31.176831356732578
10gcbc3,f,妙境路623弄,121.6926453583394,31.18958958196891
10gcbc4,f,民春路501弄,121.66662224539843,31.27690622290132
10gcbc5,f,民生路260号,121.54044611440062,31.24285835147018
10gcbc6,f,民生路369弄,121.54177567571745,31.240661308508336
10gcbc7,f,民生路423号,121.5432770911772,31.240024284851504
10gcbc8,f,民唐路秦家港路交界口工地生活区,121.66565419708557,31.26108463869005
10gcbc9,f,民同路176弄,121.65137954598748,31.2718205641538
10gcbca,f,民同路290弄,121.6526354101639,31.270818071596153
10gcbcb,f,民同路293弄,121.65304944301667,31.27078624254995
10gcbcc,f,民同路40弄,121.65102891459978,31.272687747849922
10gcbcd,f,民雪路918弄,121.65887232336995,31.27185870665186
10gcbce,f,民耀路227弄,121.65440773483608,31.27276513498125
10gcbcf,f,民耀路268弄,121.65258365144771,31.27237179563743
10gcbcg,f,民耀路290弄,121.653211513632,31.270109680120942
10gcbch,f,民耀路391弄,121.65515308792071,31.271219612597577
10gcbci,f,牟平路154弄,121.59533984676057,31.266737801897616
10gcbcj,f,牟平路56弄,121.5962188459466,31.26704128569974
10gcbck,f,牡丹路145弄,121.54492096683755,31.20812159546842
10gcbcl,f,牡丹路165弄,121.54584438208542,31.207470281512055
10gcbcm,f,牡丹路259弄,121.54998481670891,31.208235776534853
10gcbcn,f,南曹路901弄,121.6624751342598,31.204668543492083
10gcbco,f,南六公路399弄,121.71280098712239,31.061280867937157
10gcbcp,f,南码头路1136弄,121.51447698292145,31.183481256652158
10gcbcq,f,南码头路1186弄,121.51277378814152,31.183300057444864
10gcbcr,f,南码头路1187弄,121.51444509306233,31.1839919262192
10gcbcs,f,南码头路1288弄,121.51427406901175,31.181884387696275
10gcbct,f,南码头路1316弄,121.51310501650194,31.180617902140174
10gcbcu,f,南码头路1453弄,121.51632377742787,31.17880650421953
10gcbcv,f,南码头路1521弄,121.51831713371955,31.17731106656026
10gcbcw,f,南码头路1550弄,121.51583759540084,31.176573872202955
10gcbcx,f,南码头路1621弄,121.51825198819841,31.175351934357664
10gcbcy,f,南码头路1675弄,121.51406647084839,31.1748170313671
10gcbcz,f,南码头路1696弄,121.51458343980542,31.175993767794782
10gcbd0,f,南码头路450弄,121.50919111125259,31.19335742855375
10gcbd1,f,南码头路451弄,121.51081509811785,31.19517506399407
10gcbd2,f,南门大街21弄,121.75466015243427,31.046444086155947
10gcbd3,f,南桥路237弄,121.70864816154929,31.191726125663802
10gcbd4,f,南桥路459弄,121.70177098690446,31.187924878329877
10gcbd5,f,南桥路86弄,121.70995775149295,31.19255408725511
10gcbd6,f,南泉北路101弄,121.51508637427479,31.23742793093535
10gcbd7,f,南泉北路1040弄,121.51996626530831,31.226122548021614
10gcbd8,f,南泉路1211弄,121.52353952208428,31.213409863462427
10gcbd9,f,南泉路1250弄,121.52241472107139,31.21260325865406
10gcbda,f,南泉路1300弄,121.52027126051134,31.21107361006393
10gcbdb,f,南泉路1320弄,121.52048489283426,31.21033025013823
10gcbdc,f,南祝路111号,121.7572956785764,31.12687028997214
10gcbdd,f,南祝路258弄,121.7559717151721,31.117491453555512
10gcbde,f,泥城镇横港村,121.84768844883517,30.91040219890175
10gcbdf,f,泥城镇人民村,121.8236276528627,30.9076051649844
10gcbdg,f,年家浜路28弄,121.585688459402,31.115151023689954
10gcbdh,f,宁桥路825号,121.62015587073716,31.25373930136324
10gcbdi,f,宁阳路14弄,121.51756626226532,31.21168595402029
10gcbdj,f,农科路21弄,121.4486895895651,31.16760413001158
10gcbdk,f,鹏飞路333弄,121.55731334438407,31.17149551092304
10gcbdl,f,鹏飞路411弄,121.55601605568111,31.17112394351205
10gcbdm,f,鹏飞路426弄,121.55494919842361,31.17152883634349
10gcbdn,f,鹏岳路152弄,121.55362120516808,31.170735052547766
10gcbdo,f,浦城路580弄,121.5147132282192,31.224648008965964
10gcbdp,f,浦城路99弄,121.50832459167837,31.229765687759375
10gcbdq,f,浦电路108弄,121.52031908486468,31.218988865523645
10gcbdr,f,浦电路149弄,121.52135877655705,31.217807955158733
10gcbds,f,浦电路218号,121.52325981028277,31.220179455782247
10gcbdt,f,浦电路221号,121.52392916265852,31.218481498673324
10gcbdu,f,浦电路29弄,121.51464669691771,31.216263584294392
10gcbdv,f,浦电路305弄,121.52629861896635,31.218548479641527
10gcbdw,f,浦电路328号,121.52645229702178,31.220944271570456
10gcbdx,f,浦电路330弄,121.5267509239494,31.22106205673603
10gcbdy,f,浦电路331弄,121.52787853343223,31.219319147486576
10gcbdz,f,浦电路48弄,121.51730558498494,31.21818064717511
10gcbe0,f,浦电路53弄,121.5163985913106,31.21749652380604
10gcbe1,f,浦东北路4588弄,121.56285898460825,31.347404679237954
10gcbe2,f,浦东大道1139弄,121.53647880322039,31.242636743148225
10gcbe3,f,浦东大道136弄,121.51374106707186,31.237883714066495
10gcbe4,f,浦东大道140弄,121.51445814843032,31.23880691732619
10gcbe5,f,浦东大道1460弄,121.53638326655215,31.242334454802556
10gcbe6,f,浦东大道1585弄,121.54094387349419,31.244991228938733
10gcbe7,f,浦东大道1615弄,121.5414283086106,31.245957649660177
10gcbe8,f,浦东大道1623弄,121.54243793640615,31.24577418294684
10gcbe9,f,浦东大道1695弄,121.54419358248865,31.246169241576478
10gcbea,f,浦东大道1851弄,121.54463129484829,31.24738193287488
10gcbeb,f,浦东大道2220号,121.55130941865393,31.24961752948654
10gcbec,f,浦东大道2331号,121.55414474410941,31.254113780039592
10gcbed,f,浦东大道2333号,121.55466668825812,31.254777545057692
10gcbee,f,浦东大道2388弄,121.55756457059421,31.255526286375652
10gcbef,f,浦东大道2511弄,121.55911859770002,31.259691712941457
10gcbeg,f,浦东大道2516号,121.55985540376074,31.256772119970023
10gcbeh,f,浦东大道2530号,121.56184158703711,31.258641885044185
10gcbei,f,浦东大道2554号,121.56307767252302,31.259216463957344
10gcbej,f,浦东大道2596号,121.56688676315383,31.262506161954636
10gcbek,f,浦东大道2639弄,121.56762015978748,31.263922204255984
10gcbel,f,浦东大道2641弄,121.56610984653749,31.26344231807593
10gcbem,f,浦东大道2742弄,121.56832305276711,31.264438026289213
10gcben,f,浦东大道2746弄,121.5719629842655,31.26718912705145
10gcbeo,f,浦东大道2894号,121.57661956360145,31.27267126535273
10gcbep,f,浦东大道290弄,121.51720771842938,31.239337862221728
10gcbeq,f,浦东大道2920弄,121.57841109880357,31.273612688046747
10gcber,f,浦东大道2970弄,121.58109473078873,31.276964436346212
10gcbes,f,浦东大道3080弄,121.5773212453169,31.28189422060417
10gcbet,f,浦东大道3号,121.51127224902241,31.240086776628548
10gcbeu,f,浦东大道501弄,121.51824969279336,31.24296208465411
10gcbev,f,浦东南路1288号,121.51640152083439,31.22519464018917
10gcbew,f,浦东南路1299号,121.51742695696102,31.225706751320395
10gcbex,f,浦东南路1533号,121.52069198252325,31.220875703483507
10gcbey,f,浦东南路1700弄,121.51802452208575,31.217680698635764
10gcbez,f,浦东南路1862弄,121.51749589175621,31.215974228836664
10gcbf0,f,浦东南路2108号,121.51587248608587,31.209354190131478
10gcbf1,f,浦东南路2141弄,121.51651623161372,31.208701888431268
10gcbf2,f,浦东南路2169号,121.51676661457718,31.20703207789835
10gcbf3,f,浦东南路2178弄,121.51445926802072,31.207048109738302
10gcbf4,f,浦东南路2192弄,121.5133143149124,31.20674405606873
10gcbf5,f,浦东南路2351弄,121.51232722536497,31.197360622275617
10gcbf6,f,浦东南路2362号,121.51059083764585,31.199724606096588
10gcbf7,f,浦东南路2366号,121.51131007391088,31.199840502734457
10gcbf8,f,浦东南路3405弄,121.50871268830439,31.19355576423516
10gcbf9,f,浦东南路3606弄,121.5046976642753,31.190372472908617
10gcbfa,f,浦东南路3666弄,121.50485087382206,31.189232840863824
10gcbfb,f,浦东南路3905弄,121.50250360793504,31.182770709902268
10gcbfc,f,浦东南路4250弄,121.50068345197597,31.182875140009443
10gcbfd,f,浦东南路595弄,121.51266057131636,31.23598902745341
10gcbfe,f,浦东南路978号,121.51448487958233,31.230500950182993
10gcbff,f,浦东南路华丰路交界口工地生活区,121.50674841261643,31.19262956322221
10gcbfg,f,浦建路1086弄,121.5379161437955,31.206055205419215
10gcbfh,f,浦建路207弄,121.52331345281206,31.209763943571538
10gcbfi,f,浦建路729号,121.53062778541559,31.208508627996718
10gcbfj,f,浦建路83弄,121.5201471434044,31.210834050121722
10gcbfk,f,浦明路1228弄,121.51397355143315,31.21357965573039
10gcbfl,f,浦明路233弄,121.5107932853326,31.226864501655186
10gcbfm,f,浦三路12弄,121.510648148776,31.196499015469325
10gcbfn,f,浦三路2801弄,121.53832946426417,31.155216371383883
10gcbfo,f,浦三路288弄,121.5136491476006,31.192678446455485
10gcbfp,f,浦三路5127弄,121.53286320421535,31.16041122846189
10gcbfq,f,浦三路601弄,121.5160788983681,31.18912239024028
10gcbfr,f,浦三路603号,121.51655632740055,31.188943694647353
10gcbfs,f,浦三路628弄,121.51636884903239,31.18842649259075
10gcbft,f,浦三路641弄,121.51665447368194,31.188594062510685
10gcbfu,f,浦三路702弄,121.51628623033946,31.185709050099515
10gcbfv,f,浦三路742弄,121.51797290835316,31.18439292070966
10gcbfw,f,浦三路775弄,121.51950318596319,31.184391213042783
10gcbfx,f,浦三路786弄,121.51877708670123,31.18307792825874
10gcbfy,f,浦三路821弄,121.521303634568,31.18317579623553
10gcbfz,f,浦三路930弄,121.51960075161075,31.179370455612194
10gcbg0,f,栖山路100弄,121.54401009479793,31.241882777956782
10gcbg1,f,栖山路1088弄,121.55849772605868,31.25278078592111
10gcbg2,f,栖山路1299弄,121.5605696227649,31.25535534028785
10gcbg3,f,栖山路130弄,121.54477928096462,31.242915834963462
10gcbg4,f,栖山路140弄,121.5446991614133,31.243370010462286
10gcbg5,f,栖山路1558弄,121.56552741129585,31.257044324609893
10gcbg6,f,栖山路1636弄,121.5683211939456,31.257628772433954
10gcbg7,f,栖山路1689弄,121.56798875364528,31.25970509792717
10gcbg8,f,栖山路1700弄,121.56936963031478,31.25867673387493
10gcbg9,f,栖山路1861弄,121.57059714766963,31.26209487240428
10gcbga,f,栖山路400弄,121.55070654739455,31.246243499677657
10gcbgb,f,栖山路401弄,121.54942080933611,31.246488120782978
10gcbgc,f,栖山路450弄,121.55178503612943,31.247539943638355
10gcbgd,f,栖山路465弄,121.55085826462118,31.247618394777803
10gcbge,f,栖山路友林路交界口工地生活区,121.56884891704436,31.259309618254083
10gcbgf,f,栖霞路190弄,121.51875370824733,31.236985113091727
10gcbgg,f,齐河路10弄,121.49964047700496,31.177358464941154
10gcbgh,f,齐河路28弄,121.5019707607671,31.17862320516025
10gcbgi,f,齐恒路177弄,121.52235972494236,31.1864859376554
10gcbgj,f,齐恒路33弄,121.5203934442495,31.189124383077935
10gcbgk,f,齐恒路95弄,121.52157260380586,31.188960138871614
10gcbgl,f,千汇路1000弄,121.55759373718097,31.203164417768722
10gcbgm,f,千汇路581弄,121.76527948283947,31.113781236672885
10gcbgn,f,千汇路750弄,121.7632699083998,31.117522282106652
10gcbgo,f,前哨路288弄,121.72269055024317,31.239561732562724
10gcbgp,f,青桐路18弄,121.61905496693413,31.217566486199996
10gcbgq,f,青桐路358弄,121.62255123563575,31.216676036243715
10gcbgr,f,青桐路409弄,121.62317542952034,31.214934549069266
10gcbgs,f,青艺路181弄,121.67981577411989,31.196658773559868
10gcbgt,f,清溪路461弄,121.57034143209987,31.339534623912346
10gcbgu,f,庆滨路155弄,121.72410880717035,31.232318859099443
10gcbgv,f,秋亭路88弄,121.76181284537722,31.097833593500823
10gcbgw,f,人民东路2729弄,121.76159617184972,31.049069161827678
10gcbgx,f,人民东路3185号,121.75849241144111,31.048521435814596
10gcbgy,f,乳山路114弄,121.52163329542955,31.234454965661868
10gcbgz,f,乳山路130弄,121.52300291331254,31.234994139294628
10gcbh0,f,乳山路138弄,121.52400990845099,31.235221919768083
10gcbh1,f,乳山路161弄,121.52103375583431,31.236322760459924
10gcbh2,f,乳山路313弄,121.5212565674479,31.240082893601507
10gcbh3,f,瑞安路211弄,121.59010480315033,31.09123759288127
10gcbh4,f,瑞安路699弄,121.60089992472953,31.09245906522711
10gcbh5,f,瑞安路80弄,121.58772077376224,31.089221806737015
10gcbh6,f,瑞福路196弄,121.60328162912593,31.09634177290218
10gcbh7,f,瑞和路555弄,121.59547014329694,31.09065740970784
10gcbh8,f,瑞浦路612弄,121.58604480073724,31.090047660718064
10gcbh9,f,瑞浦路77弄,121.58747040494028,31.09780724115371
10gcbha,f,瑞浦路8弄,121.5852714092009,31.09890868487005
10gcbhb,f,瑞阳路351弄,121.59020971276841,31.094795946284293
10gcbhc,f,瑞阳路81弄,121.58861712057534,31.098802642815237
10gcbhd,f,瑞意路399弄,121.58770578072405,31.095971573917826
10gcbhe,f,三彩路166弄,121.49774202314396,31.12362955818051
10gcbhf,f,三彩路52弄,121.49743623376233,31.126212861398017
10gcbhg,f,三彩路59弄,121.49897283610623,31.126532029787242
10gcbhh,f,三林路1662弄,121.52620385056521,31.147082293558544
10gcbhi,f,三林路184号,121.49634268044545,31.136220276576204
10gcbhj,f,三林路200号,121.49630716768746,31.13695946933109
10gcbhk,f,三林路235号,121.4963604779862,31.138152817505848
10gcbhl,f,三林路711弄,121.50530186329485,31.142100166284116
10gcbhm,f,三林路788弄,121.5076395456084,31.141510741541893
10gcbhn,f,三林路88弄,121.49442145447702,31.135035065580304
10gcbho,f,三林镇红旗村东桥队毛家塘,121.50274407200398,31.129175940713772
10gcbhp,f,三林镇红旗村姜胡宅队江湖宅,121.49377523402718,31.12145412439958
10gcbhq,f,三林镇红旗村李家队李家油车,121.49150912155062,31.124855641610118
10gcbhr,f,三林镇胡巷村陈家宅,121.51833423776648,31.152963724221937
10gcbhs,f,三林镇胡巷村荡沟,121.52081610675356,31.160561930362345
10gcbht,f,三林镇胡巷村东朱家宅,121.51604226252434,31.16045730489015
10gcbhu,f,三林镇胡巷村金家宅,121.51829178854341,31.15318060171383
10gcbhv,f,三林镇胡巷村马家宅,121.51846933980961,31.15297508744083
10gcbhw,f,三林镇胡巷村孙家宅,121.51837096924736,31.15291849833646
10gcbhx,f,三林镇胡巷村吴家宅,121.51846183716506,31.152854785319118
10gcbhy,f,三林镇胡巷村张家宅,121.51485517326658,31.16328707469043
10gcbhz,f,三林镇金光村陆家湾队陆家宅,121.5095156358723,31.139288317224484
10gcbi0,f,三林镇联丰村八字队东八字桥,121.51321527332429,31.15246499717044
10gcbi1,f,三林镇联丰村顾家队顾家宅,121.58247624218838,31.166880213520912
10gcbi2,f,三林镇联丰村南沈队沈家墙,121.51273597658532,31.153611848239308
10gcbi3,f,三林镇临江村丁家队丁家宅,121.47881098928508,31.124369057605946
10gcbi4,f,三林镇临江村庞家队庞家宅,121.47506632960821,31.115862304651774
10gcbi5,f,三林镇临江村泰保队泰保堂,121.47859761114944,31.119037609841666
10gcbi6,f,三林镇临江村王家宅队王家宅,121.47914992053033,31.124234366853262
10gcbi7,f,三林镇临江村益民队罗汉松,121.48188812364504,31.126054103543503
10gcbi8,f,三林镇临江村筠西队庞家宅,121.4758025478303,31.116382879212374
10gcbi9,f,三林镇临江村张塘队陈家宅,121.48726150965258,31.126272214382293
10gcbia,f,三林镇临江村张塘队塘湾宅,121.4875419231397,31.12507688029878
10gcbib,f,三林镇临江村张塘队张家宅,121.48726199423568,31.12606674167302
10gcbic,f,三林镇临江村周北队周家宅,121.4736327476566,31.11823507378909
10gcbid,f,三林镇临江村周南队庞信隆,121.47389881908087,31.11673119636998
10gcbie,f,三林镇南阜村曹家队蚌壳滩,121.52724921350988,31.13600930958763
10gcbif,f,三林镇南阜村东汤队东汤家宅,121.51126571275995,31.14282637037183
10gcbig,f,三林镇南阜村东汤队周家宅,121.69843542824944,31.225921151905126
10gcbih,f,三林镇南阜村高树队北孙家宅,121.52058241948347,31.13369755477515
10gcbii,f,三林镇南阜村高树队西汤家宅,121.51896286114044,31.13231736581943
10gcbij,f,三林镇南阜村九思队九思堂,121.51516911134578,31.12738955376049
10gcbik,f,三林镇南阜村瞿弄队瞿家里,121.51704085047551,31.127564318235052
10gcbil,f,三林镇三林村东林队东林街,121.5020343697576,31.138049266177724
10gcbim,f,三林镇三林村南行队金家宅,121.49996566242403,31.13561610248632
10gcbin,f,三林镇三林村镇前队金家宅,121.50057881663663,31.135669013691395
10gcbio,f,三林镇天花庵村北陈队大陈家宅,121.52054626239017,31.124813673302718
10gcbip,f,三林镇天花庵村东瞿队大瞿家宅,121.53431449955413,31.1227100271381
10gcbiq,f,三林镇天花庵村乐耕队,121.52192257536439,31.126856036454843
10gcbir,f,三林镇天花庵村芦家队芦家油车,121.52648271893206,31.1241454394626
10gcbis,f,三林镇天花庵村闵北队闵家宅,121.53290282568476,31.122502388577743
10gcbit,f,三林镇天花庵村闵东队闵家宅,121.53392774882826,31.120486648894133
10gcbiu,f,三林镇天花庵村南陈队大陈家宅,121.52387111408643,31.12236032749128
10gcbiv,f,三林镇天花庵村南王家队南王家宅,121.52805040968006,31.13324101137521
10gcbiw,f,三林镇天花庵村南周家队大周家宅,121.53411448135795,31.122695538350534
10gcbix,f,三林镇天花庵村卫家队,121.52591662734179,31.12725208137916
10gcbiy,f,三林镇天花庵村西瞿队大瞿家宅,121.53420337927018,31.122924500346308
10gcbiz,f,三林镇同济村果园队果园,121.54434059179715,31.138171368074577
10gcbj0,f,三林镇西林村圈门队王家沙,121.49298972060822,31.13676082380084
10gcbj1,f,三林镇西林村圈门队西林街,121.49695936342277,31.134254708305455
10gcbj2,f,三林镇西林村圈门队叶家宅,121.49191280125987,31.137482235018428
10gcbj3,f,三林镇西林村万家队西林街,121.49666146873315,31.134097386880033
10gcbj4,f,三林镇新春村陈桥队陈家桥,121.47578693796473,31.1273243033625
10gcbj5,f,三林镇新春村方家队许家宅,121.48797917905219,31.130002450432286
10gcbj6,f,三林镇新任村,121.4966925631596,31.156508242722396
10gcbj7,f,三林镇懿德村康家队康家宅,121.51615171315267,31.12071162848031
10gcbj8,f,三林镇懿德村钱家队钱家宅,121.51612459354843,31.119099544840758
10gcbj9,f,三林镇懿德村吴家队吴家宅,121.51616877836028,31.11901772071946
10gcbja,f,三林镇中林村三林桥队三林桥,121.51044854999836,31.141315839076416
10gcbjb,f,三林镇中林村三林桥队天打桥,121.50933045663714,31.14115776480421
10gcbjc,f,三三公路5020弄,121.9074073207052,30.952966354128375
10gcbjd,f,三舒路181弄,121.50517562783644,31.122987264085424
10gcbje,f,三舒路192弄,121.50448603828167,31.122751015551472
10gcbjf,f,三舒路62弄,121.50293276082017,31.124623036977365
10gcbjg,f,三旋路506弄,121.50263077422413,31.11928701102544
10gcbjh,f,三灶路451弄,121.64060039386354,31.17937800426878
10gcbji,f,商城路1025弄,121.52544032288782,31.233895724974904
10gcbjj,f,商城路1177弄,121.52764964685986,31.235889946000075
10gcbjk,f,上川路361号,121.63921526498048,31.27369863563925
10gcbjl,f,上川路538号,121.64628010920696,31.27268189712794
10gcbjm,f,上川路620号,121.64796162283712,31.273987424384238
10gcbjn,f,上南路1000弄,121.49398968770717,31.174822423811005
10gcbjo,f,上南路1251弄,121.49706269730048,31.17331707876058
10gcbjp,f,上南路1500弄,121.49516406822792,31.169944513035087
10gcbjq,f,上南路1551弄,121.49732288787196,31.16996124760689
10gcbjr,f,上南路2979号,121.49759020398976,31.16562153843273
10gcbjs,f,上南路3339弄,121.50722238551383,31.1602191903043
10gcbjt,f,上南路3521号,121.50429659906108,31.155104599523586
10gcbju,f,上南路3827弄,121.50678819165003,31.151618471609105
10gcbjv,f,上南路3848弄,121.50232372171656,31.150826380895463
10gcbjw,f,上南路4265弄,121.51005564023868,31.144656415945555
10gcbjx,f,上南路5588号,121.52700209730595,31.124967784311483
10gcbjy,f,上南路6500弄,121.54785625020216,31.117196101014525
10gcbjz,f,上南路6555弄,121.55210529975999,31.120222355497333
10gcbk0,f,上南路6733弄,121.56287153909354,31.12003838569488
10gcbk1,f,上南路7718弄,121.57027389255518,31.116616638941927
10gcbk2,f,上南路929弄,121.49603013402158,31.176820508368056
10gcbk3,f,上南路东明路交界口工地生活区,121.54865334518946,31.20456998891032
10gcbk4,f,上浦路165弄,121.49218486183271,31.146344460253715
10gcbk5,f,上浦路201弄,121.49164763889893,31.146998534211434
10gcbk6,f,上浦路202弄,121.49300499022347,31.144582406443746
10gcbk7,f,上浦路355弄,121.4963644053492,31.146736243041342
10gcbk8,f,上浦路410弄,121.49792553589019,31.14541800348832
10gcbk9,f,上浦路510弄,121.49955420731297,31.145943829784425
10gcbka,f,上浦路565弄,121.50054905181058,31.1473133392164
10gcbkb,f,上浦路69弄,121.4904137476466,31.145165543729565
10gcbkc,f,尚博路129弄,121.51019880389472,31.14679469604057
10gcbkd,f,尚博路650弄,121.52306510166078,31.149542756287236
10gcbke,f,尚博路799弄,121.52465558323135,31.150871965031147
10gcbkf,f,少年路40弄,121.75707496328222,31.04624251500026
10gcbkg,f,申波路83弄,121.56756372600417,31.192429170732723
10gcbkh,f,申江路5809号生活区,121.625515223442,31.201891733709996
10gcbki,f,申江路985弄,121.62759126467935,31.28808638227465
10gcbkj,f,申启路轲桥路交界口工地生活区,121.62948986258769,31.28515836258469
10gcbkk,f,沈家弄路900弄,121.54596707892465,31.238851104721864
10gcbkl,f,沈家弄路936号,121.5472130754775,31.23994181568639
10gcbkm,f,胜利路169弄,121.68780992474697,31.245324352500262
10gcbkn,f,胜利路171弄,121.68931135385962,31.24459975223074
10gcbko,f,胜利路836弄,121.70139454745977,31.245898170575433
10gcbkp,f,盛夏路738弄,121.62880239164757,31.20302650784074
10gcbkq,f,施湾二路863弄,121.74876111429117,31.14474210809706
10gcbkr,f,石潭街136号,121.87333837585852,30.97751834155853
10gcbks,f,世博家园大道站路94弄,121.53494992520906,31.16304085624362
10gcbkt,f,世纪大道杨高南路交界口工地生活区,121.53314051677891,31.22687562321675
10gcbku,f,寿光路31弄,121.58299853702161,31.27333211868867
10gcbkv,f,寿光路75弄,121.58435281863927,31.273150530238492
10gcbkw,f,寿光路81弄,121.5846612618162,31.273398300881887
10gcbkx,f,书院镇黄华村,121.8796682660996,30.97465232802366
10gcbky,f,书院镇外灶村,121.86937911776877,30.950285588819824
10gcbkz,f,双桥路1108弄,121.61386336202656,31.28314055431513
10gcbl0,f,双桥路1139弄,121.61430551287923,31.285034821491205
10gcbl1,f,水华路1000号工地生活区,121.57527514603672,31.331679347455022
10gcbl2,f,顺和路60弄,121.62636612206667,31.187540080582096
10gcbl3,f,顺凌路49弄,121.53690775280343,31.3649915332793
10gcbl4,f,硕川路125弄,121.68625670581132,31.200190935985393
10gcbl5,f,思浦路16弄,121.49386610288046,31.158072485632072
10gcbl6,f,思浦路6弄,121.4944249020631,31.158854836332953
10gcbl7,f,思学路55弄,121.57967137103606,31.29919858231055
10gcbl8,f,松林路88弄,121.52847152401377,31.232610811785133
10gcbl9,f,孙环路177弄,121.63693393370822,31.186378790914123
10gcbla,f,孙环路601弄,121.64184446882754,31.176687480015936
10gcblb,f,孙桥路788号工地生活区,121.63083157553767,31.170774065862513
10gcblc,f,孙耀路111弄,121.63727897575359,31.18370513585215
10gcbld,f,孙耀路128弄,121.63371836223867,31.18505226814551
10gcble,f,台儿庄路363弄,121.59644167728426,31.259684977816942
10gcblf,f,台儿庄路663弄,121.59834096252571,31.25559604739708
10gcblg,f,泰环路215号,121.52740014535732,31.143033487135696
10gcblh,f,唐镇大众村沈家宅,121.64822913050837,31.22382814093989
10gcbli,f,唐镇大众村西沟圈,121.65158877252279,31.228697152059045
10gcblj,f,唐镇大众村中心新村,121.64836969104044,31.228574751397662
10gcblk,f,唐镇虹二村盛家宅,121.68079385067261,31.23586993572216
10gcbll,f,唐镇虹三村顾家宅,121.63631347957767,31.228937692803598
10gcblm,f,唐镇虹三村沈家宅,121.67327368206257,31.253850649917233
10gcbln,f,唐镇虹四村卫家宅,121.65733453283208,31.24056505468019
10gcblo,f,唐镇虹四村吴张家宅,121.65349448781245,31.240804495595484
10gcblp,f,唐镇机口村石角沟,121.6612397007515,31.21487137841774
10gcblq,f,唐镇路127弄,121.64991833563172,31.207116480142528
10gcblr,f,唐镇吕三村三林新村,121.64120114551253,31.216949600896164
10gcbls,f,唐镇民丰村东龚家宅,121.64194726625537,31.20840928439612
10gcblt,f,唐镇民丰村陆家宅,121.64208201294645,31.208235628351595
10gcblu,f,唐镇民丰村南胡家宅,121.64209766752006,31.208429540504724
10gcblv,f,唐镇暮二村曹家宅,121.6760512134465,31.218170163911523
10gcblw,f,唐镇暮二村费家宅,121.67604204758887,31.218241482744183
10gcblx,f,唐镇暮二村小丁家宅,121.67606424495202,31.21799377952626
10gcbly,f,唐镇前进村东窑新村,121.64072373359491,31.197259634335094
10gcblz,f,唐镇前进村龚家宅,121.64702220406075,31.199103117980187
10gcbm0,f,唐镇前进村顾家宅,121.65114035691481,31.19734957447875
10gcbm1,f,唐镇前进村西李家宅,121.6398068659188,31.202351062376298
10gcbm2,f,唐镇唐四村丁家南宅,121.6601897777551,31.21396873170684
10gcbm3,f,唐镇小湾村北街,121.69116670753911,31.229197683816942
10gcbm4,f,唐镇小湾村北张家宅,121.69030291384429,31.228424993445866
10gcbm5,f,唐镇小湾村大张家宅,121.69001609770042,31.228098669393265
10gcbm6,f,唐镇小湾村东张家宅,121.72063448205637,31.215081477823528
10gcbm7,f,唐镇小湾村顾家宅,121.6900570067174,31.228070486586628
10gcbm8,f,唐镇小湾村南街,121.69161925032026,31.22751772918032
10gcbm9,f,唐镇小湾村奚家宅,121.69026632088935,31.228221323983664
10gcbma,f,唐镇新虹村东包家宅,121.64983544339387,31.239130576270732
10gcbmb,f,唐镇新虹村刘家宅,121.64771183131381,31.244360717656132
10gcbmc,f,唐镇新虹村陆家宅,121.65732837531225,31.257821730291834
10gcbmd,f,唐镇新虹村缪家宅,121.64848652044712,31.242951012500026
10gcbme,f,唐镇新虹村赵家宅,121.64856873498739,31.242784562604445
10gcbmf,f,唐镇一心村顾家宅,121.6845064272871,31.235721442783614
10gcbmg,f,塘南路123号,121.50884227090118,31.202249738825085
10gcbmh,f,塘南路159弄,121.50947299557565,31.202488714801497
10gcbmi,f,塘桥路551号,121.52048950231,31.211804500590343
10gcbmj,f,桃林路299弄,121.53809289541007,31.239475583348568
10gcbmk,f,桃林路815弄,121.53987483454496,31.23331868236977
10gcbml,f,腾波路沛丰路交界口工地生活区,121.51655880842476,31.222674462378922
10gcbmm,f,听健路151弄,121.74503188100435,31.067066639562494
10gcbmn,f,听悦路960弄,121.73965678049237,31.06006976400681
10gcbmo,f,万德路45弄,121.55697825706848,31.251433061683933
10gcbmp,f,万德路51弄,121.55908312996111,31.249463958054175
10gcbmq,f,万德路67弄,121.56004029995768,31.249620336439293
10gcbmr,f,万和路118弄,121.81647684682744,30.96617088369719
10gcbms,f,王家街22号,121.58017335922733,31.34801635193346
10gcbmt,f,潍坊路126弄,121.52398581441825,31.221759336563142
10gcbmu,f,潍坊路140弄,121.524991090158,31.225390566735577
10gcbmv,f,潍坊路154弄,121.52528942477565,31.2239187394007
10gcbmw,f,潍坊路168弄,121.52740229054766,31.225489031847843
10gcbmx,f,潍坊路260号,121.53265642183372,31.227463495575805
10gcbmy,f,潍坊路328号工地生活区,121.53293081602789,31.226953076740816
10gcbmz,f,潍坊路333弄,121.52736979660837,31.226273094269224
10gcbn0,f,潍坊路335弄,121.53197691864358,31.229626219223146
10gcbn1,f,潍坊路355弄,121.53281433519379,31.23002613648298
10gcbn2,f,潍坊路375弄,121.53136388215594,31.228649851508987
10gcbn3,f,潍坊路606号,121.52256349380697,31.22273090696878
10gcbn4,f,潍坊路716号,121.52097393865317,31.223894087161842
10gcbn5,f,潍坊路89弄,121.51870716739322,31.225148997065368
10gcbn6,f,潍坊西路100弄,121.51660623792984,31.222555018005924
10gcbn7,f,潍坊西路1弄,121.51261725189815,31.222944458693682
10gcbn8,f,潍坊西路2弄,121.51472847963232,31.21941971003949
10gcbn9,f,五莲路100弄,121.57951218386765,31.275795571445535
10gcbna,f,五莲路1047弄,121.59412050363129,31.272434317189592
10gcbnb,f,五莲路108弄,121.59964600327217,31.28186934115959
10gcbnc,f,五莲路1168号,121.59640922092514,31.272259263301702
10gcbnd,f,五莲路201弄,121.58184599437907,31.274687377844142
10gcbne,f,五莲路30弄,121.57761657565801,31.275600150747906
10gcbnf,f,五莲路400弄,121.58307902685473,31.271959090088675
10gcbng,f,五莲路759弄,121.59016562209746,31.270884525756504
10gcbnh,f,五莲路780弄,121.59093099669447,31.2685160104338
10gcbni,f,五莲路959弄,121.59245495141789,31.271484273050515
10gcbnj,f,五星路231弄,121.56232447903523,31.174575039163184
10gcbnk,f,五星路239弄,121.5645010006561,31.17556083021079
10gcbnl,f,西门路113弄,121.74913385746792,31.04641336464946
10gcbnm,f,西三里桥路8弄,121.50664974362779,31.199314038667808
10gcbnn,f,西三里桥路9弄,121.5062225023437,31.19958887484788
10gcbno,f,西泰林路158弄,121.53127492373409,31.15239472818879
10gcbnp,f,西泰林路850弄,121.54007201494645,31.142143572575073
10gcbnq,f,西泰林路901弄,121.53916894327575,31.144179505212566
10gcbnr,f,西营路33弄,121.48479267470861,31.17098797267292
10gcbns,f,西营路44弄,121.4820191276806,31.170574418040992
10gcbnt,f,西营南路11弄,121.48482097629069,31.161916012927602
10gcbnu,f,西营南路17弄,121.48485789318372,31.160367090446368
10gcbnv,f,西营南路18弄,121.48796790024353,31.160449015171743
10gcbnw,f,西营南路67弄,121.48546061898173,31.158063146167294
10gcbnx,f,西营南路68弄,121.48761718872555,31.158880771193857
10gcbny,f,霞玉路436弄,121.69516928079084,31.25704023792089
10gcbnz,f,下南路1071弄,121.5358476277104,31.184770448336863
10gcbo0,f,下南路115弄,121.54361694955735,31.16587592479687
10gcbo1,f,下南路161弄,121.54459499747334,31.167080439665668
10gcbo2,f,下南路225弄,121.54268067382156,31.168193792417334
10gcbo3,f,下南路276弄,121.54206131832727,31.168447465053536
10gcbo4,f,下南路309弄,121.54310510229456,31.16924283801383
10gcbo5,f,下南路339弄,121.54273018466576,31.169440065529745
10gcbo6,f,下南路370弄,121.53948165786562,31.170108590913113
10gcbo7,f,下南路500弄,121.53917307919205,31.172227126592116
10gcbo8,f,下南路501弄,121.54115767306166,31.172418433642534
10gcbo9,f,下南路526弄,121.53832056391616,31.171125805031895
10gcboa,f,下南路551弄,121.54216642486756,31.173128570744424
10gcbob,f,夏碧路380弄,121.58418962089436,31.337639573844207
10gcboc,f,夏碧路72弄,121.5894280053015,31.339903136081542
10gcbod,f,香楠路199弄,121.61480277372304,31.216076734863886
10gcboe,f,香楠路39弄,121.612668149928,31.215724863206937
10gcbof,f,香楠路65弄,121.613592135021,31.21737004056086
10gcbog,f,祥安路36弄,121.81545724800812,30.961814769900563
10gcboh,f,新场镇果园村新溪,121.60333720186922,31.024708889012807
10gcboi,f,新场镇蒋桥村,121.66101352261413,31.047059141047377
10gcboj,f,新场镇金建村,121.66527611634031,31.030794359288606
10gcbok,f,新场镇仁义村范桥,121.6342154251904,31.055153955065435
10gcbol,f,新场镇坦南村,121.65193797636866,31.071715897563603
10gcbom,f,新川路640弄,121.69403584730074,31.191903780598015
10gcbon,f,新川路742弄,121.69206980462289,31.191002634632138
10gcboo,f,新村路59弄,121.49652965419602,31.164141724826074
10gcbop,f,新德路365弄,121.69776197715643,31.19727520649246
10gcboq,f,新德路602弄,121.6912921513349,31.19784452356633
10gcbor,f,新德路908弄,121.68546862517292,31.19582191866285
10gcbos,f,新德西路207弄,121.67375288558111,31.19113037197522
10gcbot,f,新德西路508弄,121.66780371819223,31.190829038485273
10gcbou,f,新德西路511弄,121.67159290812766,31.19238491850983
10gcbov,f,新金桥路2002号生活区,121.62413475661707,31.26146923380331
10gcbow,f,新金桥路230号,121.59838328050134,31.249656873733027
10gcbox,f,新金桥路581号,121.60038933530434,31.249372795585344
10gcboy,f,新龙路203弄,121.62989583220332,31.314777388581103
10gcboz,f,新龙路69弄,121.62789840133452,31.3176871675413
10gcbp0,f,新浦路199弄,121.5377103115856,31.165336857728068
10gcbp1,f,新浦路380弄,121.53476977218196,31.171616755245314
10gcbp2,f,新浦路477弄,121.53330036987771,31.17041043835331
10gcbp3,f,新浦路543弄,121.53021226721037,31.169662976382554
10gcbp4,f,新浦路587弄,121.52976478844187,31.168045997375753
10gcbp5,f,新浦路629弄,121.53052668245851,31.169988156687698
10gcbp6,f,新浦路673弄,121.53040320053269,31.169797714199298
10gcbp7,f,新雅东路51弄,121.68698383554842,31.237109065804376
10gcbp8,f,新雅路90弄,121.68390506301274,31.236666512066794
10gcbp9,f,新元南路正茂路交界口工地生活区,121.54852894911997,31.204699872672457
10gcbpa,f,新园路251弄,121.63310985278055,31.31717015542282
10gcbpb,f,新园路288弄,121.63242977162389,31.316944804399544
10gcbpc,f,新园路436弄,121.63392489838473,31.312808133401084
10gcbpd,f,新园路439弄,121.63496721885883,31.313605367504337
10gcbpe,f,新跃路64弄,121.63179198822257,31.320475158448335
10gcbpf,f,行南路1150弄,121.58247783449293,31.327907287809367
10gcbpg,f,秀康路958弄,121.57070293000713,31.142194812348162
10gcbph,f,秀浦路886弄,121.57207118998154,31.126523826741515
10gcbpi,f,秀沿路1028弄,121.57979429046416,31.13038681011475
10gcbpj,f,秀沿路2501弄,121.60129157777007,31.13850815002323
10gcbpk,f,秀沿路2585弄,121.60547182510452,31.13864271923271
10gcbpl,f,秀沿路2875弄,121.61295723608428,31.13794732386861
10gcbpm,f,秀沿路2弄,121.57914224572723,31.133649356447116
10gcbpn,f,秀沿路3668号,121.61671070408714,31.13626689582039
10gcbpo,f,秀沿路505弄,121.56330983070882,31.134499785390567
10gcbpp,f,秀沿路867弄,121.5690463461291,31.137159968696256
10gcbpq,f,秀沿路苗桥路交界口工地生活区,121.54870772707206,31.204869401485205
10gcbpr,f,秀沿西路258弄,121.52962165129625,31.129586660172446
10gcbps,f,秀沿西路68弄,121.53718615120319,31.131485983494585
10gcbpt,f,宣桥镇光明村,121.71878807065718,31.079757076633676
10gcbpu,f,宣桥镇胡桥村,121.69057079663128,31.039452594053405
10gcbpv,f,宣桥镇季桥村,121.69914419949227,31.061262818833573
10gcbpw,f,宣桥镇三灶村,121.71181019549849,31.06972279343041
10gcbpx,f,宣桥镇腰路村丰乐村,121.68919374455095,31.072145337076215
10gcbpy,f,宣桥镇张家桥村胡桥,121.69080345676136,31.037903216223583
10gcbpz,f,宣桥镇张家桥村利民,121.69531496855579,31.03171625380826
10gcbq0,f,学前二村,121.58386204436378,31.346657737983882
10gcbq1,f,雪野二路296号工地生活区,121.49340926888647,31.180039406438247
10gcbq2,f,雪野路34弄,121.49714940421717,31.182569983964168
10gcbq3,f,雪野路37弄,121.50506591478062,31.197428685327417
10gcbq4,f,雪野路694号工地生活区,121.52762346901574,31.18019906956762
10gcbq5,f,严民路40弄,121.52757476438454,31.192399772525874
10gcbq6,f,严木桥路198弄,121.80764880435761,30.956759380568915
10gcbq7,f,严桥路141弄,121.52830152759842,31.19014785709189
10gcbq8,f,严桥路150弄,121.527652295423,31.189542335346278
10gcbq9,f,严杨路165弄,121.52923368126393,31.194933119982256
10gcbqa,f,严杨路30弄,121.52672766228504,31.192663299356973
10gcbqb,f,严镇路75弄,121.52915960729969,31.19170347441447
10gcbqc,f,严中路269弄,121.53295537509206,31.19015114170832
10gcbqd,f,盐朝公路67号,121.76346069161337,31.089688757667368
10gcbqe,f,盐大路2585弄,121.80108024968365,31.057520808854132
10gcbqf,f,杨高北路446弄,121.5853153572992,31.3466019578036
10gcbqg,f,杨高北路4705弄,121.60509935749876,31.27898357736422
10gcbqh,f,杨高南路2140弄,121.5228764161145,31.18962537219889
10gcbqi,f,杨高南路3288弄,121.51552330436272,31.168076089526934
10gcbqj,f,杨高南路3340弄,121.51985680783086,31.167677065349903
10gcbqk,f,杨高南路5055弄,121.53128751101251,31.14966466952007
10gcbql,f,杨高南路5135弄,121.53387248412187,31.14889307619505
10gcbqm,f,杨高南路5777弄,121.54571270261395,31.127668417020544
10gcbqn,f,杨高中路10弄,121.59823741433331,31.257689909226873
10gcbqo,f,杨高中路1898号,121.56134465109491,31.233962271603477
10gcbqp,f,杨高中路750弄,121.58797363193327,31.248069063063063
10gcbqq,f,杨高中路758号,121.58767745749255,31.247503606038645
10gcbqr,f,杨莲路310弄,121.54977018576113,31.16511152620535
10gcbqs,f,杨南路1015弄,121.50696931389695,31.153002561173416
10gcbqt,f,杨南路1899弄,121.51773123111913,31.157738064438746
10gcbqu,f,杨南路689弄,121.50061960804948,31.152979237483656
10gcbqv,f,杨南路694弄,121.5007176447686,31.150810326977723
10gcbqw,f,杨南路797弄,121.5006630831543,31.1533796597659
10gcbqx,f,杨南路826弄,121.50354241690466,31.151281192033384
10gcbqy,f,杨南路828弄,121.50440021327972,31.15142735328617
10gcbqz,f,杨思北街118弄,121.49284965461459,31.163986736242165
10gcbr0,f,杨思路1121弄,121.50561022780579,31.164720705568318
10gcbr1,f,杨思路436弄,121.49387074935808,31.15996115230271
10gcbr2,f,杨思路502弄,121.49523749407857,31.160533220359447
10gcbr3,f,杨思路855弄,121.49870589095114,31.164720806148548
10gcbr4,f,杨思路860弄,121.49843546325039,31.161960839739173
10gcbr5,f,杨思路济阳路交界口工地生活区,121.48031452457845,31.153845566766766
10gcbr6,f,杨思新村,121.49546900096189,31.163463319364656
10gcbr7,f,杨新路197弄,121.49230785908902,31.162960532995207
10gcbr8,f,杨新路20弄,121.49649549838237,31.16479831894173
10gcbr9,f,杨新路281弄,121.48805494466478,31.16098329339113
10gcbra,f,杨新路282弄,121.48758487778134,31.162050028897884
10gcbrb,f,杨新路77弄,121.49412080559432,31.16333275021457
10gcbrc,f,杨新路80弄,121.49380045335592,31.16418325610308
10gcbrd,f,杨新路93弄,121.49347906168057,31.163312422434185
10gcbre,f,洋泾街道泾南村东唐家宅,121.56283950679918,31.236914169513877
10gcbrf,f,洋泾镇路61号工地生活区,121.55023379143101,31.241168786662648
10gcbrg,f,洋泾镇路89弄,121.55017738697731,31.241947986965656
10gcbrh,f,耀华路331弄,121.48571994056992,31.176107591395365
10gcbri,f,耀华路400弄,121.4846775063993,31.172436528548086
10gcbrj,f,耀华路414弄,121.48580796658047,31.17315795324041
10gcbrk,f,耀华路421弄,121.48264377768159,31.17380186171186
10gcbrl,f,耀华路500弄,121.48217471116259,31.171143852703082
10gcbrm,f,耀华路550弄,121.48130718375482,31.170919116303256
10gcbrn,f,耀华路560号,121.4809834113179,31.171417453103714
10gcbro,f,耀华路579弄,121.48048533146056,31.172164563751796
10gcbrp,f,耀华路85弄,121.49171865971665,31.17873955748434
10gcbrq,f,耀华路87弄,121.49149897704572,31.178848327217644
10gcbrr,f,耀华路8号,121.49424543038867,31.178432477370833
10gcbrs,f,耀华支路2号工地生活区,121.48348401745811,31.17688859654951
10gcbrt,f,耀元路228弄,121.47464860000419,31.171547694181655
10gcbru,f,耀元路245弄,121.47559570232673,31.172692267111813
10gcbrv,f,沂南路40号,121.5076837909456,31.198072879334372
10gcbrw,f,沂南路54弄,121.50917675526244,31.198057342460743
10gcbrx,f,益江路126弄,121.63310442591757,31.201366390029474
10gcbry,f,益江路299弄,121.63152985824631,31.19718674231708
10gcbrz,f,益江路396弄,121.6269534121714,31.19895183407714
10gcbs0,f,益江路511弄,121.62825197940525,31.196461027015562
10gcbs1,f,懿行路971弄,121.51494000449398,31.125330846502283
10gcbs2,f,殷北路351弄,121.62707397385793,31.179921136838615
10gcbs3,f,银冬路568号生活区,121.63581037386045,31.205054996700888
10gcbs4,f,银峰路549弄,121.68971702730335,31.266443454637752
10gcbs5,f,银峰路676弄,121.69087649642633,31.265108307249477
10gcbs6,f,银山路115弄,121.57786117599534,31.244911803639013
10gcbs7,f,银山路181号,121.58031896404647,31.243978267032535
10gcbs8,f,银山路181弄,121.57938615930932,31.243836250773636
10gcbs9,f,银山路342弄,121.58396387308346,31.244801148955254
10gcbsa,f,银山路370弄,121.5842844555278,31.24486950638755
10gcbsb,f,英伦路111号生活区,121.60943709095663,31.308070849126718
10gcbsc,f,樱花路469弄,121.55283852880402,31.207151899639165
10gcbsd,f,樱花路801弄,121.55996535481005,31.209221885571118
10gcbse,f,樱花路802弄,121.55880346394518,31.20621368504869
10gcbsf,f,迎春路1355弄,121.56284700999024,31.22890418891252
10gcbsg,f,营洪路1258弄,121.72674124136903,31.184192165803537
10gcbsh,f,永安新村,121.55071949637428,31.2484416621309
10gcbsi,f,永宁路33弄,121.61371853588217,31.27189379319525
10gcbsj,f,永泰路1129弄,121.52432115350855,31.143904443301427
10gcbsk,f,永泰路1299弄,121.5275556955833,31.143916889157676
10gcbsl,f,永泰路133弄,121.50455536455773,31.13688176413877
10gcbsm,f,永泰路136弄,121.50432240218096,31.134524631561003
10gcbsn,f,永泰路2079弄,121.54228391200584,31.14879807053476
10gcbso,f,永泰路2080弄,121.54465624252677,31.145285871565463
10gcbsp,f,永泰路468弄,121.51239727224315,31.136273912509225
10gcbsq,f,永泰路595弄,121.51493057549864,31.140914260430844
10gcbsr,f,永泰路630弄,121.51756801143094,31.137849082158752
10gcbss,f,永泰路775弄,121.51925974849335,31.142136606528872
10gcbst,f,羽山路1000弄,121.55735763295472,31.23779789661786
10gcbsu,f,羽山路100弄,121.53811384496662,31.22963436644771
10gcbsv,f,羽山路1445弄,121.56156419368155,31.242079304757155
10gcbsw,f,羽山路308弄,121.54192368128822,31.231608777186818
10gcbsx,f,羽山路600弄,121.5470852526999,31.232930987565297
10gcbsy,f,羽山路998弄,121.55654647389716,31.23728186947514
10gcbsz,f,玉兰路127弄,121.54676991988836,31.205287122774102
10gcbt0,f,玉泉街77弄,121.49502473206498,31.162752385900173
10gcbt1,f,御衡路68弄,121.58188230266377,31.154003850288667
10gcbt2,f,御桥路1679弄,121.5673379078611,31.15806937093097
10gcbt3,f,御桥路1978弄,121.57312947114522,31.158291565737002
10gcbt4,f,御桥路2066弄,121.57539668773515,31.158042610968227
10gcbt5,f,御桥路288弄,121.53885798692353,31.146001132552296
10gcbt6,f,御青路56弄,121.56969688461051,31.161580003555066
10gcbt7,f,御青路999弄,121.5738059176997,31.154551730348317
10gcbt8,f,御山路360弄,121.56708437971153,31.155341062070992
10gcbt9,f,御山路390弄,121.56791258649282,31.154246049273866
10gcbta,f,御水路150弄,121.57246453955243,31.160890116863225
10gcbtb,f,御水路199弄,121.57455545287054,31.160063920708502
10gcbtc,f,御水路555弄,121.57738699145914,31.1546181670099
10gcbtd,f,园二路299弄,121.63440322766878,31.31754016126941
10gcbte,f,源深路600弄,121.53425001275197,31.23109445675281
10gcbtf,f,云端路1388弄,121.81734071544749,30.887553269388537
10gcbtg,f,云莲路101弄,121.50624819566703,31.183115170133906
10gcbth,f,云莲路405弄,121.50674710477182,31.177680096064165
10gcbti,f,云山路1375号,121.57653055243193,31.247605853134875
10gcbtj,f,云山路1395弄,121.57707707632406,31.24380150125447
10gcbtk,f,云台路1000弄,121.5095728351134,31.154935801158878
10gcbtl,f,云台路183弄,121.50457560905295,31.179573130147283
10gcbtm,f,云台路702号,121.50695918431741,31.165398641039683
10gcbtn,f,云雅路395弄,121.67839953918443,31.242032686684283
10gcbto,f,运通路728弄,121.70217014792475,31.202839608824572
10gcbtp,f,韵涛路36弄,121.58787097829182,31.10276632960435
10gcbtq,f,枣庄路1029弄,121.58690447085411,31.246748134555343
10gcbtr,f,枣庄路210弄,121.57096746213365,31.258077072490284
10gcbts,f,枣庄路212弄,121.57106377462165,31.25775369204244
10gcbtt,f,枣庄路500弄,121.5759846749185,31.2531353302378
10gcbtu,f,枣庄路552弄,121.57898171486218,31.25134293495662
10gcbtv,f,枣庄路810弄,121.58051707464347,31.248692879238114
10gcbtw,f,张东路2281弄,121.63756180172443,31.201292649234922
10gcbtx,f,张江镇韩荡村南曹家宅,121.60803240957777,31.157683609616054
10gcbty,f,张江镇环东中心村桥弄顾家宅,121.63632778940854,31.22927699622663
10gcbtz,f,张江镇环东中心村桥弄金家宅,121.65449951818046,31.163588483608905
10gcbu0,f,张江镇环东中心村四灶姚家宅,121.66050138249014,31.194306697230783
10gcbu1,f,张江镇劳动村孙家宅,121.62950590721107,31.179764632415473
10gcbu2,f,张江镇新丰村龚家宅,121.64611355679848,31.160911404134584
10gcbu3,f,张江镇新丰村薛家宅,121.64780639776905,31.163010168847304
10gcbu4,f,张江镇中心村奚家宅,121.66638622054282,31.172111351918844
10gcbu5,f,张江镇中心村周家圈宅,121.6421561009736,31.175639752883043
10gcbu6,f,张杨北路310弄,121.58878720028044,31.274740773317507
10gcbu7,f,张杨北路558弄,121.58803940571728,31.2681595927099
10gcbu8,f,张杨北路5911弄,121.57223836036648,31.348972135566694
10gcbu9,f,张杨路1589号,121.53863131047505,31.235423768716686
10gcbua,f,张杨路1647弄,121.54085316249191,31.235903490648372
10gcbub,f,张杨路1698弄,121.54618344531889,31.23575141301123
10gcbuc,f,张杨路1811弄,121.54804740353883,31.23958937786119
10gcbud,f,张杨路1998弄,121.55228708714729,31.238575643706845
10gcbue,f,张杨路2999弄,121.56772402053576,31.24897597401626
10gcbuf,f,张杨路3080弄,121.5704011682769,31.24857720237651
10gcbug,f,张杨路310弄,121.51352304634115,31.225056639023325
10gcbuh,f,张杨路370弄,121.51474486027082,31.225586329455837
10gcbui,f,张杨路628弄,121.52042467015185,31.228130381716376
10gcbuj,f,张杨路951弄,121.52583013433026,31.23073046381714
10gcbuk,f,招远路19弄,121.5153178530861,31.236562533214617
10gcbul,f,赵高公路1606号,121.63890658808171,31.29873869055262
10gcbum,f,赵高公路587号,121.62626982918437,31.316912610959395
10gcbun,f,赵高公路950-968号,121.63325600154577,31.307121978714843
10gcbuo,f,赵高公路958号,121.62986141894142,31.311917751625707
10gcbup,f,赵高路610号,121.62641876090291,31.316555870296362
10gcbuq,f,振兴东路12弄,121.49601944346583,31.162695767131545
10gcbur,f,中科路2166弄,121.62751453899595,31.188092493369197
10gcbus,f,中科路2500弄,121.63387232202197,31.188472399908253
10gcbut,f,中科路2635弄,121.63440543095601,31.189708097210612
10gcbuu,f,周邓公路6600弄,121.60319331124359,31.116493902498693
10gcbuv,f,周东路123弄,121.58354520571442,31.123033268292453
10gcbuw,f,周东路243弄,121.58607522693765,31.11636552350778
10gcbux,f,周东路902弄,121.58285353833286,31.12683345231125
10gcbuy,f,周汇路158弄,121.58465404354314,31.102814144581615
10gcbuz,f,周浦镇界浜村窑墩,121.64894441831977,31.112915559345428
10gcbv0,f,周浦镇里仁村,121.5678963264133,31.112063599344403
10gcbv1,f,周浦镇牛桥村,121.598961312736,31.101312669830705
10gcbv2,f,周浦镇姚桥村,121.59816667066221,31.11450088534985
10gcbv3,f,周浦镇周南村,121.58388993554105,31.109047035063405
10gcbv4,f,周市路148号,121.58338446565406,31.111717187050978
10gcbv5,f,周市路66号,121.58400933346397,31.110529658276633
10gcbv6,f,周星路500弄,121.57877627792958,31.103591619690345
10gcbv7,f,周秀路168弄,121.60529225862207,31.098857253025706
10gcbv8,f,周秀路26弄,121.60538946962043,31.10156884611388
10gcbv9,f,周阳路259弄,121.60225434353035,31.09418580731251
10gcbva,f,周园路666弄,121.5931639818799,31.11748935316771
10gcbvb,f,周祝公路1218号,121.6391189567703,31.106493739952782
10gcbvc,f,周祝公路周泰北路交界口工地生活区,121.65986001958053,31.10875199806315
10gcbvd,f,洲德路博艺路交界口工地生活区,121.9014161789487,30.94799018742874
10gcbve,f,竹柏路500弄,121.904141984047,30.902575991621646
10gcbvf,f,祝家港路155弄,121.58568174311579,31.11135159490603
10gcbvg,f,祝家港路399弄,121.59194332252609,31.11165840456981
10gcbvh,f,祝桥工业城1区,121.757188785084,31.108397966293147
10gcbvi,f,祝桥镇滨海一村龚家宅,121.76318802030909,31.15156777799533
10gcbvj,f,祝桥镇共和村高家宅,121.7335026497205,31.171091221712434
10gcbvk,f,祝桥镇立新村金家宅,121.7473685778062,31.084664234679042
10gcbvl,f,祝桥镇立新村张家宅,121.75906933334316,31.17228447117643
10gcbvm,f,祝桥镇森林村陶家宅,121.74434990106289,31.205506162028513
10gcbvn,f,祝桥镇卫东村东乔家宅,121.75586231995563,31.176796588571772
10gcbvo,f,祝桥镇卫民村,121.74124941365741,31.098510132771004
10gcbvp,f,祝桥镇新生村金家宅,121.74250264403393,31.174625507583276
10gcbvq,f,祝桥镇星光村前进,121.75023319021777,31.118910183846996
10gcbvr,f,祝桥镇祝西村,121.75204254099279,31.109578732626325
10gcbvs,f,砖桥街1号,121.58493438148727,31.344119590363224
10gcbvt,f,梓康路188弄,121.568621580398,31.12286428489222
10gcbvu,f,梓康路333弄,121.5641201305816,31.121324844475886
10gcbvv,f,梓康路580弄,121.56131291530211,31.12178785157052
10gcbvw,f,紫薇路193弄,121.61558140804036,31.20329112945514
10gcbvx,f,紫叶路115弄,121.55164231698625,31.18296382272225
10gcbvy,f,紫叶路65弄,121.55133714656439,31.18355787252631
10gcbvz,f,紫叶路81弄,121.5510063154829,31.1834441852509
10gcbw0,f,邹平路191号工地生活区,121.51687625493385,31.17188297306672
10gcbw1,1,半淞园路628号,121.49477535202628,31.199933362062374
10gcbw2,1,半淞园路650号,121.49441660300916,31.19848126415337
10gcbw3,1,半淞园路698弄,121.49344216195173,31.198112393200823
10gcbw4,1,保屯路211弄,121.49160007211377,31.20379184521648
10gcbw5,1,保屯路50弄,121.48970704319206,31.205926366153957
10gcbw6,1,保屯路99弄,121.49041148295193,31.207454133108307
10gcbw7,1,北海路267弄,121.47819498324687,31.230149012675042
10gcbw8,1,北京东路200弄,121.48626009754865,31.241302172115223
10gcbw9,1,北京东路288弄,121.48412811313919,31.24134559808219
10gcbwa,1,北京东路316弄,121.4839330334804,31.241387204081384
10gcbwb,1,北京东路360弄,121.48322222193612,31.24052349113248
10gcbwc,1,北京东路375号,121.48278429984762,31.23991671583152
10gcbwd,1,北京东路431弄,121.47966110895152,31.239413181313733
10gcbwe,1,北京东路432号,121.48176236405368,31.240223762154958
10gcbwf,1,北京东路498号,121.48059878696176,31.239685282559186
10gcbwg,1,北京西路218弄,121.46953284601909,31.23598240451196
10gcbwh,1,北京西路240弄,121.46886556816064,31.236130187101047
10gcbwi,1,北京西路256号,121.46903466215358,31.23578112726801
10gcbwj,1,北京西路257号,121.46914278837002,31.235659745483986
10gcbwk,1,北京西路270号,121.46854783597216,31.235839036965466
10gcbwl,1,北京西路274号,121.4685740282501,31.235756464841593
10gcbwm,1,北京西路280弄,121.465435442301,31.234324794556606
10gcbwn,1,北京西路355弄,121.4674664612899,31.23467438297401
10gcbwo,1,曹家街17号,121.48614488730803,31.219189369416316
10gcbwp,1,曹家街38号,121.48615552976017,31.218984424946978
10gcbwq,1,曹家街89号,121.48625283447545,31.219108654283914
10gcbwr,1,曹家弄4号,121.48580324622743,31.218998575107236
10gcbws,1,曹市弄15弄,121.48915246295984,31.218814564997736
10gcbwt,1,曹市弄42弄,121.48908127370453,31.218805054348138
10gcbwu,1,车站支路34号,121.49363122454913,31.20824647367933
10gcbwv,1,长乐路105号,121.4677798325897,31.221711667140628
10gcbww,1,长乐路169弄,121.46231315865033,31.221193288199892
10gcbwx,1,长乐路175号,121.46151997070926,31.22089324651595
10gcbwy,1,长乐路338号,121.46282087892936,31.22136891857177
10gcbwz,1,长乐路83弄,121.46830020773277,31.22197049545764
10gcbx0,1,重庆北路104号,121.47048460194029,31.225308352702637
10gcbx1,1,重庆北路108号,121.47055917594547,31.225622997045015
10gcbx2,1,重庆北路116号,121.47045965387056,31.225676350555112
10gcbx3,1,重庆北路177弄,121.46904760192538,31.226228197879095
10gcbx4,1,重庆北路205号,121.46968354878938,31.22681829514949
10gcbx5,1,重庆北路216弄,121.4705940402842,31.2273783150972
10gcbx6,1,重庆北路235号,121.46937882787824,31.227371310902118
10gcbx7,1,重庆南路169弄,121.47242692592998,31.216805382312643
10gcbx8,1,重庆南路198弄,121.47068236770855,31.216996411685667
10gcbx9,1,重庆南路205弄,121.47146088899132,31.21459169372436
10gcbxa,1,重庆南路22号,121.47144428879766,31.220549611649275
10gcbxb,1,重庆南路24号,121.47151745612054,31.220350514819486
10gcbxc,1,重庆南路26弄,121.47132054361397,31.21997346489599
10gcbxd,1,重庆南路283号,121.4732528421544,31.209612680997864
10gcbxe,1,重庆南路30弄,121.47130621493838,31.219842083878607
10gcbxf,1,成都北路262弄,121.46808190365833,31.228623805149752
10gcbxg,1,成都北路274弄,121.46744036947511,31.22851383146689
10gcbxh,1,成都南路108弄,121.46712266578032,31.221494165628012
10gcbxi,1,成都南路112号,121.46741441488227,31.22165941481333
10gcbxj,1,成都南路122号,121.46755910758712,31.221450284591132
10gcbxk,1,成都南路132弄,121.46766775261744,31.22113947329884
10gcbxl,1,成都南路89号,121.4677166801618,31.221719799090483
10gcbxm,1,打浦路303弄,121.47161984414697,31.199868271493767
10gcbxn,1,打浦路316弄,121.47124039517352,31.200061914281342
10gcbxo,1,打浦路339弄,121.47198459508057,31.19975733619932
10gcbxp,1,打浦路350号,121.47191411974524,31.1989647801761
10gcbxq,1,打浦路457弄,121.4734022316954,31.197908902348317
10gcbxr,1,打浦路470弄,121.47281715413042,31.19685047270202
10gcbxs,1,打浦路500弄,121.47283658023319,31.196145598892628
10gcbxt,1,打浦路585弄,121.47424295399549,31.19570557262567
10gcbxu,1,打浦路78号,121.4703662878281,31.203788641135635
10gcbxv,1,打浦路80弄,121.46954360340928,31.20340433676873
10gcbxw,1,打浦路90弄,121.47079216712478,31.202413558074152
10gcbxx,1,打浦路92号,121.4707027618981,31.202647833147562
10gcbxy,1,大夫坊27号,121.49648537320851,31.220887707225152
10gcbxz,1,大夫坊36号,121.49639150546709,31.221091371895014
10gcby0,1,大沽路139弄,121.4714744044434,31.226395890014278
10gcby1,1,大沽路141号,121.47142829855215,31.226554945443635
10gcby2,1,大沽路159号,121.4713006700947,31.22624298709721
10gcby3,1,大沽路173号,121.47072147806148,31.22626915646367
10gcby4,1,大沽路177号,121.47099108158909,31.22628751287297
10gcby5,1,大沽路179号,121.47089678119474,31.226138187779064
10gcby6,1,大沽路183弄,121.47130711006156,31.22605713261594
10gcby7,1,大沽路186弄,121.47124418204118,31.226482354025297
10gcby8,1,大沽路254号,121.46953648337275,31.225805094542856
10gcby9,1,大吉路173弄,121.48415885301705,31.214066246144334
10gcbya,1,大吉路310弄,121.48208596580461,31.21270642442097
10gcbyb,1,大吉路36号,121.48676896497095,31.21520019741778
10gcbyc,1,大吉路44弄,121.48203507369426,31.213188530915218
10gcbyd,1,大境路50号,121.48697776554361,31.225285933802684
10gcbye,1,大林路190号,121.48550886879708,31.212240383949812
10gcbyf,1,大林路256号,121.48421210720262,31.212586666755048
10gcbyg,1,淡水路190号,121.47317315381805,31.217707262227204
10gcbyh,1,淡水路211号,121.47331397753328,31.21762474999631
10gcbyi,1,淡水路214弄,121.4727662924117,31.216907615147484
10gcbyj,1,淡水路223弄,121.47347397930207,31.217079902307496
10gcbyk,1,淡水路225弄,121.47312375172602,31.21662453510338
10gcbyl,1,淡水路226号,121.47309856641543,31.217226645028436
10gcbym,1,淡水路244号,121.47329303616463,31.21702307473222
10gcbyn,1,淡水路248号,121.47299298638424,31.216936712703994
10gcbyo,1,淡水路266弄,121.47304738120746,31.216161083529823
10gcbyp,1,淡水路345弄,121.47446066731123,31.21318718117585
10gcbyq,1,定兴路2号,121.4716470313617,31.235266532907776
10gcbyr,1,东江阴街194号,121.4971069932389,31.214073783468248
10gcbys,1,东江阴街222号,121.49633429210388,31.21387425100553
10gcbyt,1,东江阴街236号,121.49608018379652,31.21393467635346
10gcbyu,1,东街167弄,121.49699475970642,31.222207442900928
10gcbyv,1,方浜西路63弄,121.48268933360316,31.22038547592666
10gcbyw,1,方斜路401弄,121.48377353819184,31.214631133912096
10gcbyx,1,方斜路543号,121.4831655219476,31.211839873926575
10gcbyy,1,方斜路556弄,121.48246170369995,31.212372637400016
10gcbyz,1,丰记码头街95弄,121.50438450458485,31.2101545630188
10gcbz0,1,凤阳路228弄,121.47138404107386,31.234897421805726
10gcbz1,1,凤阳路428号,121.46779921703897,31.233393640345493
10gcbz2,1,福建南路84弄,121.48427504337269,31.229274799441594
10gcbz3,1,福州路531弄,121.48051506528445,31.233005995380548
10gcbz4,1,福州路614弄,121.4791138602024,31.233043111851032
10gcbz5,1,福州路623号,121.47887223387116,31.23204885222112
10gcbz6,1,抚安街38弄,121.49713682411488,31.220514571202443
10gcbz7,1,抚安街9弄,121.49702417964518,31.221361401994855
10gcbz8,1,复兴东路211弄,121.48410114498849,31.219489924703485
10gcbz9,1,复兴东路338号,121.49811212819992,31.22100185452883
10gcbza,1,复兴东路404弄,121.49679433629557,31.221527604000396
10gcbzb,1,复兴东路427弄,121.49677098182649,31.221883862083224
10gcbzc,1,复兴东路464弄,121.49608543328421,31.221673519217514
10gcbzd,1,复兴东路699号,121.49065700079605,31.22229084942198
10gcbze,1,复兴中路408弄,121.4736061115294,31.21651208028222
10gcbzf,1,复兴中路485弄,121.47170549920301,31.214896524152017
10gcbzg,1,复兴中路498弄,121.47222161411455,31.215910367261454
10gcbzh,1,复兴中路553弄,121.46689180390149,31.214651734438434
10gcbzi,1,复兴中路575号,121.46571604544167,31.214827875803493
10gcbzj,1,复兴中路583弄,121.46577440474977,31.21467735403114
10gcbzk,1,复兴中路616弄,121.46363901190318,31.215001063882653
10gcbzl,1,皋兰路25弄,121.46507501011992,31.21678461703973
10gcbzm,1,高家弄45弄,121.48900055702583,31.22106811955206
10gcbzn,1,牯岭路145弄,121.47148454563539,31.235738394281224
10gcbzo,1,光启路105号,121.49437483827944,31.22399032190351
10gcbzp,1,光启路129号,121.49432328984567,31.223736456394935
10gcbzq,1,光启路131号,121.49445859638149,31.223660134132235
10gcbzr,1,光启路215号,121.49397716207392,31.22275791735107
10gcbzs,1,广东路138号,121.48794567918424,31.233947049373718
10gcbzt,1,广东路154号,121.48820097522761,31.233719148317295
10gcbzu,1,广东路159号,121.48815385433427,31.23351800229752
10gcbzv,1,广东路212号,121.4867153754572,31.23335166407681
10gcbzw,1,广东路240号,121.48676648683904,31.23314974093064
10gcbzx,1,广东路339号,121.48474405423758,31.232146765020584
10gcbzy,1,广东路414弄,121.48328879390222,31.233442502219745
10gcbzz,1,广东路543号,121.48118905437892,31.23166450494283
10gcc00,1,广东路614号,121.47979603669445,31.231584852518584
10gcc01,1,广东路656号,121.4792737159488,31.231297620938538
10gcc02,1,广西北路109弄,121.47879442082721,31.231372953029094
10gcc03,1,广西北路124号,121.47868881811301,31.231453939512008
10gcc04,1,广西北路228弄,121.47854384411956,31.233155234977676
10gcc05,1,广西北路255弄,121.47745679543736,31.23390596617468
10gcc06,1,广西北路423号,121.47685820906493,31.23603674786664
10gcc07,1,广西北路424号,121.47691596488913,31.236211743689392
10gcc08,1,广西北路429号,121.47673627033237,31.236247217708023
10gcc09,1,广西北路433号,121.47663517163598,31.236356879993238
10gcc0a,1,广西北路435号,121.47660258359561,31.2363501704565
10gcc0b,1,广西北路437号,121.47675124996167,31.236571852705254
10gcc0c,1,广西北路442号,121.4768052218781,31.236634613309754
10gcc0d,1,贵州路131弄,121.47593542084151,31.236125389532344
10gcc0e,1,贵州路133号,121.47588058144602,31.236380642777647
10gcc0f,1,贵州路153号,121.47580301524465,31.23686018333784
10gcc0g,1,贵州路157号,121.47593461190701,31.236901362602765
10gcc0h,1,贵州路161号,121.47607696139038,31.236805351118722
10gcc0i,1,贵州路182号,121.47592136354744,31.237255821263787
10gcc0j,1,贵州路198弄,121.47528906876285,31.237356876229388
10gcc0k,1,贵州路77弄,121.47630744326698,31.235640139063218
10gcc0l,1,贵州路82号,121.47644369781388,31.235216070925127
10gcc0m,1,国货路190号,121.49353290104509,31.208778972080523
10gcc0n,1,国货路236号,121.49506133749694,31.208684229907973
10gcc0o,1,海潮路240弄,121.497181712644,31.207719452644092
10gcc0p,1,海潮路93弄,121.49946685286417,31.21038492583098
10gcc0q,1,海口路11号,121.4808883048774,31.231209642344893
10gcc0r,1,海口路19号,121.48083322766881,31.231545900666372
10gcc0s,1,汉口路425号,121.48243911590691,31.235054151894406
10gcc0t,1,汉口路445号,121.48183322825138,31.234811071259134
10gcc0u,1,汉口路558号,121.47987171685611,31.234262548308894
10gcc0v,1,汉口路618号,121.47876747026767,31.234262223753014
10gcc0w,1,汉口路689弄,121.47731602435545,31.233165632923523
10gcc0x,1,合肥路343号,121.4733490616515,31.213916000943556
10gcc0y,1,合肥路349弄,121.47327554463592,31.213723624912483
10gcc0z,1,和顺街25号,121.49718475069149,31.220409942759748
10gcc10,1,和顺街38号,121.49643360082638,31.220517296177356
10gcc11,1,和顺街49号,121.4968822730588,31.22055916930182
10gcc12,1,和顺街53弄,121.4966559805484,31.220584397795072
10gcc13,1,河南南路1001弄,121.49343068896763,31.21358227717074
10gcc14,1,河南南路159号,121.48797575677172,31.227628934495772
10gcc15,1,河南南路1号,121.48717991870456,31.23074338424654
10gcc16,1,河南南路398弄,121.48858754406174,31.22286913045396
10gcc17,1,河南南路555弄,121.49077938534388,31.22064645083564
10gcc18,1,河南南路592弄,121.4906507805897,31.220210514872747
10gcc19,1,河南南路600弄,121.49077278367832,31.219975855402993
10gcc1a,1,河南南路612弄,121.49073469290651,31.21957033974497
10gcc1b,1,河南中路154号,121.48628873663023,31.23372578808345
10gcc1c,1,河南中路160号,121.48634323332226,31.233639892131134
10gcc1d,1,河南中路166弄,121.48488798425689,31.233710672631915
10gcc1e,1,河南中路168号,121.48636127171375,31.233695171778095
10gcc1f,1,河南中路170号,121.4862627440799,31.233934412271946
10gcc1g,1,河南中路174号,121.48616758151302,31.23370131398047
10gcc1h,1,河南中路176号,121.48594868023157,31.23403509973229
10gcc1i,1,河南中路88号,121.48671884586503,31.232514751312106
10gcc1j,1,淮海中路282号,121.47463572269837,31.22386921315468
10gcc1k,1,淮海中路494弄,121.46970282412704,31.221553915654578
10gcc1l,1,淮海中路593弄,121.4676294023205,31.220388892560425
10gcc1m,1,淮海中路605号,121.46724827887229,31.22032887661074
10gcc1n,1,淮海中路613弄,121.46738544227034,31.219655265680863
10gcc1o,1,淮海中路622弄,121.46654457138591,31.220593704939002
10gcc1p,1,淮海中路833弄,121.4626972319176,31.218191333351765
10gcc1q,1,淮海中路927弄,121.46084115855889,31.21602529324821
10gcc1r,1,黄陂南路586号,121.47651596679248,31.2161012324587
10gcc1s,1,黄陂南路596弄,121.47660735354452,31.215584751655268
10gcc1t,1,黄陂南路685弄,121.47815046677451,31.214166251064825
10gcc1u,1,黄陂南路847弄,121.47899019044704,31.21112903591589
10gcc1v,1,黄河路107弄,121.46911949201798,31.233675671719574
10gcc1w,1,黄河路125弄,121.47048518817681,31.234864921855042
10gcc1x,1,黄河路132弄,121.47088212037967,31.235404473239935
10gcc1y,1,黄河路205号,121.46951444526259,31.236266758482653
10gcc1z,1,黄河路213号,121.4697351032321,31.236505183261503
10gcc20,1,黄河路215弄,121.46879452426039,31.23647591972555
10gcc21,1,黄河路221号,121.46937849356469,31.236404250605318
10gcc22,1,黄河路223弄,121.46946298764347,31.236680159272122
10gcc23,1,黄河路231弄,121.46870749270884,31.23632092691263
10gcc24,1,黄河路239号,121.46926695976411,31.237109864763934
10gcc25,1,黄河路240弄,121.47081976725558,31.233704768161296
10gcc26,1,黄河路253弄,121.46719481822541,31.237317896633222
10gcc27,1,黄河路257号,121.46954075365136,31.237072135701272
10gcc28,1,黄河路281弄,121.468703072584,31.23735004153861
10gcc29,1,黄河路289号,121.46907609947975,31.23755836563701
10gcc2a,1,黄河路310弄,121.46823466073918,31.23630142394221
10gcc2b,1,黄河路362号,121.46903866830573,31.238416247682764
10gcc2c,1,黄家路88弄,121.49621719542755,31.215299806668863
10gcc2d,1,黄家路99弄,121.49690743074004,31.21587456572151
10gcc2e,1,黄家阙路156号,121.48869380299914,31.214091219372264
10gcc2f,1,黄家阙路38弄,121.48728559074475,31.215077234881683
10gcc2g,1,黄家阙路68弄,121.48743861955796,31.215204052222223
10gcc2h,1,黄家阙路72弄,121.48729330144009,31.214849358257773
10gcc2i,1,黄家阙路76弄,121.48739864708604,31.214919966677616
10gcc2j,1,黄家阙路88弄,121.48746850078273,31.214659109195946
10gcc2k,1,会稽路38弄,121.48211824052753,31.222923877953868
10gcc2l,1,火腿弄55弄,121.49541027925883,31.22160607406099
10gcc2m,1,建国东路115弄,121.47884383329675,31.21278063452336
10gcc2n,1,建国东路17弄,121.47835581380605,31.212967579170336
10gcc2o,1,建国东路39弄,121.4799624571859,31.213706907483928
10gcc2p,1,建国西路56弄,121.46528345498844,31.2083796549642
10gcc2q,1,建国西路91弄,121.4653139684273,31.206593017161566
10gcc2r,1,建国中路103弄,121.46934740339867,31.209488970656786
10gcc2s,1,建国中路155弄,121.46773029487512,31.208496145613033
10gcc2t,1,江西中路114号,121.48785242236144,31.23368345787493
10gcc2u,1,江西中路128号,121.48766095386722,31.233693351914887
10gcc2v,1,江西中路130号,121.48788882152044,31.233992623049293
10gcc2w,1,江西中路135弄,121.48677759566486,31.23355512063528
10gcc2x,1,江西中路141号,121.48721304314988,31.234273118839315
10gcc2y,1,江西中路304号,121.48650442896361,31.238292955196595
10gcc2z,1,江西中路314号,121.48641834197778,31.238530484177385
10gcc30,1,江西中路368号,121.48585165638242,31.23968453378302
10gcc31,1,江西中路412弄,121.48576549472034,31.241390990929023
10gcc32,1,江西中路451号,121.48485281805348,31.241496292114874
10gcc33,1,江西中路452号,121.48508790534802,31.241878757467227
10gcc34,1,江西中路460弄,121.48567011620639,31.241943615644338
10gcc35,1,江西中路467号,121.48483727155524,31.24181893335747
10gcc36,1,江西中路473号,121.4847314083708,31.242344424392492
10gcc37,1,江西中路6号,121.48677609391706,31.234091773500012
10gcc38,1,江阴街401弄,121.49172332937881,31.214009762111587
10gcc39,1,江阴路126号,121.46840515769057,31.229554475917542
10gcc3a,1,江阴路130弄,121.46881123351608,31.22956207866824
10gcc3b,1,江阴路157号,121.4674370195986,31.229407154613188
10gcc3c,1,江阴路88弄,121.46865861416389,31.229989181514213
10gcc3d,1,金家坊55号,121.48697421684263,31.222014226382797
10gcc3e,1,金陵东路183弄,121.48860128584968,31.230110940840316
10gcc3f,1,金陵东路57号,121.4911699577003,31.231502313596394
10gcc3g,1,金陵东路67号,121.49105445075054,31.23146658349356
10gcc3h,1,金陵西路50号,121.47222743813245,31.223898650692462
10gcc3i,1,进贤路122弄,121.45974222874106,31.221776560673653
10gcc3j,1,进贤路156弄,121.45925323268824,31.221874566602736
10gcc3k,1,静修路114弄,121.48723653773669,31.219043180956714
10gcc3l,1,静修路41号,121.48779692650778,31.22025694260566
10gcc3m,1,静修路79弄,121.48711077232217,31.220069814949834
10gcc3n,1,静修路95号,121.4867836536969,31.219814894679637
10gcc3o,1,九江路202号,121.48608330784978,31.236882711772935
10gcc3p,1,九江路210号,121.485846582978,31.236853475472795
10gcc3q,1,九江路218弄,121.48614156655529,31.237056296779837
10gcc3r,1,九江路619号,121.47853708973405,31.234396530878232
10gcc3s,1,局门后路1号,121.48051295176062,31.20856031374711
10gcc3t,1,局门后路21号,121.48086561212378,31.20874728352385
10gcc3u,1,局门后路3号,121.47999174371294,31.209705618937356
10gcc3v,1,局门路1弄,121.48011394522437,31.208790356663947
10gcc3w,1,局门路241弄,121.48049755494631,31.207683648324213
10gcc3x,1,局门路295弄,121.48175440122361,31.204949244932063
10gcc3y,1,局门路434弄,121.48114800699778,31.202532478039934
10gcc3z,1,局门路436号,121.48170872685446,31.202847529232873
10gcc40,1,巨鹿路158号,121.46624158692354,31.223061622294736
10gcc41,1,巨鹿路1号,121.46941054298071,31.22333595614431
10gcc42,1,巨鹿路371号,121.45953211321994,31.222674023805457
10gcc43,1,巨鹿路383弄,121.45910952204812,31.222613194499083
10gcc44,1,聚奎新村,121.49621733286727,31.223284219652083
10gcc45,1,丽园路1016弄,121.4724374222481,31.205359925974108
10gcc46,1,丽园路333弄,121.48371569807865,31.20983143939947
10gcc47,1,丽园路33号,121.48991343638995,31.211253658505807
10gcc48,1,丽园路43弄,121.48913432188465,31.21161653575969
10gcc49,1,丽园路546号,121.48136258760347,31.207163376077066
10gcc4a,1,丽园路65号,121.48911794570766,31.210715068103205
10gcc4b,1,丽园路68弄,121.48965481129747,31.21047789304313
10gcc4c,1,丽园路710弄,121.47957721934127,31.20629494442608
10gcc4d,1,丽园路842弄,121.47634080658078,31.20597442318471
10gcc4e,1,丽园路879号,121.47579976489993,31.20647842060264
10gcc4f,1,丽园路881号,121.47540754707852,31.206772955353266
10gcc4g,1,丽园路885号,121.47494689887715,31.2064680185091
