SH_ID_36,区36,地址,lng,lat
10fryxl,d,爱辉路319号,121.45336334894432,31.334969101785425
10fryxk,d,白杨村,121.39623222118325,31.34213969776336
10fryxj,d,宝荻路535弄,121.39585175470154,31.36091716650045
10fryxi,d,宝林一村,121.48321350057174,31.400398883052993
10fryxh,d,宝祁路399号,121.34902066751869,31.30301059618557
10fryxg,d,宝杨路3288号,121.43759068033414,31.371393802273726
10fryxf,d,场北路399弄,121.43070298868537,31.334426893142968
10fryxe,d,大华路455弄,121.41579245346551,31.27108074347347
10fryxd,d,大康路896弄,121.42348879045376,31.33078157377315
10fryxc,d,丹霞山路257弄,121.36295728521328,31.361782176470868
10fryxb,d,东街村,121.43745035127809,31.3822011688812
10fryxa,d,东太路80弄,121.36744608583167,31.38619705174621
10fryx9,d,丰皓路138弄,121.39454400487766,31.305299970602114
10fryx8,d,丰皓路633弄,121.3898433065764,31.305311114463606
10fryx7,d,富锦路1500号,121.44606991703577,31.403180306422907
10fryx5,d,富联一路19号,121.41507630173828,31.370152807367447
10fryx6,d,富南路199弄,121.36619128666888,31.389730366426107
10fryx4,d,高逸路201弄,121.48952796150535,31.325246980036702
10fryx2,d,共富二村,121.4318837428279,31.350192647156398
10fryx1,d,共富四村,121.42490333292412,31.349947357593237
10fryx0,d,共和新路4719弄,121.44955780510138,31.319204380426157
10frywz,d,共和一村,121.4642559211653,31.322298824655164
10frywy,d,共康六村二居,121.44110915910393,31.324832664953504
10frywx,d,共康七村,121.43614971335325,31.327387119642957
10fryww,d,顾北东路500弄,121.40971086686682,31.355943936910112
10frywv,d,海滨八村,121.49981086267724,31.382399681047914
10frywu,d,海笛路199弄,121.41845846382358,31.388573392604222
10frywt,d,海星村,121.35574392232625,31.4839530183096
10fryws,d,涵青路100弄,121.40234463100167,31.33302659760726
10frywr,d,合建村,121.33615307958671,31.466299918412847
10frywq,d,呼兰路515弄,121.4499536498802,31.346920979975494
10frywp,d,呼玛二村,121.44656112782367,31.340742241608325
10frywo,d,呼玛四村,121.44524622064857,31.343900994924375
10frywn,d,呼玛一村,121.45190743498098,31.34178147116071
10frywm,d,虎林路688号,121.45049179261687,31.34438706661086
10frywl,d,沪太路3611弄,121.40845436351317,31.325325580772382
10frywk,d,沪太路7000弄,121.44189125661934,31.26802307119308
10frywj,d,华和路728弄,121.3958332968567,31.292847770914403
10frywi,d,华灵路1900弄,121.40447802633906,31.277510749819466
10frywh,d,华灵路1936号,121.40245412763105,31.279912670801103
10frywg,d,华秋路58弄,121.3802863317306,31.319768707172358
10frywf,d,吉浦路521号,121.49026182166396,31.313253059015253
10frywe,d,集贤路501弄,121.35403743512671,31.421797510819058
10frywd,d,集贤路89号,121.35293380238551,31.42395225751273
10frywc,d,教育路555弄,121.39519089086927,31.357086458972322
10frywb,d,锦秋路1188弄,121.38391106906354,31.31952232323397
10frywa,d,菊泉街1280弄,121.37205440336672,31.360662786390513
10fryw9,d,菊泉街1346弄,121.36995013202836,31.3630502310061
10fryw8,d,菊太路1399弄,121.35291234398036,31.345942735376674
10fryw7,d,菊太路1755弄,121.34597205268902,31.34471555835594
10fryw6,d,菊太路300弄,121.37380831577651,31.35395165254776
10fryw5,d,老安村,121.37332866857453,31.365724567922783
10fryw4,d,莲花山路517弄,121.44518571064415,31.362084734163293
10fryw3,d,联长路221号,121.46264167671153,31.337886844012605
10fryw2,d,罗南二村,121.36640752119673,31.387792568966876
10fryw1,d,罗太路869弄,121.33926660582401,31.427351638545804
10fryw0,d,罗迎路800弄,121.35409905429141,31.40884935052403
10fryvz,d,梅林路866弄,121.43527266455523,31.371147550213575
10fryvy,d,湄浦村,121.42593402841521,31.387453982426184
10fryvx,d,美安路215弄,121.35225746009681,31.38821174614114
10fryvw,d,南蕰藻路776号,121.42397076879367,31.33630700046651
10fryvv,d,南长路111弄,121.36694282258034,31.384491340458148
10fryvu,d,南周村,121.34043644422309,31.377711900002463
10fryvt,d,潘广路1765弄,121.36787970852376,31.364815283293062
10fryx3,d,潘桥村,121.32684293077722,31.45478766615192
10fryvs,d,祁连四村,121.38246151332889,31.316778670913134
10fryvr,d,钱潘村,121.40013069826597,31.43172205811096
10fryvq,d,乾溪路101弄,121.4124036929686,31.304828374747455
10fryvp,d,勤丰村,121.39250788423774,31.414756555184002
10fryvo,d,三泉路1858弄,121.43759954470767,31.33285986543798
10fryvn,d,沙浦路128弄,121.38869445009142,31.356886261241172
10fryvm,d,沙浦路518弄,121.38207952638335,31.356360879673023
10fryvl,d,沈巷村,121.41144522575856,31.419795054388395
10fryvk,d,石太路3512弄,121.34287957806195,31.429827424174835
10fryvj,d,水产西路489弄,121.42064461072248,31.360097448828732
10fryvi,d,水产西路999弄,121.40979302255492,31.35460497883592
10fryvh,d,松兰路198弄,121.45101047553717,31.367887097328648
10fryvg,d,淞滨路860弄,121.48826956542024,31.36922262234665
10fryvf,d,绥化路201弄,121.43197556846029,31.40721403517221
10fryve,d,泰和路2008号,121.44032123828336,31.355613205857182
10fryvd,d,泰和西路3381弄,121.40717653935408,31.351223905248453
10fryvc,d,泰和西路3463弄,121.4060051167908,31.349662150108045
10fryvb,d,塘西街397弄,121.34254245528808,31.42171560404549
10fryva,d,塘西街398弄,121.33927063050069,31.42092895538482
10fryv9,d,天家路200弄,121.33783350100494,31.384181230727975
10fryv8,d,铁城路1555弄,121.45235751173279,31.355605883826783
10fryv7,d,铁山路69号,121.46985175159729,31.363980814481145
10fryv6,d,通河二村,121.44699053428295,31.333849742959103
10fryv5,d,通河七村,121.45178124960279,31.329422354249843
10fryv4,d,通河一村,121.44714695237677,31.333807504360212
10fryv3,d,同济支路88号,121.4945538663336,31.37971929102959
10fryv2,d,五星村,121.3468512235829,31.304821777220504
10fryv1,d,萧云路1318弄,121.33159716565129,31.455993141678604
10fryv0,d,肖泾村,121.32334607874839,31.46537251603971
10fryuz,d,新沪路198弄,121.4202949614093,31.268900090228957
10fryuy,d,新沪路960弄,121.41896870668279,31.27280547990409
10fryux,d,杨泰二村,121.44074465324836,31.369419118449265
10fryuw,d,杨泰路99弄,121.4510056109675,31.366619275737715
10fryuv,d,杨泰三村,121.4492167576323,31.362792361038128
10fryuu,d,一二八纪念东路518弄,121.47860058876228,31.328028027296945
10fryut,d,逸仙路1321弄,121.48754375379963,31.315595287684694
10fryus,d,友谊路918号,121.47131900559901,31.399782520044315
10fryur,d,远景村,121.33773873058881,31.404048684374317
10fryuq,d,长春村,121.38842708012965,31.40726359943677
10fryup,d,长江路868号,121.48343324264702,31.34626379959352
10fryuo,d,长江西路1470号,121.45321832355096,31.335462342938907
10fryun,d,朱家弄村,121.38772132455408,31.340498662267876
10fryum,d,竹韵路259弄,121.4412383143199,31.366935934411995
10frz8d,u,创建村,121.61286717914882,31.42855488847921
10frz89,u,江南大道,121.73787403359549,31.368398701537416
10frz8a,u,骏马村,121.64302409545132,31.589129574024913
10frz8c,u,湾南村,121.37738106229006,31.66199684211577
10frz8b,u,西门北村,121.39001918541462,31.62641804845326
10frz6w,k,北丁村,121.5693745521204,30.956627451131176
10frz6j,k,北塘村,121.5755009313082,30.92831722327702
10frz71,k,博丰路158弄,121.49630870580597,30.96428389920833
10frz83,k,蔡家桥村,121.644647408824,30.985082740589807
10frz6u,k,蔡桥村,121.64391516674209,30.975071132308546
10frz7t,k,城乡东路5弄,121.58752157416525,30.920477983519078
10frz7g,k,大叶公路6288弄,121.55638999712123,30.975504723228603
10frz85,k,大叶公路6712弄,121.56604247461631,30.978869495251267
10frz7d,k,大叶公路6719弄,121.56584540901486,30.98274240693737
10frz76,k,奉城村,121.64228142140354,30.91545311992305
10frz6n,k,奉柘公路3288弄,121.53868169674514,30.869324256567726
10frz6z,k,港佳路515弄,121.73330179907165,30.931604161645385
10frz7q,k,高桥村,121.6316405230619,30.914762559984162
10frz6o,k,工农村,121.53672177724718,30.911676769143966
10frz68,k,光辉村,121.58149058381936,30.992277088698884
10frz86,k,广丰路100弄,121.49656985226895,30.9592198461504
10frz6t,k,广福路29号,121.75890021505766,31.523366044441087
10frz81,k,国光村,121.54457593537427,30.976259854436613
10frz87,k,航南公路2880号,121.52390137973892,30.964492008403354
10frz7s,k,和平村,121.62590577202273,30.96650694929616
10frz6b,k,和中村,121.55228180853872,30.934632164229534
10frz7y,k,沪杭公路66弄,121.44293881145192,30.96224905069889
10frz7h,k,环城东路885弄,121.47015571589853,30.92814072709374
10frz7z,k,汇安小区,121.39910736095122,30.96300024713411
10frz7i,k,江海二村,121.45660877112016,30.901841724789737
10frz6f,k,江南路151号,121.46321173850635,30.90282802537255
10frz6r,k,解放村,121.53675171376312,30.9009428159282
10frz6s,k,金碧路1980弄,121.50824569332326,30.971415759541628
10frz88,k,金海公路2898弄,121.50133994204397,30.900389562480466
10frz7l,k,金齐路348弄,121.49266039076686,30.9543093512209
10frz79,k,金闸公路225弄,121.50173358309598,30.98249163113425
10frz70,k,军民村,121.45078503719502,30.896310265627378
10frz7m,k,李窑村,121.59162692397106,30.9135757175615
10frz6g,k,燎原三组,121.47422122519919,30.917738530128965
10frz7p,k,陆家桥村,121.62508777692419,30.956637017196616
10frz7r,k,陆桥村,121.61656252935217,30.940721562297433
10frz77,k,路口村,121.61661505159442,30.93465769508268
10frz7e,k,梅园村,121.5968954434203,30.99065792477023
10frz7n,k,民乐路28弄,121.56459101422479,30.861799715767965
10frz6v,k,明星村,121.55294243202276,30.981857169414507
10frz6h,k,南陈村,121.54788518101131,30.967844165390392
10frz6m,k,南奉公路3111弄,121.57409211594236,30.923188021107986
10frz7c,k,南奉公路999号,121.61980961076924,30.914169262143588
10frz7b,k,南明路191号,121.57740694577332,30.927637729199166
10frz6k,k,南行村,121.50999490855524,30.973789953127667
10frz84,k,农民街505弄,121.5168629095058,30.95316633466704
10frz75,k,农商路16弄,121.68288125548536,30.925479708445703
10frz74,k,浦秀村,121.40417411406527,30.982329243904378
10frz7x,k,青工路588号,121.59358865944293,30.933589302803462
10frz69,k,青伟路111号,121.60445219866834,30.93308635695039
10frz7w,k,上塑路965弄,121.57636858720423,30.917660825526053
10frz6d,k,泰青公路619弄,121.57019115915912,30.91747728214132
10frz7f,k,泰叶路159弄,121.56106609242669,30.977481964758713
10frz6e,k,湾张村,121.52992560123299,30.92063235772305
10frz72,k,文明街2号,121.51117620876933,30.953905437536868
10frz6y,k,吴塘路529弄,121.44349668109197,30.961532409445148
10frz82,k,五宅村,121.48751175546624,30.99298647518248
10frz6a,k,西吴村,121.58064683342303,30.945398776386767
10frz7v,k,西校村,121.4031797747899,30.93526571749375
10frz7u,k,西闸公路1678号,121.43119102036032,30.98543607832755
10frz6p,k,贤政路333弄,121.48086337139937,30.921203505815736
10frz78,k,肖塘路146号,121.43749103847053,30.962691200841988
10frz6i,k,新群路54弄,121.5846206977957,30.923348646677038
10frz7o,k,新叶村,121.37633765350692,30.958331138084127
10frz7j,k,星火21连,121.56989252558539,30.859734692613426
10frz73,k,杨溇村,121.37624975354717,30.8968266821315
10frz6c,k,姚家村,121.57950580458844,30.916904682332444
10frz7k,k,长丰路176号,121.54347924320614,30.87376380837688
10frz6q,k,振浦路106弄,121.57732136882423,30.92516819433315
10frz6x,k,周家村,121.59872877997144,30.987424211684786
10frz6l,k,朱店村,121.5541766465638,30.919455611802515
10frz80,k,朱家港东村,121.39732066839845,30.903471761494878
10frz7a,k,朱新村,121.68933474993537,30.903512829751353
10fryto,9,车站北路491弄,121.47404531638652,31.295917194550462
10frytm,9,广灵四路572弄,121.46983463399965,31.289402297868527
10frytp,9,广中五村,121.47654029237268,31.277720467678186
10frytn,9,海伦路350弄,121.49128425813765,31.258088106188595
10frytq,9,凉城路847弄,121.47032571459074,31.299556887024803
10frytr,9,水电路1013弄,121.47868863467646,31.288565178130327
10fryl4,1,北孔家路23弄,121.46941951869702,31.230052967129865
10frykh,1,曹家街40弄,121.48563923132933,31.219392706516995
10fryml,1,曹市弄42弄,121.48932234050676,31.21874056011274
10frylu,1,曹市弄48号,121.4893731843873,31.218782511678032
10fryj7,1,车站支路9弄,121.49337124763525,31.208871074065087
10frylh,1,打浦路316弄,121.47108354395772,31.20004121572257
10fryjw,1,打浦路339弄,121.47207263992574,31.19979428102225
10fryl8,1,大境路50号,121.48692758322747,31.225235110222545
10fryjv,1,大兴街115弄,121.48960813148999,31.212960294244347
10fryko,1,东刘家弄15号,121.49804741742919,31.223880228398706
10fryki,1,东台路279号,121.48266494456718,31.217265966837047
10fryjr,1,复兴东路451弄,121.4962184359028,31.222150236739655
10fryla,1,复兴东路663弄,121.49183871117881,31.221992185076573
10fryk8,1,复兴中路485弄,121.47183715885848,31.214727458327097
10frykv,1,复兴中路565弄,121.46609738812424,31.21463946273131
10frymo,1,高家弄46号,121.48899815593083,31.22100768114723
10fryng,1,光启路119弄,121.49462133221907,31.223971494658393
10frynb,1,光启南路307号,121.49539890547248,31.217141477217957
10frynj,1,光启南路363号,121.49516771594105,31.216231839328113
10frylm,1,广东路610号,121.4799838603945,31.23156826093444
10fryjl,1,国货路236号,121.49500115150302,31.20896541408812
10fryk0,1,国货路8号,121.4978078574205,31.207775880343544
10fryjc,1,海潮路240弄,121.49727474098866,31.207725313551133
10fryjd,1,海潮路256弄,121.49674614706136,31.207259382168814
10fryjh,1,海潮路93弄,121.49959371818524,31.210408433918914
10fryj9,1,海南西弄52号,121.50084312632245,31.21410263957939
10fryl5,1,河南南路300弄,121.48741384846532,31.22501147089411
10fryl7,1,河南南路368弄,121.48777014427867,31.223673397448536
10fryl6,1,河南南路398弄,121.4885270057947,31.222589579435056
10fryln,1,河南南路555弄,121.49109516820776,31.220656291316562
10frymz,1,河南南路612弄,121.4907778663462,31.21961948865071
10frykp,1,黄家路55弄,121.49699170415575,31.21587323213491
10frymj,1,黄家路88弄,121.49610121246292,31.21541621978967
10frylr,1,黄家路99弄,121.4967705999425,31.216141341110017
10fryll,1,黄家阙路68弄,121.48737762726039,31.215203753947584
10frykf,1,黄家阙路76弄,121.48749594481433,31.214634436617995
10frymf,1,济南路260弄,121.47921803326342,31.216632863661587
10fryjp,1,建国中路18号,121.46968704537062,31.209988619707392
10fryme,1,建国中路43号,121.47046290739972,31.209862884194738
10fryku,1,江阴街428弄,121.48924581429685,31.209316792950347
10frym0,1,静修路107号,121.48687509388832,31.21989372143669
10frylv,1,静修路10弄,121.48852894000082,31.219666306650925
10fryjq,1,静修路114弄,121.48744163196166,31.219188422239302
10frykt,1,静修路126弄,121.48646025695483,31.219506928460035
10frylx,1,静修路12号,121.48826283854471,31.219927370940326
10fryn5,1,静修路23号,121.48828858293463,31.22006103736829
10fryn4,1,静修路35弄,121.48811818444136,31.2200226272486
10fryn3,1,静修路36弄,121.48629802650115,31.219468699282235
10frymu,1,静修路37弄,121.48774613982883,31.220315563502602
10frylw,1,静修路43号,121.48711923896138,31.219103502837793
10frym5,1,静修路47号,121.48797551110589,31.22024748991763
10frym4,1,静修路64弄,121.48775918739862,31.220051055368824
10frym1,1,静修路66号,121.48762584515585,31.22007029830372
10frym9,1,静修路83号,121.48720944799618,31.219704331602895
10fryma,1,静修路85号,121.48729607504008,31.219936702770188
10frymh,1,局门路599弄,121.48329410285899,31.200739870650985
10frylf,1,聚奎新村,121.4960743436929,31.22324205641394
10frykq,1,老道前街30弄,121.48726355329751,31.21797224628969
10fryls,1,老太平弄209弄,121.49859972634313,31.222978470461165
10frylo,1,丽园路488弄,121.48205090449389,31.2078477197431
10fryjb,1,丽园路875号,121.47586000759871,31.20675289581746
10frymx,1,柳江街16弄,121.48949550356669,31.219242645396193
10fryn9,1,龙华东路385号,121.4792560165741,31.19598690229954
10frym2,1,龙华东路888弄,121.47109641964798,31.192950933491417
10fryka,1,鲁班路168弄,121.47316089574262,31.2049486033208
10fryn0,1,鲁班路738弄,121.47738550089028,31.19441982409012
10frykw,1,陆家浜路1011号,121.48915342325968,31.212671380862346
10frynf,1,陆家浜路431弄,121.49214210003731,31.21266501346115
10fryj1,1,陆家浜路468弄,121.49743564084385,31.21026167560061
10fryks,1,蒙自路490弄,121.47964474236764,31.200804214279678
10fryk2,1,蒙自西路28弄3号,121.47602552994617,31.20705256503359
10frykz,1,梦花街163弄,121.4865950168922,31.218811534109648
10frykm,1,梦花街191弄,121.48600901171135,31.218296602691602
10frylk,1,梦花街234号,121.48580635078238,31.217941686318788
10frym8,1,梦花街57弄,121.4884420162311,31.219218310102388
10frymb,1,梦花街68号,121.48830636292288,31.219120552617028
10frym3,1,梦花街73弄,121.48840793953008,31.219126917207312
10frym6,1,梦花街78弄,121.48856365178492,31.218352824168885
10frynh,1,梦花街79号,121.4884504137555,31.21909056025184
10frynm,1,梦花街93弄,121.48804832653435,31.21886880270774
10frynk,1,南昌路110弄,121.4680709783822,31.219472803851723
10fryj6,1,南车站路318弄,121.49191897836081,31.207318879097855
10fryl1,1,蓬莱路257号,121.48984541237303,31.217480476375396
10frykx,1,蓬莱路257弄,121.48867187493109,31.216837764102106
10frykg,1,蓬莱路358号,121.48847683803244,31.216433172707436
10frykr,1,蓬莱路421弄,121.48772367651364,31.216571580478583
10fryje,1,普育东路200弄,121.49571336061948,31.20784671937937
10fryjf,1,普育东路7号,121.49603930721906,31.211267317355855
10frylq,1,乔家路19弄3号,121.4976127635907,31.21705927279167
10fryms,1,瞿溪路1199弄,121.47134102405381,31.198359321902362
10fryjn,1,瞿溪路1200弄,121.47280575040716,31.197138154454
10fryjj,1,瞿溪路120弄,121.49543221778038,31.20677688994498
10frylj,1,瞿溪路1240弄,121.47078464434479,31.196927450118256
10fryjg,1,瞿溪路57号,121.49604754802903,31.207413630227062
10fryne,1,瞿溪路904弄,121.47923921756639,31.199889216789487
10fryna,1,人民路885号,121.48343967049573,31.2256207243398
10frykl,1,瑞金二路129弄,121.4654471156271,31.213469127686295
10fryju,1,瑞金二路410弄,121.46586783823138,31.206858008585048
10fryl0,1,瑞金南路185弄,121.46869234385485,31.200503171631624
10frykk,1,陕西南路213号,121.46116209707569,31.212845305113856
10frynl,1,陕西南路278弄,121.45898480344142,31.21584125877005
10fryke,1,尚文路133弄,121.49142543467579,31.215699666166934
10fryiz,1,顺昌路580号,121.4793347579962,31.211566934407454
10fryk9,1,四川中路126弄5号,121.48940758859484,31.2345562597225
10fryk7,1,四牌楼路114号,121.49522091244134,31.223715988420913
10fryld,1,四牌楼路147号,121.49529385838282,31.225281488752387
10frylc,1,四牌楼路149号,121.49548567908634,31.22295161614974
10frymi,1,四牌楼路71号,121.4955132699989,31.224484196814398
10fryle,1,四牌楼路95弄,121.49565725619739,31.223913919257352
10frymp,1,文庙路31弄,121.4902501049793,31.219397830581855
10frymn,1,文庙路87弄,121.48986483629365,31.218537687619243
10fryly,1,吾园街10弄,121.4928564221961,31.216995997552157
10frykd,1,吾园路142号,121.49152547535509,31.21680241951543
10fryk4,1,五里桥路269弄,121.48006843549433,31.204028914526887
10frymt,1,西仓桥街112弄,121.4896718279966,31.22042450573461
10fryn8,1,西仓桥街155号,121.48931091314246,31.22017665116103
10fryjt,1,西仓桥街1号,121.48926894126251,31.22026989357912
10frymy,1,西仓桥街过街楼,121.48907600221304,31.220445181671334
10fryji,1,西藏南路1374弄,121.4862698029156,31.20568711027897
10fryj2,1,西藏南路1717弄,121.49144002147303,31.19987276353224
10fryj3,1,西藏南路1739弄,121.4919511301126,31.199182286701486
10fryl3,1,西藏南路688弄,121.48312191088871,31.216453958519715
10frymq,1,小桃园街40弄,121.48913471413184,31.221369945035555
10frymm,1,小桃园街50弄,121.48935641151137,31.22092868761746
10fryja,1,斜土东路68弄,121.49106679171068,31.20824484568401
10frymg,1,斜土路251弄,121.48066994449657,31.205985642223766
10fryk1,1,斜土路330弄,121.47936252547612,31.204076170804917
10fryjy,1,斜土路468号,121.47744902406687,31.20343356530005
10fryk3,1,斜土路486弄,121.47766763196427,31.202451802575304
10fryn1,1,斜土路520号,121.47643097373027,31.203139971748676
10fryk5,1,斜土路810弄,121.47002626090953,31.200616572004893
10frymc,1,学宫街23弄,121.48840220103929,31.218715044641815
10fryn2,1,学宫街53弄,121.48859595112879,31.218458702375408
10frylg,1,学院路72号,121.49591292189922,31.22298680550369
10fryjm,1,延安东路8号,121.49139312711672,31.232337688007263
10frylz,1,也是园弄68号,121.49275871150112,31.217145281956455
10frykn,1,仪凤弄115弄,121.48570115347378,31.219229165266977
10fryl2,1,迎勋北路8弄,121.48962493921267,31.21703355366586
10frykc,1,迎勋路100弄,121.49112352407798,31.213062399544768
10fryk6,1,永年路149弄,121.47873204004998,31.21127613137813
10fryky,1,永寿路50号,121.48115527733125,31.22942337617441
10fryl9,1,张家弄132号,121.49199347565319,31.2228401600621
10frymk,1,芝罘路45号,121.47613942259622,31.237652194497716
10fryj0,1,制造局路27号,121.4822323809356,31.210555641490554
10fryj8,1,制造局路455弄,121.4845998001898,31.205071527074608
10frykb,1,制造局路646弄,121.48471436042365,31.202143224594163
10frymd,1,中华路88弄,121.49812040375386,31.224797401245183
10fryjk,1,中山南路1358弄,121.49972973964478,31.210408256348074
10fryjz,1,中山南路1586弄,121.49509810310632,31.205606483093256
10frynn,1,中山南路1667号,121.49502963731229,31.204771115936612
10frync,1,中山南路1701号,121.49396370891417,31.20422699737927
10fryj5,1,中山南路1711弄,121.49381977215441,31.203608500551432
10fryjo,1,中山南路1726弄,121.49354700372695,31.204655825471544
10fryj4,1,中山南路1891号,121.49086894690835,31.201897741666233
10frylp,1,中山南一路1048弄,121.47056778349803,31.194558990251107
10fryli,1,中山南一路1109弄,121.4707051996777,31.19566754707763
10fryjx,1,中山南一路500弄2号,121.48542823232289,31.19952975605743
10fryni,1,重庆南路205弄,121.47159543478821,31.214627206312006
10frykj,1,重庆南路298弄,121.47082096731577,31.21110373408275
10frylb,1,昼锦路180弄,121.4908679876815,31.22316225115098
10frynd,1,昼锦路84号,121.49241777358648,31.224674112916908
10fryn7,1,庄家街100弄,121.48853954418875,31.219639025838326
10frymw,1,庄家街103号,121.48883810535973,31.219872192249998
10fryjs,1,庄家街10号,121.48875478314982,31.219813542540276
10frymv,1,庄家街34号,121.48840326273083,31.220606805702612
10frymr,1,庄家街45弄,121.4884226482127,31.220601568053016
10fryn6,1,庄家街64号,121.48834674065439,31.219999412172733
10frym7,1,庄家街72号,121.48868030346176,31.219835094149243
10frylt,1,紫霞路199弄,121.4999308937698,31.21896075381506
10frz0p,e,爱特路81号,121.31721301448651,31.23476143166582
10frz38,e,安亭镇博泰景苑,121.15206474665808,31.3000732298655
10frz37,e,安亭镇兰棠景苑,121.16404509430518,31.294181943023546
10frz35,e,安亭镇联群村,121.24648372845431,31.27650835389626
10frz36,e,安亭镇星塔村,121.2375835286367,31.288982161830372
10frz3a,e,安亭镇玉兰二村,121.1584363951446,31.297165120342722
10frz3b,e,安亭镇玉兰三村,121.16011985423883,31.299400993775475
10frz39,e,安亭镇玉兰一村,121.16120673640974,31.29747024916545
10frz0q,e,百安公路1535号,121.18964196601196,31.332033280294272
10frz0r,e,北和公路1650号,121.17908576961845,31.424508058360395
10frz0s,e,博园路4508号,121.17923194372393,31.280155868298767
10frz0t,e,曹安公路1090号,121.26943560790725,31.27367566444122
10frz0u,e,曹安公路1936号,121.35923088092882,31.255887546252982
10frz0v,e,曹安公路1991号,121.21488359946514,31.27391153142025
10frz0w,e,曹安公路3057弄,121.26948748311824,31.273613075744937
10frz0x,e,曹王路158弄,121.30394992552067,31.433613851957457
10frz0y,e,慈竹路265弄,121.2122331406968,31.379190907293292
10frz0z,e,德华路80弄,121.31717294702577,31.29671788847991
10frz10,e,德园路703号,121.30628316520566,31.298925338943512
10frz11,e,方德路200弄,121.23024002301575,31.31424945829224
10frz12,e,丰江路188弄,121.3510112434917,31.254479064533626
10frz13,e,丰江路373号,121.35196717023317,31.255038260752944
10frz16,e,丰庄北路480弄,121.37066684184207,31.248361350266027
10frz14,e,丰庄北路5弄,121.35524836487266,31.249811017913363
10frz15,e,丰庄北路82弄,121.35870788791868,31.248085425962064
10frz0o,e,丰庄一村,121.36583397198645,31.24753681865575
10frz17,e,阜康西路23号,121.16269940259647,31.298331543693564
10frz18,e,阜康西路36号,121.16195155157985,31.298573644934237
10frz19,e,古猗园南路355弄,121.319942982528,31.28292750296852
10frz1a,e,海波路1000弄,121.32985014898935,31.270017312536442
10frz1b,e,海波路127弄,121.34520778601254,31.266889953935255
10frz1c,e,海波路333弄,121.34083412275626,31.26630499351408
10frz1d,e,海波路850弄,121.33128981542255,31.269554822985842
10frz1e,e,海蓝路98弄,121.34968132919512,31.26132794628358
10frz1f,e,鹤霞路555弄,121.29710910018716,31.285647892730445
10frz1g,e,鹤霞路600弄,121.30773389819566,31.245653192003157
10frz1h,e,华江路1481弄,121.32696566755946,31.231838539624583
10frz1i,e,华江路726弄,121.32849554504949,31.24578712062836
10frz1j,e,华江支路189号,121.33870215200442,31.260052500498304
10frz1k,e,环城路612号,121.25158731137113,31.394280709826106
10frz1l,e,回城南路1128号,121.25742468424968,31.362591299964567
10frz1m,e,汇旺东路1295弄,121.20620229634774,31.397713711553102
10frz1n,e,惠裕路360弄,121.28239172209683,31.29367208920431
10frz1o,e,火车站路221号,121.30588582449869,31.283801747364702
10frz1p,e,嘉安公路3333弄,121.18751644643481,31.332490645092207
10frz2z,e,嘉定工业区草庵村,121.2144570781358,31.450085328938222
10frz30,e,嘉定工业区陆渡村,121.19747949452893,31.462187812274703
10frz31,e,嘉定工业区南苑三村,121.2547383339516,31.37020690733631
10frz32,e,嘉定工业区南苑十村,121.24839123341953,31.365910342295123
10frz2y,e,嘉定镇街道桃园新村,121.24580282426734,31.388530813428375
10frz1q,e,嘉美路1398号,121.26716136227779,31.297662760792363
10frz1r,e,嘉年路750弄,121.29616551032237,31.29926086491803
10frz1s,e,嘉唐公路169弄,121.24089996888372,31.399925934135247
10frz1t,e,嘉唐公路826号,121.22881716171811,31.41534371158358
10frz1u,e,嘉涌路99弄,121.33543981868435,31.270371663572206
10frz1v,e,建新路3号,121.3552078105943,31.258102153101312
10frz2r,e,江桥镇高潮村,121.33155645672285,31.255011581735413
10frz2t,e,江桥镇红光村,121.29751313623755,31.271935248524084
10frz2v,e,江桥镇江桥三村,121.34153681438971,31.257667936954107
10frz2u,e,江桥镇江桥一村,121.34485418342622,31.25870745085409
10frz2w,e,江桥镇丽江佳苑,121.33767969827726,31.269173681317778
10frz2x,e,江桥镇宁兴上尚湾,121.3347721267626,31.266737244033784
10frz2s,e,江桥镇增建村,121.29013100122434,31.24210054353711
10frz1w,e,金鼎路2388弄,121.36282646697865,31.259382940292234
10frz1x,e,金鼎路2588弄,121.35993808480028,31.260735111219326
10frz1y,e,金沙江路2890弄,121.35948227851956,31.24182246118536
10frz1z,e,金沙路331弄,121.25402806596796,31.390429443596727
10frz20,e,乐惠路701弄,121.26894534366042,31.30512749041177
10frz21,e,临潭路460弄,121.340662553871,31.257441088589083
10frz22,e,临潭路491弄,121.3393648163721,31.25671917295859
10frz23,e,临夏路256号,121.3334178371772,31.259122232682362
10frz2q,e,马陆镇包桥村,121.31991676508292,31.3464925953635
10frz24,e,墨玉北路685弄,121.1694273782876,31.32191989009071
10frz25,e,墨玉路183号,121.16335612145083,31.29717053461928
10frz26,e,南安德路868弄,121.17674506662273,31.264304594076822
10frz27,e,南华路101弄,121.30833459712919,31.288328113720144
10frz28,e,前曹路88弄,121.30474719271776,31.471456760071376
10frz29,e,清河路205弄,121.24053635485285,31.380532367858105
10frz2a,e,清峪路130弄,121.37525799388277,31.239240265315882
10frz2b,e,胜竹路1828弄,121.25544476466885,31.403585367019147
10frz2c,e,双单路1509弄,121.25204727842254,31.326870062871897
10frz2d,e,泰顺路475弄,121.21210248927537,31.309728470661206
10frz2e,e,蕰北公路2371弄,121.3147818218161,31.32189077982512
10frz2f,e,翔江公路3588号,121.27401257955165,31.256569498242442
10frz2g,e,翔铁东路88号,121.34701817532864,31.270683369155165
10frz2h,e,翔铁中路219号,121.31742233285185,31.27706451924554
10frz2i,e,新和路789号,121.19012478281047,31.433681562232593
10frz2j,e,新建一路1668弄,121.27791465798539,31.416351222682795
10frz2k,e,新源路685弄,121.15375412655547,31.29774269589396
10frz2l,e,星华公路2173号,121.28462188465302,31.271538592884507
10frz2m,e,星华公路2889号,121.26907616709356,31.27542582117608
10frz33,e,徐行镇和桥村,121.329310232758,31.416896222385606
10frz34,e,徐行镇红星村,121.31688643477375,31.429353184369702
10frz2n,e,泽普路175弄,121.16494378351257,31.290956507165266
10frz2o,e,泽普路588弄,121.15575449234296,31.290745401335542
10frz0n,e,张掖路355号,121.33468681502343,31.258631640555166
10frz2p,e,智翔路8号,121.31428389608263,31.311579517038677
10frz3f,g,金明村,121.26513132246248,30.893258569584052
10frz3d,g,泖桥村,121.10500461795944,30.89925097262825
10frz3g,g,新巷村,121.30474171134995,30.84634750098147
10frz3c,g,中联村,121.13976983635814,30.8145911346649
10frz3e,g,周栅村,121.26484199292543,30.872421467107188
10frynq,6,宝昌路632弄,121.47139283385091,31.2610376880402
10fryo3,6,宝山路499弄,121.47806905322032,31.25772691172439
10fryp2,6,北宝兴路660弄,121.46042772459136,31.27839074421215
10fryo6,6,昌化路443弄,121.45010703274106,31.23854827921539
10frynt,6,大统路938弄,121.4587702642121,31.255469243178194
10fryon,6,高平路598弄,121.43001795063385,31.288022464997148
10fryok,6,共和新路2399弄,121.45419033562396,31.280693984465707
10fryol,6,共和新路2564号,121.4513162608185,31.282317966231872
10fryoh,6,广中西路999弄,121.43510369803799,31.277458488169653
10fryoz,6,华山路251弄,121.44636169839721,31.219845332451634
10fryno,6,淮安路687弄,121.4516189412515,31.239751095543117
10fryo9,6,江杨南路466弄,121.46796884175914,31.31670170567151
10frypb,6,景凤路521弄,121.45700297806226,31.318859256250256
10frynz,6,康定东路19号,121.45737707715634,31.237241959519228
10fryos,6,康定路1038弄,121.43671240630407,31.23110518883094
10fryo5,6,康定路710弄,121.44331952072166,31.23248034338346
10fryny,6,康定路758弄,121.44239760497017,31.23212077518884
10fryom,6,老沪太路205号,121.45262561630042,31.268120790379726
10fryp3,6,临汾路300弄,121.46150588161844,31.31075300640738
10frynr,6,柳营路1025弄,121.45051402949747,31.261745962092206
10fryo8,6,柳营路319弄,121.46299352876508,31.267806308420408
10fryo0,6,柳营路650弄,121.45767479540253,31.263803199170123
10fryoq,6,洛川东路161号,121.46434511602448,31.271730034416844
10fryo7,6,洛川东路37号,121.46554326443987,31.27241111478694
10fryoc,6,民德路59号,121.47154573409982,31.249830431236557
10fryoj,6,平陆路397弄,121.44590319343047,31.286252351589525
10fryns,6,平顺路721弄,121.45142600303453,31.31748383471859
10fryop,6,平型关路121弄,121.46854156169933,31.267368544892623
10fryo2,6,平型关路305弄,121.46580887552224,31.27088589107982
10fryo1,6,平型关路801弄,121.45980644463897,31.278117651301084
10frynv,6,普善路239弄,121.45603253896657,31.257925550111285
10fryoe,6,普善路390弄,121.45363971802355,31.260286418112273
10frynw,6,普善路铁路新村12号,121.45426847346181,31.255739785190418
10fryp5,6,普善路铁路新村21号,121.45276223059672,31.256083259341214
10frynu,6,曲沃路66弄,121.44595721961834,31.30704077542883
10frynp,6,三泉路517弄,121.4409083657745,31.309433894566723
10fryod,6,少年村路415弄,121.43306758462568,31.29934060225278
10fryog,6,谈家桥路163弄,121.45014214051163,31.260596590401626
10fryoa,6,通阁路200弄,121.47053854055765,31.26142656057719
10fryp0,6,万航渡路212弄,121.44057905977974,31.225038373082324
10fryp4,6,万航渡路342号,121.4381007801818,31.225495324014915
10fryp7,6,万航渡路623弄,121.43369970357418,31.22679342534928
10fryot,6,万航渡路858弄,121.42910007138534,31.22632897137053
10fryoi,6,万荣路1199弄,121.44244314948368,31.29319066943235
10fryp8,6,万荣路959号,121.44212829207478,31.28800414848677
10fryp9,6,王家宅路16号,121.4730545324416,31.25110920734669
10fryoy,6,武定路1128弄,121.4388299339964,31.22898178458802
10fryob,6,武定路600弄,121.44914304100696,31.233288268472997
10fryow,6,武定西路1320弄,121.43495288557274,31.226476551013633
10fryox,6,武定西路1398弄,121.42939742686488,31.22455577071154
10fryou,6,武宁南路438弄,121.43229846499949,31.232908933927305
10fryor,6,新闸路1910弄,121.4403484855059,31.226881122102036
10frynx,6,永和路1080弄,121.4264964059256,31.28750862903739
10fryof,6,永兴路258弄,121.47262246697744,31.253094221367817
10fryov,6,余姚路566弄,121.43340810081159,31.233303550221592
10frypa,6,愚园路611弄,121.43735661254111,31.220899551865237
10fryoo,6,原平路183弄,121.43126952765371,31.28189052258148
10fryp1,6,镇宁路404弄,121.43590232289681,31.222501585660336
10fryo4,6,芷江西路270弄,121.46085983549526,31.25719255104761
10fryp6,6,中华新路939弄,121.45616458249732,31.25491698997885
10fryxm,c,安乐村,121.41092938570334,31.029437903046436
10fryxn,c,报春路816弄,121.3777923108004,31.12126225501905
10fryxo,c,北翟路1444弄,121.34125202904173,31.22985202596116
10fryxp,c,北翟路2000弄70支弄,121.33484210028239,31.22627166396145
10fryxq,c,碧江路195弄,121.4050947251903,31.003582781180395
10fryxr,c,碧江路401弄,121.40310664356664,31.011672324078507
10fryxs,c,碧江路501弄,121.39971735667018,31.01480662655809
10fryxt,c,碧江路502弄,121.39959766053697,31.01489047824197
10fryxu,c,宾川路380弄,121.41160462225294,31.00496263949521
10fryxv,c,曹中村,121.43281114680167,31.088705145993682
10fryxw,c,漕宝路1243号,121.39362407477338,31.160022239862645
10fryxx,c,漕宝路1555号,121.37755739632716,31.162520506072408
10fryxy,c,昌林路430号,121.51790013711447,31.06492642625976
10fryxz,c,春申路2458弄,121.4149070192459,31.112383105678425
10fryy0,c,灯辉路1058号,121.4118756642065,31.029757031477775
10fryy1,c,东风村,121.54450420837455,31.102742064817924
10fryy2,c,东兰路1349弄,121.38086817270418,31.15001546662801
10fryy3,c,东兰路307号,121.39484793439463,31.153572296676828
10fryy4,c,都会路2288号,121.41776251584947,31.068760378142922
10fryy5,c,都会路2799弄,121.40988289167777,31.080115556987582
10fryy6,c,都会路3199弄,121.40947830817329,31.08447732213081
10fryy7,c,都市路1900弄,121.4151546514775,31.05734807413648
10fryy8,c,繁安路59弄,121.39297974798657,31.062733978686815
10fryy9,c,凤庆路150弄,121.41485447606044,31.021301729792732
10fryya,c,富砾路258弄,121.36718449909998,31.03258717127395
10fryyb,c,富卓路789弄,121.38060209646316,31.025318624506777
10fryyc,c,共和村,121.46482712132071,31.04957689967099
10fryyd,c,古美路1455弄,121.39875635570094,31.157970085950225
10fryye,c,航北路180弄,121.35621312935959,31.17537049829421
10fryyf,c,航中路99弄,121.3541851382705,31.167082384876053
10fryyg,c,鹤庆路136弄,121.4191220274452,31.011805378314076
10fryyh,c,鹤庆路358弄,121.41369218172274,31.009679545079
10fryyi,c,红松路600弄,121.36267106265032,31.18093723515709
10fryyj,c,虹井路618弄,121.3709236023799,31.184947998905766
10fryyk,c,虹梅南路2555弄,121.4298554003269,31.098245178985852
10fryyl,c,虹梅南路4999弄,121.44920761826529,31.05112211366008
10fryym,c,沪光路180弄,121.41616507224441,31.079433029212332
10fryyn,c,沪光路39弄,121.42113926233785,31.07917492588137
10fryyo,c,沪闵路1899号,121.4155785879337,31.034140469224802
10fryyp,c,华宝路789弄,121.32866706622447,31.162512200212383
10fryyq,c,华美路100弄,121.33324442522587,31.222028564038396
10fryyr,c,华宁路1399弄,121.3903979317798,31.023621993745195
10fryys,c,华坪路100号,121.42091582373689,31.000610402057458
10fryyt,c,剑川路150弄,121.46528964835068,31.043764831801393
10fryyu,c,剑川路198弄,121.46236580722677,31.04220365651398
10fryyv,c,剑川路50弄,121.47609826154317,31.04406334855735
10fryyw,c,江潮路168号,121.52591891231337,31.071829044552732
10fryyx,c,江川路241弄,121.42169099915641,31.004727719963117
10fryyy,c,江川路680弄,121.40155520130313,31.001593944909807
10fryyz,c,金汇路588弄,121.37450843885637,31.183614275342862
10fryz0,c,金平路777弄,121.40981036841447,31.021405826746562
10fryz1,c,金星村,121.3792838713132,30.992641280383328
10fryz2,c,锦梅路1258弄,121.41367716394996,31.113658518511553
10fryz3,c,景联路685号,121.441644889279,31.099592540665103
10fryz4,c,兰坪路301弄22支弄,121.42027590554024,31.009207852921048
10fryz5,c,黎安路380弄,121.3739000613223,31.131398741998193
10fryz6,c,联曹路555弄,121.44465181147105,31.096308835391714
10fryz7,c,联青路135弄,121.38391832378704,31.04126618547521
10fryz8,c,联友路369号,121.27368164422836,31.215580022866078
10fryz9,c,龙柏二村,121.3623425548861,31.181539567492543
10fryza,c,龙柏四村,121.36330155290267,31.178766231780266
10fryzb,c,龙茗路1458弄,121.38505448806461,31.144268861022532
10fryzc,c,龙吴路3399号,121.45644480485741,31.092232244416536
10fryzd,c,龙吴路5511弄,121.4666400120924,31.044401649300443
10fryze,c,鲁康路1198弄,121.50331728370743,31.03074730466529
10fryzf,c,鲁康路555弄,121.5167163954511,31.027106435691472
10fryzg,c,罗秀路1980弄,121.40434591132905,31.129031007270783
10fryzh,c,梅陇一村,121.41234308189563,31.136334064218136
10fryzi,c,民建村,121.45529671714709,31.0958166997789
10fryzj,c,平南二村,121.3931193444381,31.15275326256236
10fryzk,c,平阳路1375弄,121.38716288887156,31.134117544462494
10fryzl,c,普乐路425弄,121.42366031732428,31.1147985297461
10fryzm,c,七莘路2288弄,121.36222137022932,31.143176573754964
10fryzn,c,七莘路3885弄,121.33847382309953,31.1701354192648
10fryzo,c,上中西路855弄,121.41536088124504,31.12954609635908
10fryzp,c,尚义路229弄,121.45065323160316,31.04204937977551
10fryzq,c,申北路385弄,121.38054876512656,31.08797066267663
10fryzr,c,莘北路255弄,121.37034331673004,31.111900986882745
10fryzs,c,莘松路958弄,121.35419542431683,31.106119380595064
10fryzt,c,莘谭路411弄,121.37088873199039,31.10738230997841
10fryzu,c,莘谭路76弄,121.37694634859909,31.11096501949276
10fryzv,c,曙建路51弄,121.42156600798853,31.092905710013387
10fryzw,c,曙建路78弄,121.41867193106876,31.09241554207032
10fryzx,c,双柏路1710弄,121.4230397334422,31.08495111623498
10fryzy,c,天山西路4178弄,121.30607041983392,31.217225560671544
10fryzz,c,鑫都路2535弄,121.39749671745831,31.052310055331535
10frz00,c,星火村,121.47183054866902,31.037460465769982
10frz01,c,许泾村,121.4376996910004,31.080109885707067
10frz02,c,许浦村,121.33704515600536,31.224567698294013
10frz03,c,盐铁塘路176弄,121.51136316131357,31.035501534126976
10frz04,c,杨家巷村,121.30209135448668,31.22369006306645
10frz05,c,银春路1799弄,121.39377351740538,31.024917583327102
10frz06,c,银春路1800弄,121.3946629460552,31.027877919402833
10frz07,c,银都路3118弄,121.39477289715461,31.093690037371
10frz08,c,银都路3151弄,121.39937426809749,31.0918445331579
10frz09,c,银都路3536弄,121.39198119909288,31.09262848118413
10frz0a,c,银康路750弄,121.37426390179814,31.0206760268893
10frz0b,c,银林路100弄,121.38855429270623,31.021004124847423
10frz0c,c,永德路369弄,121.46038095520181,31.039059953910343
10frz0d,c,永联村,121.4427748823208,31.105641916520316
10frz0e,c,俞塘村,121.38180841981413,31.03310369523134
10frz0f,c,元和路181弄,121.38311541776885,31.051502111839508
10frz0g,c,跃进村,121.50063928465069,31.047337619614694
10frz0h,c,召泰路1068号,121.55745561189603,31.004318872908247
10frz0i,c,中心村,121.40643179674174,31.035184753744055
10frz0j,c,颛建路248号,121.394113584018,31.06877280621881
10frz0k,c,颛兴路345弄,121.39425233369263,31.065570165902393
10frz0l,c,颛兴路666弄,121.38898088097315,31.065110033604462
10frz0m,c,紫藤二村,121.41100808733941,31.130718034992597
10fry2w,f,安阁苑,121.5905200065352,31.09020783588601
10frxxg,f,百曲村,121.53951297610305,31.117171903110375
10fry6s,f,板泉路2000弄,121.53102836635281,31.165520661581624
10frycg,f,板泉路2076号,121.53120147318874,31.166325068429945
10frxrj,f,板泉路2101弄,121.53181504178488,31.168395341684917
10frycm,f,北蔡大街,121.55400143679272,31.187418702946335
10fryao,f,北蔡镇北中路周家宅,121.55343124029045,31.182850675755375
10frxuq,f,北蔡镇黄家队黄家宅,121.57411958303997,31.18593825865284
10fryfa,f,北海塘村,121.76454733457412,31.211558817709292
10fry2d,f,北项湾,121.55533147817594,31.361633544645493
10fry38,f,北新园路460弄,121.62677507255574,31.320076709689886
10frxqj,f,北洋泾路601号,121.55092602904014,31.243396704144143
10frxxm,f,北张家浜路28弄,121.52005393937584,31.21588019825422
10fryau,f,北张家浜路58号,121.52063325195718,31.215629047749125
10fry8j,f,北中路354弄,121.55955201229251,31.1830857930158
10frxz3,f,北庄村,121.65741932305781,31.094010514323525
10frxzl,f,碧云路1198号,121.58960584855315,31.242746010757873
10frxzm,f,碧云路86弄,121.57663775522147,31.236124270402836
10frybw,f,博华路930弄,121.5506302489431,31.174155859189234
10fryfy,f,博华路96号,121.54728768383532,31.184145279732586
10frybm,f,博华路980弄,121.55102652324815,31.172004740554446
10frxrc,f,博华路999弄,121.54991759431032,31.17010225661447
10fryd4,f,博山东路111弄,121.56330094666647,31.250716037926036
10fry5q,f,博山东路20弄,121.55993157364792,31.245236167936724
10fry5k,f,博山东路459弄,121.56781509317003,31.253418770271082
10fry9n,f,博山路199号,121.55438049736797,31.244064734690163
10frxva,f,博山路50弄,121.55609551867587,31.245838365660678
10frxzo,f,博兴路1268弄,121.59703034728471,31.267728852018063
10fry3k,f,博兴路1676弄,121.60206780547148,31.27561378305688
10fry1t,f,博兴路250弄,121.57893194645303,31.26920588005255
10fryhw,f,博兴路341号,121.58184554043882,31.26788523062377
10fry1v,f,博兴路456弄,121.58303021071023,31.26571995911746
10fry4v,f,博兴路465弄,121.5853742746808,31.26602673697356
10frxrq,f,博兴路616弄,121.58509981954585,31.263213423141284
10fry44,f,博兴路760弄,121.58921217405562,31.261738652968162
10fry00,f,博兴路799弄,121.59032167303003,31.266040184200463
10frxw1,f,博兴路916弄,121.59170224526872,31.264791948584644
10fry6a,f,博兴路986弄,121.59329077599772,31.265365561870453
10frydv,f,蔡路村东蔡家宅,121.7289849412225,31.213180033425452
10frxt9,f,曹路镇顾家宅,121.6362061017532,31.229241138920997
10fry1c,f,柴场村,121.72618355827514,31.180933334743543
10frxvh,f,昌里东路320弄,121.51097169809576,31.176454195736845
10frxwy,f,昌里东路333弄,121.51070429549445,31.1775438451352
10frxte,f,昌里东路550弄,121.51574000635105,31.17930975412695
10frxtq,f,昌里东路650弄,121.51791763955447,31.17906396513816
10frybh,f,昌里东路675弄,121.51585065342017,31.180350121432724
10frxra,f,昌里东路71弄,121.50608105509902,31.17611872471244
10frxqy,f,昌里东路80弄,121.50606835082556,31.174420663435
10frxto,f,昌里路340弄,121.49162914318524,31.171902928576618
10frxrl,f,昌里路80弄,121.50509922922967,31.175227441010907
10frxsw,f,昌里路98弄,121.50209183820965,31.174992614555844
10fry8l,f,昌邑路607弄,121.5235741154994,31.24188026718422
10fryb8,f,陈春东路88弄,121.5597787980248,31.17515975014627
10frxqk,f,陈春东路99弄,121.5603439871227,31.17578581082875
10fry9c,f,陈春路620弄,121.54557710251267,31.17290385589107
10frxy9,f,陈行村,121.4984029629503,31.092182940033272
10frxst,f,成山路1728弄,121.53161435945898,31.176977432394363
10frxsu,f,成山路210号,121.49423522748744,31.1709819234988
10frxy1,f,成山路226弄,121.49720550928079,31.171306070352575
10frxqu,f,成山路300弄,121.5021093251568,31.171549921445585
10frxss,f,成山路350弄,121.50534613651645,31.170648821851323
10frxse,f,成山路475弄,121.50677352125031,31.172348348943036
10frxy2,f,成山路558号,121.50840011446563,31.172359455770508
10frydn,f,成山路608弄,121.50823104154473,31.171635827669302
10frxvg,f,成山路648弄,121.51095128122218,31.17100710579217
10frxwu,f,成山路668弄,121.51178765551491,31.170214844608683
10fry8c,f,成山路963弄,121.51562335090792,31.17545019719055
10fry2z,f,城丰路212弄,121.68729383739479,31.190323043621788
10fry8s,f,城丰路245号,121.68640697339568,31.18955009775287
10fry8r,f,城丰路288弄,121.68368245775852,31.19002560825252
10fryce,f,城丰路650号,121.67862557558387,31.187066390615772
10fry2x,f,城丰路70弄,121.68928510801845,31.19128448421834
10fry08,f,城南路627弄,121.69430533542999,31.18881417672488
10fry0e,f,城南路677号,121.69459027796766,31.188962051333178
10fry0r,f,川化新村,121.687732505602,31.218162817037463
10frycd,f,川环南路1049弄,121.69406401898709,31.18469891770446
10fryg8,f,川环南路1223号,121.6889873664357,31.183456447692393
10fry0i,f,川环南路921弄,121.69541446331297,31.18581788110207
10frxu6,f,川沙路326弄,121.66642277009349,31.27902163336539
10fry2j,f,川沙路4028号,121.69160581920534,31.208771548836516
10fry2h,f,川沙路4650弄,121.69560607795697,31.198029725112857
10fry03,f,川沙路4850弄,121.69763684820114,31.194820708820796
10fry82,f,川沙路688号,121.67017972540185,31.273298644108372
10fryfj,f,川沙路777弄,121.67321294243528,31.272330824922456
10frxy4,f,川沙镇郭家宅,121.63222022518443,31.209490504384615
10fryd1,f,川沙镇邱家宅,121.65778951833255,31.167014400434304
10fry99,f,川周公路4003弄,121.589193393566,31.12543936814374
10fryho,f,川周公路4005弄,121.58739844471107,31.125972509314455
10fryhs,f,川周公路4055号,121.60988271871368,31.13935173858247
10fryhh,f,川周公路4058弄,121.5856848578019,31.125787758903485
10fry91,f,川周公路4293弄,121.58106761508228,31.12044973263586
10fry1w,f,川周公路8288弄,121.70959860800207,31.178309408800953
10fry1y,f,川周公路8682号,121.70965741358526,31.184621296218893
10fry5u,f,川周路8828弄,121.70972337506024,31.187607679852654
10fry31,f,创新西路199弄,121.65520735552077,31.200841725719297
10fryep,f,创新中路199弄,121.66134498067609,31.20719518222937
10fryaw,f,创新中路593弄,121.66903174734992,31.21150764115769
10fry63,f,创业路798号,121.6963960392443,31.215149764110638
10fry3u,f,春晖路446弄,121.58234461923601,31.33702291589377
10fry3q,f,大沟村,121.75753421814011,31.174815677586484
10fryb0,f,大瞿家宅,121.52571284687532,31.121424004487455
10fryae,f,大同路668弄,121.57423439529227,31.336891239281094
10fryiv,f,道新村东杜家宅,121.76015932146844,31.16304371553694
10fryb5,f,徳品路1189弄,121.58337978862575,31.256332645479393
10fry6d,f,德爱路380弄,121.5863155706301,31.300390761992645
10frxrv,f,德平路100弄,121.56154904470796,31.247875689600644
10fry5o,f,德平路1060弄,121.56665687503856,31.242660684714153
10fry59,f,德平路1065弄,121.56762023024517,31.242806654920805
10fry5t,f,德平路1066弄,121.56703727336459,31.241827750348733
10fry5d,f,德平路1134弄,121.56992056614286,31.239313237687327
10frxvf,f,德平路1189弄,121.57142284036894,31.240323936388624
10fry6n,f,德平路155弄,121.5614658304456,31.250075676091434
10frybt,f,德平路215弄,121.56341334914768,31.24815376591035
10fry5p,f,德平路58弄,121.55851532550098,31.251925384141643
10fry6r,f,德平路730弄,121.56539057842201,31.245263625907928
10fry6p,f,德平路764弄,121.56415784740912,31.24303317316944
10frxx0,f,德州路223弄,121.49522506372169,31.168216137593575
10frxr5,f,德州路230弄,121.4952793945292,31.168267732562125
10frxrg,f,德州路255弄,121.49249252103758,31.168717079423537
10frxvu,f,德州路300弄,121.49059932871533,31.167459294652687
10frxue,f,德州路380弄,121.48590812169802,31.164707400317493
10fryc8,f,德州路420弄,121.48380496279367,31.165119010380746
10frxx1,f,德州路465弄,121.48172366868647,31.16660720813628
10fryeh,f,邓二村储家宅,121.76006458192299,31.143183453634574
10fry6y,f,丁香路901弄,121.55314406275888,31.226965149533328
10fry7q,f,丁香路999弄,121.55415690528076,31.227212188684266
10frygp,f,东八灶63弄,121.58156473905727,31.115625975259228
10fryhm,f,东八灶643弄,121.5816763564736,31.11576519366705
10frxx6,f,东滨村纪家宅,121.76586322415393,31.20272664981302
10fryhx,f,东波路192弄,121.57884518166848,31.283304945500237
10fry1n,f,东波路258号,121.58110022197108,31.283848047313118
10fryhz,f,东波路49弄,121.57643027806944,31.285719769413866
10fry9v,f,东波路585弄,121.58662454238619,31.285190420493166
10frxxr,f,东昌路490弄,121.51207626893212,31.23124203498104
10fry7h,f,东川公路5979号,121.71980402998854,31.235484998608932
10fryip,f,东方路1381号,121.52830759017682,31.211431701003516
10frxt2,f,东方路1523号,121.52693317867526,31.209039456584716
10fry9s,f,东方路3521号,121.51192333915215,31.189921232286732
10frxxv,f,东方路573弄,121.52475453620208,31.231882081107432
10fry62,f,东风村,121.69889701428932,31.22783705416842
10fry8e,f,东高路26弄,121.575640751562,31.287593197879872
10fryft,f,东葛路423号,121.57386099131917,31.294589748228468
10frybr,f,东沟路585弄,121.57566789082031,31.29100494522542
10frxzp,f,东后老街,121.64801938453037,31.02195517604478
10frxvn,f,东环龙路299号,121.52538646475537,31.201361297440105
10frxqv,f,东建新村,121.53322151990926,31.20176089607549
10fryfu,f,东靖路221号,121.57739925211307,31.291718313013238
10frxru,f,东靖路669弄,121.58658201885552,31.293907241472283
10fry43,f,东陆路1018弄,121.59250340658927,31.272991751562873
10frygd,f,东陆路1168号,121.59661197009524,31.272324854047756
10frybo,f,东陆路1350弄,121.60168882987978,31.267081076131596
10fryfx,f,东陆路1456弄,121.6018673693994,31.266868926110007
10frya3,f,东陆路429弄,121.5868799421148,31.280589863444764
10fry45,f,东陆路898弄,121.5915135637759,31.273413386128958
10frygj,f,东明路1628弄,121.5125492808013,31.16358324886074
10frxrd,f,东明路355弄,121.51091714432378,31.184537451990856
10frxvm,f,东明路383弄,121.51000343214457,31.18276868536029
10frxwx,f,东明路511弄,121.51080436223762,31.180600527904478
10frxqs,f,东明路560号,121.5096627530022,31.179453361274895
10frxrr,f,东明路660弄,121.50895225670854,31.17807321025689
10fry74,f,东三街15弄,121.50758012331985,31.201545555325055
10fryad,f,东三里桥路160弄,121.51058004425701,31.19937994579086
10frybl,f,东书房路390弄,121.53515586924028,31.164947185537578
10frybj,f,东书房路560弄,121.53465839602653,31.161200586098385
10fryi3,f,东窑新村,121.64117270389376,31.197038851374863
10frxvi,f,东园三村,121.51480817271963,31.230631817441846
10fryi7,f,东灶路115弄,121.32871077698917,30.779472181072393
10fry3s,f,冬融路25弄,121.59118956677763,31.33340998561172
10frxqz,f,峨山路500弄,121.52395648811806,31.214177137823942
10fryid,f,繁荣东路150弄,121.58761006077049,31.10576317241066
10frxz7,f,繁荣东路159号,121.58722270887006,31.106878518068488
10fry71,f,芳华路310弄,121.55763460110593,31.194728784747255
10fryex,f,芳华路371弄,121.55776794721318,31.196322376332024
10fry72,f,芳华路630弄,121.56410651129198,31.19621953436517
10fryah,f,芳华路713弄,121.56366773337805,31.19698215069315
10frxtu,f,芳华路916弄,121.56814309279892,31.19626040568061
10fry4r,f,丰桥村,121.59311808117398,31.012877872998644
10frxv5,f,扶栏村,121.75003565627688,31.00127028365989
10fry30,f,芙蓉路81弄,121.6693700080932,31.163160274624595
10frxxu,f,福山路100弄,121.5271854717057,31.23242097602148
10frxxn,f,福山路102弄,121.52681126872729,31.231244944246313
10fryc2,f,福山路307号,121.52925235227283,31.22958623762479
10frygu,f,福山路309号,121.5293287312829,31.22943552584777
10fry4j,f,福山路519号,121.53234606095714,31.222528376137603
10fry4p,f,福善村,121.61151900692215,31.02634913925674
10fryat,f,高宝路229弄,121.61909300914162,31.292059857289274
10fry6l,f,高宝路300弄,121.62210009903006,31.28966146536782
10frxuu,f,高宝路379弄,121.6241630417942,31.29180586742105
10fry39,f,高宝路68弄,121.61815056359073,31.28941723761099
10fry8f,f,高博路188弄,121.58006218233227,31.297356875736682
10fry51,f,高博路210弄,121.58069444098776,31.296567783822884
10fry6m,f,高东二路118弄,121.6271730854266,31.322899872533117
10frybd,f,高科西路2111弄,121.53569901855035,31.18809499596051
10fryc9,f,高科西路2907弄,121.55851716994383,31.18955740659983
10frxt7,f,高科西路961号,121.51167058667188,31.187120963863336
10fryiu,f,高桥村东顾家宅,121.60366743654232,31.280419248727487
10fryd0,f,高桥村汤家宅,121.52856502507439,31.133269658972292
10frxuj,f,高青路2861弄,121.5287282347958,31.16150642553775
10fry9o,f,高青路2878弄,121.529374602967,31.160397397802
10frxs0,f,高青路4567弄,121.56173853682715,31.171178883924195
10frxqb,f,工农南路201弄,121.75734476761474,31.04694332164583
10frxyn,f,龚华路50弄,121.6838734240779,31.266931970783563
10frycy,f,龚路公路141号,121.71189898468117,31.27068089657852
10fry83,f,龚路支路473弄,121.68782716855205,31.264130454867555
10fryfr,f,共和村陈家宅,121.56522998538225,31.17668209093714
10frygk,f,古莲路2弄,121.67052347583646,31.29623419577789
10frxyu,f,古棕路168弄,121.91746279006595,30.884098481675725
10frxyz,f,顾东村,121.6614289925543,31.293146531289587
10fryfh,f,顾高公路1018号,121.63241693593919,31.29294861021646
10fry16,f,顾三村,121.67645615446813,31.29474362327778
10frxyy,f,顾唐路138弄,121.6562896817882,31.26349919273788
10fry7l,f,崮山路1445弄,121.56017368500248,31.24047278820895
10frydw,f,崮山路157弄,121.55976909206996,31.239542152125324
10frydj,f,崮山路264号,121.55369398641115,31.245067432663635
10fryia,f,关岳路181弄,121.58656442858813,31.12028132299895
10fry9a,f,关岳路229弄,121.58844090957278,31.121077134323905
10fryhk,f,关岳路39弄,121.58239958646539,31.118927260180953
10frxtv,f,光辉村,121.71214759828372,31.063951232402353
10frxq9,f,光明村,121.65862178584219,31.290376482568664
10frydc,f,广兰路1155弄,121.62154977463193,31.20302574948911
10fry7j,f,广益路9弄,121.51752359677549,31.24214985083231
10fry0s,f,桂江路77弄,121.41330591365812,31.143926964596755
10frxs9,f,国展路1776号工地生活区,121.49053164718231,31.200405859062858
10frxvp,f,果园村,121.55736423999478,31.202881183070126
10fryea,f,海关村,121.79930833171422,30.93232617063901
10frxyx,f,海鸣路98弄,121.67237165557319,31.28255025240097
10fry4o,f,海桥村,121.61029123267117,31.010559188088827
10frxz0,f,海容路99弄,121.67390032835068,31.279819475317105
10frxys,f,海松路398弄,121.68031289711527,31.276814845350454
10fry68,f,海塘村南海唐宅,121.75657556673045,31.212025785629947
10frycv,f,海霞路135弄,121.73591863344004,31.167239598665528
10frxw2,f,海霞路493弄,121.74420287536469,31.170143685126444
10fry73,f,海阳路1125弄,121.50731425069256,31.159002026288476
10frybx,f,海阳路443弄,121.49162222211933,31.154390273037805
10frxuc,f,海阳路815弄,121.50145864548928,31.158005423941983
10frxyf,f,航昌路199弄,121.60894108702475,31.078468834901074
10frxx9,f,航昌路376弄,121.60925760489155,31.075021658329085
10fry3e,f,航城三路288弄,121.7496492907197,31.150857375178308
10fry3d,f,航城三路86弄,121.74417549680025,31.149194806902504
10fry3g,f,航城五路151弄,121.74806953286226,31.144254214204544
10fryel,f,航春路169弄,121.60562209086245,31.08138024799029
10frycw,f,航鹤路1700弄,121.58690812193223,31.048498596119785
10fry4s,f,航鹤路1858弄,121.58458230273483,31.04999370347571
10fry85,f,航梅路526弄,121.58203885492658,31.023997743179883
10fryaz,f,航瑞路175弄,121.59263495446444,31.070983620760114
10frxxd,f,航瑞路388弄,121.59467103730444,31.073838129769545
10fry86,f,航头路1027弄,121.59374250035748,31.032378870358325
10fryfk,f,航头镇海桥村,121.61035401365264,31.010538062136966
10fry64,f,合庆庆星村西圈夏家宅,121.71556829689533,31.23120562382296
10fryit,f,合庆镇凤家宅,121.59891353008013,31.127856468196068
10fry65,f,合庆镇前哨村马家宅,121.73378087951563,31.240827383796265
10fry77,f,合庆镇庆丰村龚家宅,121.71635782107045,31.226043436293537
10frxzx,f,合庆镇庆丰村邬家宅,121.71720436027738,31.241078269344015
10frxzw,f,合庆镇奚家队杨家宅,121.76166934815124,31.20413578761137
10fry89,f,和龙路241号,121.57171099295803,31.342252255438375
10fry8a,f,和龙路295弄,121.57067987294486,31.341983430767037
10fryil,f,和龙路371弄,121.57001407000917,31.344902500412427
10fry3w,f,荷泽路25弄,121.59181953133972,31.274234920119834
10frxvy,f,荷泽路287弄,121.59252895047776,31.269143810344566
10fry01,f,荷泽路418弄,121.592988165842,31.267376968559635
10fryfw,f,荷泽路567弄,121.59576219630071,31.264385168604655
10fry41,f,荷泽路58弄,121.58984039409741,31.27284176639747
10fry7y,f,荷泽路825弄,121.59738940877456,31.260764043400982
10fry3m,f,荷泽路828弄,121.59551700516568,31.26004337752145
10frxu2,f,鹤驰路99弄,121.59497948581586,31.07918646225232
10fry4t,f,鹤东村,121.60232032503191,31.054680578290164
10frxye,f,鹤立西路88弄,121.58355742794048,31.057568156038815
10fry6v,f,鹤鸣村,121.58820230725168,31.045797882586857
10frybn,f,鹤沙村,121.54448530237826,31.221515698738145
10frxxe,f,鹤沙路188弄,121.59091624089534,31.081890181440176
10frydl,f,鹤沙路588弄,121.59324906580775,31.08182357323744
10fryek,f,鹤沙路688弄,121.58911552608268,31.081632888740845
10fryem,f,鹤永路751弄,121.60489841382342,31.072134895561295
10frya1,f,鹤韵路549弄,121.59588226035288,31.075141149982677
10frydk,f,横沔江路250号,121.6329695310865,31.17556620253376
10fryh0,f,横桥路69弄,121.57961522737146,31.1080998937246
10fryaq,f,红旗村江湖宅,121.49431672342284,31.121224395831852
10fryi4,f,红旗村毛家塘队毛家塘,121.50301162133316,31.129230349473968
10fry2m,f,红桥村,121.63346603191911,31.10254601098267
10frxwi,f,红三村,121.67334071341412,31.25385233551949
10fry2k,f,虹四村,121.65535531529811,31.240539960192503
10frxwz,f,洪山路121弄,121.49906724782346,31.178788853651017
10frye0,f,洪山路1617号,121.50806415793748,31.155169367670307
10frxri,f,洪山路237弄,121.50163831498735,31.172867721112027
10frxwt,f,洪山路300弄,121.50026912536524,31.170343916182688
10fryds,f,胡巷村金家宅,121.5867317272186,31.125194313954573
10frycx,f,沪东路67号,121.58064555148948,31.27094848104679
10fry9t,f,沪南公路3150弄,121.56538724544518,31.122037732148204
10fryfg,f,沪南公路4789弄,121.58887147323371,31.06966206389384
10frxtt,f,沪南路2000号,121.56113619862914,31.16446742260307
10frxqm,f,沪南路2518弄,121.56481034010768,31.15023522461192
10frxut,f,花木路500弄,121.54326084052228,31.210735549766795
10fryd6,f,花墙村,121.5491622833593,31.14830668142388
10fry1z,f,华戴路299弄,121.69882997225824,31.18160145399473
10fry20,f,华戴路599弄,121.70052764574505,31.17597661098889
10fry9r,f,华丰路51弄,121.50827555111675,31.192244946545184
10frxya,f,华路村,121.73148426730371,31.19275949472772
10fryh2,f,华鹏路300弄,121.52564217612381,31.17472708698442
10fryg4,f,华夏东路1152弄,121.67172231206078,31.195988593425284
10fryai,f,华夏东路2026弄,121.69028554667867,31.19908114663392
10frxw8,f,华夏东路860弄,121.66555046705746,31.194588296159655
10fry0d,f,华夏二路1255弄,121.69115836954187,31.175844276434177
10fryg6,f,华夏二路1500弄,121.69185088985006,31.173223713742605
10fry0m,f,华夏二路200弄,121.68415870022507,31.19402421646064
10frxvq,f,华夏二路350弄,121.6836452586002,31.192128324590747
10frxvt,f,华夏二路728弄,121.68568973768734,31.186635384990403
10fryck,f,华夏西路85弄,121.52959473181069,31.15429291565292
10fryg1,f,华夏一路55弄,121.6860129410169,31.19798459230366
10frxwg,f,华星村,121.71523061538126,31.200626916620894
10fryb1,f,华绣路393号,121.53177628484124,31.185135549893
10fry9d,f,环林东路271弄,121.52648373418909,31.14929500737075
10frxqg,f,环龙路263弄,121.52716996495204,31.20320924171202
10fryi1,f,环桥路1132号,121.60501022564605,31.135761809879643
10frxun,f,环桥路1136弄,121.60491789127737,31.136199686111507
10fryey,f,环桥路1137弄,121.6024760400708,31.135850691308374
10frxy8,f,环桥路1488弄,121.60333841125603,31.14174856196994
10fry4q,f,环镇东路185弄,121.60548935399017,31.021082403889142
10fryi6,f,环镇东路200弄,121.60259163978321,31.02120066231313
10frxur,f,黄楼村谢家宅,121.67130220504079,31.16409098300795
10fry75,f,黄楼村张家宅,121.67536269330759,31.162560385905007
10frxu1,f,黄路村,121.76431937417252,31.03015974690007
10frxw5,f,会龙村,121.71346252728186,31.094653541359786
10frxup,f,霍山路201弄,121.51144255156137,31.25463510445529
10frxw6,f,吉灿路17弄,121.70573372932044,31.110262647159317
10fry2e,f,季景路370弄,121.58885440892323,31.3339174365842
10frxx2,f,济阳路65弄,121.48240156678253,31.167315494243994
10frybu,f,夹浦路25号,121.54298084440094,31.246159288672207
10frxqc,f,佳乐路225弄,121.61533280648565,31.267569001598922
10frxzk,f,佳乐路255弄,121.6150507616117,31.269655833904853
10fry14,f,佳林路115弄,121.60823939639427,31.26923701503038
10frycf,f,佳林路919弄,121.61179702735873,31.266889175359527
10fry7t,f,佳林路962弄,121.61148731277642,31.264595385798536
10fryet,f,建港村,121.84094064849748,31.0301543368449
10fryht,f,建设路105号,121.65301491284258,31.11172537213433
10fryhg,f,建设路85弄,121.65377075011958,31.109689233331157
10frxyt,f,建新村周家宅,121.67623195832604,31.294739286207253
10fry09,f,江晖路296弄,121.73836868996321,31.174484254219916
10fry8o,f,江绣路300弄,121.7334461238076,31.17297469715156
10fry8n,f,江绣路633弄,121.73924266950436,31.168724156468702
10fryg3,f,界龙村孙家宅,121.85157068444359,30.998908364872975
10fry6o,f,金浜村金家浜,121.56252784946246,31.25638064815685
10frycq,f,金港路333号,121.61258612105657,31.254823083004478
10fry3h,f,金高路1620号,121.6094687433209,31.272359953212014
10fry3i,f,金高路2131弄,121.60961793871792,31.26144073770889
10frxrx,f,金高路988弄,121.60824070203854,31.28607484942872
10fry48,f,金工路133弄,121.58773544032867,31.256182193285188
10fry46,f,金工路172弄,121.59045818931544,31.25613387114748
10frxyc,f,金沪路1218弄,121.60230723983041,31.24095219369137
10frya4,f,金家村陈家宅,121.56509240112905,31.17669242084827
10frycj,f,金口路411弄,121.57965808749402,31.247395916088546
10frxve,f,金桥路1250弄,121.58522876448754,31.253803117055373
10fryd9,f,金桥路1498弄,121.58917068201184,31.250693248851018
10fryd2,f,金桥路1520弄,121.60830198014078,31.220140299684598
10fry0p,f,金桥路2552弄,121.602539512579,31.234585927172123
10fry9w,f,金桥路715号,121.57794682312229,31.260328121681226
10fry5h,f,金台路115弄,121.5833521781701,31.250062477108518
10fry5i,f,金台路1490弄,121.58748937928463,31.249785162731197
10fry5e,f,金台路200弄,121.58841838080929,31.2507270080259
10frxwn,f,金亭公路619号,121.76822924507262,31.11204177566354
10frxzj,f,金湘路201弄,121.61264605154504,31.255749789436255
10frxwe,f,金星村,121.77037240856633,31.11270548377161
10frygn,f,金杨路1155弄,121.58927482693923,31.258220743479637
10frxz5,f,金银花路凌霄花路南侧工地生活区,121.62855686696543,31.099568814155976
10frxw7,f,锦绣路300弄,121.56443832438094,31.225851114464515
10fry2g,f,进贤路155弄,121.69235447695137,31.191588180667942
10frxu9,f,京浦路82弄,121.56553191291235,31.15300374264595
10frxv1,f,靖海路547弄,121.76722285638797,31.0578962985623
10fry5g,f,居家桥路1030弄,121.57117794923941,31.244088076663033
10fry27,f,巨野路197弄,121.54563745811511,31.24225652748918
10fryec,f,巨野路246弄,121.54571939435955,31.240517674269707
10fry26,f,巨野路482弄,121.54647119194547,31.234901322639217
10frxt4,f,巨野路大陆家宅,121.54290513130219,31.244207376317043
10fry0t,f,康安路御北路交界口工地生活区,121.56718972145262,31.156866943958843
10fry2p,f,康达路118弄,121.59978359697523,31.117787849730586
10fryh9,f,康达路508弄,121.59745726319235,31.12250213991998
10fryh8,f,康达路688弄,121.59680607796597,31.124511369320967
10fry6c,f,康弘路580弄,121.59868517147193,31.127018759719554
10frxuh,f,康桥路1055号,121.56764383978542,31.14901571642288
10fryih,f,康桥路1100号,121.57002736627408,31.148944808165208
10frxtx,f,康桥路1633弄,121.58410380267709,31.15245194591792
10frydb,f,康桥路787号,121.54927458343258,31.146021847904837
10frxt6,f,康桥路90弄,121.58204597654907,31.15062489072997
10frxub,f,康山路608弄,121.55951264308989,31.155911458288376
10fryan,f,康杉路359弄,121.56169191584097,31.15188436747553
10fryeu,f,康沈公路1300弄,121.57653108834984,31.121849353783418
10frxz4,f,康沈路1527弄,121.57637374048575,31.11840859023553
10fry92,f,康沈路1602弄,121.5746876568754,31.116831924592613
10fryc0,f,康沈路1620弄,121.57582967317288,31.11660247973847
10frxz2,f,康沈路1758弄,121.57845151821986,31.113812303499788
10frygz,f,康沈路1929弄,121.58085566293163,31.109823688273355
10fryhe,f,康沈路1938弄,121.5784460795792,31.10948502931783
10fryhu,f,康沈路1997号,121.58099116660583,31.108299324462127
10frye3,f,康沈路2262弄,121.58082490423632,31.10085973152162
10fryhc,f,康沈路2866弄,121.5807440431734,31.09403401033111
10fryib,f,康沈路2868号,121.58136166262402,31.093648136068722
10frxs5,f,康沈路400弄,121.57078090778614,31.140030588517956
10frxt3,f,康沈路465弄,121.57122910820374,31.139793948256475
10fryh7,f,康沈路633弄,121.57306269509093,31.135523459425475
10frxsv,f,康士路15弄,121.56297860741198,31.149226381857055
10fryf6,f,康新公路79号,121.64038046784367,31.02863737908438
10frxx5,f,康悦路325弄,121.53431398106791,31.35859140551464
10fryct,f,莱阳路111弄,121.57789546564983,31.27313172018743
10fry1l,f,莱阳路201弄,121.57948689689216,31.273736551158354
10fry1u,f,莱阳路218号,121.57971022578373,31.272215400653426
10fry4u,f,莱阳路301弄,121.57963629598996,31.275072384353965
10frxrs,f,莱阳路350弄,121.58312784618099,31.273797663622457
10frxt1,f,莱阳路451弄,121.58271265835882,31.27589197922142
10frydr,f,莱阳路880弄,121.58436213833019,31.282446275683537
10fry1h,f,兰城路115弄,121.57999087360497,31.266379839051698
10fry9q,f,兰陵路24弄,121.51718385205245,31.194232339948332
10frych,f,栏杆村,121.66819046947992,31.16901758411073
10frxtk,f,蓝村路470弄,121.5251222463295,31.21157664385893
10frxrf,f,蓝村路471弄,121.52716012080944,31.21217383012136
10fryhn,f,蓝靛路1688弄,121.64180179091862,31.098512372426026
10frxs4,f,崂山路502号,121.5173624683681,31.23729795677097
10fry4c,f,崂山路551弄,121.52222824035124,31.226708657517705
10frxvo,f,崂山路571弄,121.5232257092401,31.226263884196765
10frxt8,f,崂山路640号,121.52469497126037,31.223568102001565
10frxr8,f,崂山路644弄,121.52610134858753,31.222142847785932
10fry4k,f,崂山路645弄,121.52345729888086,31.223152951822385
10frydo,f,崂山路648弄,121.52161578183971,31.23032619249593
10frye7,f,里仁村,121.56881800858565,31.107368142188296
10frxvw,f,历城路100弄,121.49245456582607,31.174844530009437
10frxs7,f,立新村,121.74758480160344,31.090600699875758
10fry7g,f,利川路501弄,121.68284247731594,31.202475079970313
10fryge,f,利津路1313弄,121.59255073290191,31.281100135083605
10fryhv,f,利津路185弄,121.58042273454123,31.279658881344545
10fryav,f,利津路385弄,121.58595826412268,31.277768508425932
10fry4y,f,利津路53弄,121.57890081587429,31.27940004999528
10fry4w,f,利津路555弄,121.58706253288123,31.27544914415775
10frxw4,f,连民村,121.68876773960451,31.086086420391904
10fry0u,f,莲安西路125弄,121.55366167804401,31.179259771928006
10fryh5,f,联勤村冯桥队,121.55151057562647,31.168539979404578
10fryd8,f,联勤村李家宅,121.55117844650248,31.161934937533275
10fryd7,f,联勤村麦家宅,121.54795704147095,31.164030484418355
10frxsm,f,联勤村张家队张家宅,121.54765305143725,31.16797612803999
10frydp,f,联勤村张家宅冯家队,121.55146157978078,31.16852736772043
10frxsn,f,林展路267弄,121.50805966293339,31.12785442696347
10fryfv,f,临江村,121.47892621556886,31.124318062086648
10fryc7,f,临江村太保队,121.47863136333523,31.11838735654948
10fryfe,f,临沂北路210弄,121.51837695322065,31.20448110629356
10fryag,f,临沂路81弄,121.51764782746571,31.19694581203816
10fry7n,f,灵山路1390弄,121.56360612788336,31.236703677510263
10fry5r,f,灵山路1671弄,121.56690751131275,31.239681481694902
10fry55,f,灵山路1726弄,121.5684309201029,31.240243858332207
10frycz,f,灵山路1820号,121.5712772724333,31.24173980620089
10fry54,f,灵山路1840弄,121.57147150953898,31.241511226271445
10fry9k,f,灵山路600弄,121.54377459323625,31.22704189001845
10fry29,f,灵山路701弄,121.54550529290377,31.230011820893687
10fry9f,f,灵山路785弄,121.55039811792534,31.2318390674433
10fryhb,f,灵山路866弄,121.55266806876642,31.23117952206025
10fry3n,f,凌河路38弄,121.59432359599255,31.27692438815267
10fry52,f,凌河路618弄,121.60289334683826,31.271707415037213
10frygf,f,凌河路777弄,121.60313289906733,31.274006974070065
10fry60,f,凌空路55弄,121.7172511644343,31.202438682499583
10fry0o,f,柳埠路135弄,121.58414462434366,31.26170054071032
10fry1j,f,柳埠路142弄,121.58116131756267,31.26356810747878
10fry5y,f,六团周家宅,121.72648986713163,31.154300661694183
10frybq,f,龙东大道2895弄,121.63496758082835,31.22533320148376
10frxtz,f,龙居路179号,121.56348025284369,31.251615002572265
10fryd3,f,龙居路180弄,121.5626751438642,31.251392174138086
10fry9y,f,龙阳路1629号,121.54753159523267,31.200598827454623
10fry3a,f,陆凌村宋家宅,121.86042852586228,31.026269170256516
10frxs8,f,鹿溪村,121.7097585606041,31.118028619756355
10fry5s,f,罗山四村,121.55708757963498,31.251276905731768
10fry35,f,吕三村南蒋家宅,121.50619553949225,31.155264959879066
10frxsf,f,绿林路320弄,121.54734036314085,31.17014223263865
10fry2o,f,梅林村,121.56040688688432,31.08485750477993
10frxwo,f,美容新村,121.83752229551295,31.03918534982366
10fry24,f,苗圃路218弄,121.54821269305273,31.243387026349765
10frxu3,f,苗圃路266号,121.54924810954826,31.241270176427307
10fry7m,f,苗圃路400弄,121.55003253786307,31.239011142918603
10fry9l,f,苗圃路600弄,121.5535582100632,31.23407087875207
10fry5v,f,妙川路800弄,121.7033636232961,31.177761784029393
10fry7d,f,妙境北路323号,121.68690481612852,31.204465865995882
10fry7c,f,妙境北路451号,121.68587355678146,31.207179335988624
10fry7e,f,妙境北路65号,121.68810799044847,31.20040903078452
10fry0c,f,妙境路124弄,121.68924096191226,31.19714509037642
10fry7b,f,妙境路162弄,121.688102006455,31.196608548843482
10fry0h,f,妙境路395弄,121.69167532519508,31.19274549815473
10frye1,f,妙境路404弄,121.69032115828772,31.1924831971276
10fry0f,f,妙境路600弄,121.69130085616608,31.189029833553306
10fry5w,f,妙栏路200弄,121.68823285499784,31.1839134317978
10fry07,f,妙栏路353弄,121.69058101921733,31.186275528668066
10fry7a,f,妙明北路116弄,121.68999000669477,31.201439218713197
10fry0l,f,妙南路265弄,121.68936209151778,31.18578713963796
10frxyr,f,民春路501弄,121.6668070369706,31.277139057177784
10fry36,f,民丰村北黄家宅,121.64575963770776,31.206071589513872
10fry9z,f,民丰村龚家祠堂,121.64223478460464,31.211009578011787
10fry33,f,民丰村龚家宅,121.64761523465275,31.205011032514278
10fry32,f,民丰村李家宅,121.54991211545185,31.1616818280635
10frxyp,f,民建村,121.64973285932992,31.272794191283012
10frxyq,f,民区路176弄,121.65195704764345,31.27343907526091
10frxyv,f,民区路260弄,121.65609979153535,31.273714433029056
10fryed,f,民生路260号,121.540498868865,31.242824627949005
10fry9h,f,民生路369弄,121.54193879139662,31.24073315500363
10fryfl,f,民生路423号,121.5429725111233,31.24030641921205
10fry8h,f,民生路423弄,121.54243346718472,31.239965278472837
10fry21,f,民生路818弄,121.5461725612394,31.231472000005926
10fryha,f,民生路999弄,121.5488478508765,31.229515066160506
10fry53,f,民义村,121.69888309624832,31.127836983780096
10fryfi,f,民雨路390号,121.66289640766473,31.27448791941297
10fry11,f,闵家浜路60弄,121.72170725501377,31.07505850496478
10fry0x,f,闵家浜路70弄,121.59541286816544,31.218025332456964
10fryaf,f,牡丹路145弄,121.54473623920678,31.208142477475114
10fry6x,f,牡丹路258弄,121.54894478073875,31.207315994778234
10fry7r,f,牡丹路340弄,121.55028613572057,31.208018896603665
10frybs,f,南曹路901弄,121.66261888245721,31.204498292185793
10frybp,f,南陈路108弄,121.39759148050129,31.31576698785378
10frxvv,f,南阜村东汤家宅队,121.5197959974588,31.130105388437403
10fry10,f,南六公路699弄1支弄,121.70945716274558,31.071728844101436
10frxs2,f,南码头路1120弄,121.51383584487839,31.185716045218864
10frxwv,f,南码头路1127弄,121.51445346907207,31.185867727553163
10frxuv,f,南码头路1136弄,121.51429353590504,31.183668157763456
10frxt5,f,南码头路1696弄,121.51464933689418,31.17590527115695
10fry9p,f,南码头路260弄,121.50878224773518,31.19709492096089
10fry0b,f,南桥路1060弄,121.69103939927555,31.187234142321
10fry8q,f,南桥路1152弄,121.68904924507233,31.186812331781724
10fryis,f,南桥路297弄,121.70734021026085,31.191671919001195
10fry04,f,南桥路983弄,121.69292023464183,31.187285805644404
10fry80,f,南泉路1200弄,121.52273437462145,31.213455869722175
10fryff,f,南泉路1241弄,121.52288203052294,31.21260674066217
10fry81,f,南泉路1250弄,121.52252065775136,31.212545828611756
10fry7z,f,南泉路1261号,121.52282124970635,31.21104970756403
10frxu4,f,南泉路1300弄,121.5201761874825,31.2110932320581
10frxug,f,南泉路1350弄,121.52097281541968,31.209159862383906
10fryc3,f,南塘村顾家宅,121.56817980265356,31.33927080557822
10frydq,f,南塘村姚家宅,121.5762091811904,31.184682917617003
10fryee,f,南团公路105号,121.76409671881534,31.038272927621353
10frxs6,f,南团公路858弄,121.76219227383281,31.02680890723421
10frxu7,f,南新村,121.78880817549175,30.871596986686075
10frxsq,f,南新村吴家宅,121.78851528187649,30.87181019260564
10frxu8,f,南新村西钟家宅,121.78886569908416,30.87175281575427
10frycu,f,南洋泾路287弄,121.554676020838,31.23864347814068
10frxwm,f,南祝路258弄,121.75613312271915,31.117693816384076
10fryhj,f,年家浜东路129弄,121.59378640908855,31.11556352579857
10frygq,f,年家浜路129弄,121.5897787130969,31.11586974634511
10fry8x,f,年家浜路159弄,121.59361283420708,31.11475698808537
10frygo,f,年家浜路213弄,121.5807552302959,31.115495668276367
10frygs,f,年家浜路275号,121.58005588557724,31.115196617379915
10frxzf,f,年家浜路28弄,121.58590514767238,31.114920217871603
10frxzd,f,年家浜路339弄,121.57661847750971,31.113830454067507
10fry90,f,年家浜路366弄,121.57661430892544,31.115373718120345
10fryhl,f,年家浜路428弄,121.57379859580283,31.114704300602007
10fry98,f,年家浜路461弄,121.57120712632168,31.112428958107174
10frxx4,f,牛肚村,121.8232405413343,31.0418087165566
10frxtn,f,牌楼村,121.55877806050695,31.052802933584122
10fryap,f,鹏飞路426弄,121.55500705636483,31.171801443149324
10fry3z,f,平度路388弄,121.59208035234255,31.253159227011217
10frxry,f,浦城路580弄,121.51471215969403,31.22453943281935
10fry8v,f,浦电路108弄,121.52028669458136,31.218902602735287
10frxts,f,浦电路155号,121.52156888360238,31.2184923825085
10frxsh,f,浦电路218弄,121.52598148405356,31.219796543600832
10frya7,f,浦电路221号,121.52366222489952,31.21852160670023
10frxqt,f,浦电路29弄,121.51481500212071,31.21628473761136
10fryes,f,浦电路300号,121.5251150650749,31.219866509104893
10frxtm,f,浦电路305弄,121.5264227320856,31.218575168563138
10fryaa,f,浦电路307号,121.52593504324383,31.219827053587146
10frxxh,f,浦电路311号,121.5261246368729,31.219823014157935
10frxqn,f,浦电路328号,121.52649460459814,31.221095072096748
10frxtd,f,浦电路330弄,121.52643857294618,31.22111653454147
10frxtw,f,浦电路331弄,121.52794464648095,31.219320442095615
10fryab,f,浦电路489号工地生活区,121.53284492625839,31.227091917491503
10fry4l,f,浦电路48弄,121.51715421627397,31.218194554706134
10frxr9,f,浦电路53弄,121.51625923668817,31.21758371176987
10frxuk,f,浦电路56号,121.51767921610407,31.21824033701796
10fry6f,f,浦电路57号,121.5166265674791,31.217145433629675
10fryc4,f,浦东北路2300号,121.57879674240385,31.320211193874922
10fry2b,f,浦东大道1700弄,121.5440170119378,31.245144345867917
10fry9g,f,浦东大道1851弄,121.54495725774566,31.247335062211437
10fryii,f,浦东大道2250弄,121.55228048131706,31.25118668553473
10frya8,f,浦东大道2311号,121.55412624656225,31.254204491791377
10frxyb,f,浦东大道2511弄,121.55917069675488,31.259397981199776
10fryhy,f,浦东大道2748弄,121.57292716610583,31.268029392412355
10fryi0,f,浦东大道2778弄,121.57555096451115,31.269511191639545
10frxvd,f,浦东大道2894号,121.57653350430301,31.272481869233243
10fry1m,f,浦东大道2920弄,121.57809011998418,31.27395464048375
10fry1f,f,浦东大道2970弄,121.58117421964577,31.276861933383763
10fry1k,f,浦东大道3080弄,121.57733627746978,31.282229268136824
10fry4m,f,浦东南路1200号,121.51651041723278,31.22679190747038
10fryez,f,浦东南路1288号,121.51673092144301,31.225335406526803
10fryga,f,浦东南路1299号,121.51745650751012,31.22598120485698
10frxxi,f,浦东南路1466弄,121.51616226177636,31.22197962718597
10frxu0,f,浦东南路1475弄,121.51863806352073,31.222374728463972
10fryal,f,浦东南路1533号,121.52093457402565,31.22064921330336
10fry6g,f,浦东南路1550弄,121.51792191052347,31.220605521892416
10frxqr,f,浦东南路1700弄,121.51820658648354,31.21747528891178
10frxvk,f,浦东南路3905弄,121.502245120195,31.182838366590314
10frye6,f,浦东南路599弄,121.50116678955052,31.183372829346435
10fry8m,f,浦明路233弄,121.51090534779343,31.22657094261007
10frybg,f,浦三路32号,121.51149779765963,31.196784477911553
10frybc,f,浦三路629弄,121.51714552875366,31.188438386380525
10frxus,f,浦三路635弄,121.51787884597537,31.18929803668431
10frxqp,f,浦三路741弄,121.52059551526301,31.18661443728581
10fryby,f,浦兴路1293号,121.58805109744324,31.266607013476033
10fry5z,f,普庆路115弄,121.71939108872007,31.155487183040606
10fryf0,f,普新路707号,121.72920365360821,31.147936173812962
10fry7k,f,栖山路100弄,121.54377601859673,31.241770738841566
10fry2c,f,栖山路130弄,121.54496468846487,31.242882114342162
10fry5l,f,栖山路1558弄,121.56550371045283,31.257151950831954
10fry58,f,栖山路1578弄,121.56562083528975,31.257374919324807
10fry5f,f,栖山路1689弄,121.56803379375039,31.259540142227745
10fry5c,f,栖山路1855号,121.57125759972072,31.260824808478937
10fry56,f,栖山路1861弄,121.57065757258995,31.261849130871717
10fry5n,f,栖山路1899弄,121.57214356077816,31.26218805331519
10frxv4,f,栖山路400弄,121.55079823588521,31.246393406540328
10fryas,f,栖山路401弄,121.5497588898471,31.246512382165164
10fry25,f,栖山路450弄,121.55182769750327,31.247593554784412
10fry28,f,栖山路465弄,121.55099682879026,31.247616275030303
10frxvc,f,栖山路99号,121.54336156237912,31.24278779505574
10frxxz,f,齐河路259弄,121.50369033848327,31.180545130030463
10frxvl,f,齐河路26号,121.5017970499159,31.17796223574487
10frxy7,f,齐河路27弄,121.50041631776757,31.178693084493815
10frxqw,f,齐河路438弄,121.50729025981484,31.180241144289276
10frxtl,f,齐河路909弄,121.5158422270657,31.18478250648391
10frxy5,f,其成村,121.68774893232295,31.112325822232343
10frxyw,f,启明村,121.6946277737263,31.276787534401844
10frxwp,f,千汇路1000弄,121.55757575314675,31.203135354123432
10frxwd,f,千汇路280弄,121.76859726332478,31.109929539183863
10frxwb,f,千汇路580弄,121.76736093742457,31.1138942405046
10frxwr,f,千汇三村,121.76409708210375,31.112866781928854
10frxwl,f,千汇一村,121.76881978890808,31.109696641506087
10fry7v,f,前进村顾家宅,121.65079331773511,31.19752154913603
10fry69,f,前哨村三队顾家宅,121.66804985619733,31.281431675593158
10fryf9,f,前哨路15号,121.71746222105358,31.23806489273701
10frxzz,f,前哨路231弄,121.72255224246564,31.239074836144805
10fryfd,f,前哨路25号,121.7174101784464,31.238403123260998
10frygl,f,钱堂村新立宅,121.59287297090403,31.157946384215727
10frxxt,f,钦殿街58号,121.53155212470979,31.232905563991
10fryg9,f,勤昌村杨家宅,121.73512085227576,31.215634451824286
10frycb,f,勤奋村,121.72173796243908,31.26071437606779
10fry6b,f,勤益村顾家宅,121.71502744358361,31.204549321552296
10fryfc,f,勤益村赵家宅,121.71586051769084,31.21736480734863
10frycc,f,青艺路181弄,121.67977587773798,31.19640551668205
10fry3b,f,清溪路260弄,121.57220622242107,31.343657558492872
10fry3r,f,清溪路299弄,121.57485839597071,31.341060763836047
10fryeq,f,清溪路365弄,121.57225089415923,31.339870028983963
10fry87,f,清溪路430号,121.57078954577835,31.340409611716318
10fry67,f,庆滨路155弄,121.72404859432547,31.232360887256537
10fry66,f,庆丰村,121.71708462916055,31.241325498332493
10frxsr,f,庆利路185弄,121.72546211627781,31.23561183008293
10frxzy,f,庆利路425号,121.72585701628326,31.231733718968655
10fryf8,f,庆利路425弄,121.72741700765303,31.23242033719245
10fry61,f,庆星村顾家宅,121.71525023587321,31.204519385636203
10fry3t,f,秋霞路300弄,121.58612606586154,31.33518292214805
10fry23,f,区巨野路1700弄,121.54274511802744,31.244227667054393
10frxyo,f,群乐村付家圈,121.68219733294323,31.281856534694047
10frxzr,f,仁义村,121.64078629162229,31.05845963260102
10fry19,f,日新村杨薛家宅,121.66834571274157,31.258372072678544
10fryfn,f,荣成路17弄,121.51775009533227,31.240516400247134
10fryhf,f,瑞安路120弄,121.59367790021169,31.090766871836784
10fry2r,f,瑞安路211弄,121.58991584092846,31.09141268533681
10fryi8,f,瑞安路699弄,121.6009977348467,31.092501474807158
10frye5,f,瑞安路80弄,121.58806222850514,31.089115313826436
10fry2q,f,瑞福路196弄,121.6032049849408,31.09632428906574
10frxxc,f,瑞和路168弄,121.58862830719457,31.085781534725683
10frxxa,f,瑞和路269弄,121.58856697446568,31.087001973234777
10fryhi,f,瑞和路555弄,121.59577545730046,31.090472340862124
10fryco,f,瑞和路900弄,121.60306767821928,31.088277974925607
10fryi9,f,瑞浦路287弄,121.58556206262632,31.095158555734596
10fry0q,f,瑞浦路77弄,121.58758609157402,31.098061112185583
10frybz,f,瑞浦路8弄,121.58522639741426,31.098763592866618
10frxz9,f,瑞阳路693弄,121.59052246088149,31.089385417392574
10fry2t,f,瑞阳路81弄,121.58845383822793,31.098811423539015
10fryb6,f,瑞意路399弄,121.58772983965483,31.09568063354483
10frye8,f,瑞意路428弄,121.58815001839767,31.09454950991413
10frxwf,f,三八村,121.77215354900987,31.097257792656006
10fryay,f,三林路910号,121.51032804088096,31.141840581437624
10frxrn,f,三旋路506弄,121.50271942637758,31.11931981703113
10frxtj,f,三灶村,121.71204815412223,31.069922206923415
10frxxx,f,商城路1177弄,121.52773908176046,31.235760095916746
10fry4n,f,商城路48弄,121.59554587263175,31.028302453133854
10fry8i,f,商城路918弄,121.52311903317351,31.232077524652432
10fryir,f,上川路538号,121.64638791237651,31.272642794151682
10fry17,f,上川路中虹家园,121.67242014610865,31.282637130054702
10frxtb,f,上南路1251弄,121.49702177802567,31.173417628129705
10frxsb,f,上南路2779号,121.49724437272683,31.166922839385464
10frxr1,f,上南路3300号,121.49823974633813,31.158591230051425
10frxtg,f,上南路3521号,121.50414921925478,31.154877318026962
10frxsj,f,上南路5588号,121.52714076425238,31.124847961548276
10frxso,f,上南路5600号,121.52701598059957,31.12591275632725
10fryhd,f,上南路6392弄,121.49991712014092,31.157379118342288
10frxro,f,上南路6500弄,121.54779907463418,31.117253958029785
10fryik,f,上南路6620弄,121.55326841583462,31.117406935877305
10fry8y,f,上南路7718弄,121.57033339808532,31.116699971836887
10fryhr,f,上南路7788弄,121.57178079760246,31.11735584809708
10frxrk,f,上南路929弄,121.49605779785689,31.176614823508867
10frxth,f,上南新村,121.51294180917282,31.147648857899114
10fryc6,f,上浦路165弄,121.49203510637575,31.146289509904033
10fryb7,f,尚博路799弄,121.52459283162324,31.151102586248292
10frydt,f,申江南路7688号,121.6530267569461,31.033363322053148
10frydu,f,申江南路7777弄,121.65596773841648,31.033896676909723
10fry2a,f,沈家弄路900弄,121.54615653445332,31.23883986318283
10fryde,f,沈家弄路936弄,121.54705441399163,31.240193326563578
10fry93,f,沈梅东路300弄,121.59340900169225,31.093331909505114
10fryhq,f,沈梅东路355弄,121.59349025844269,31.093179960098688
10frxyk,f,沈西村,121.56579458247691,31.090230751278437
10fryej,f,沈庄村,121.58465636152873,31.08613061202703
10frxxf,f,沈庄西街,121.58507263120879,31.0859185383959
10frydg,f,盛朱村,121.69932206592271,31.26937664604469
10fry3f,f,施湾二路766弄,121.74643100448182,31.146335295326512
10fryeg,f,施镇路358弄,121.75467069314452,31.148065559022942
10frxyl,f,施镇路385弄,121.75793760097042,31.143544834601354
10frydh,f,石家街97弄,121.58033367929711,31.343501240190633
10fry9e,f,世博家园大道站路94弄,121.53500909613084,31.16327633156804
10fry4x,f,寿光路161弄,121.58413531210924,31.274468740929958
10fry1i,f,寿光路75弄,121.58435603678052,31.273309711627952
10fry9x,f,寿光路78弄,121.58608823925482,31.272560884828703
10fry8p,f,双桥路1108弄,121.61415492108068,31.283030889981962
10fry40,f,双桥路180弄,121.59456888712326,31.284553672265627
10fry3y,f,双桥路220弄,121.59614163920168,31.285731946771016
10frxxq,f,松林路111号,121.53096857791397,31.232506873069603
10frxqd,f,松林路333弄,121.53399158652847,31.22677378380744
10frygm,f,孙耀路128弄,121.63369642350597,31.18495505876943
10fryf7,f,笋心路19弄29支弄,121.64369775857404,31.02119192514328
10fry42,f,台儿庄路663弄,121.59835637475224,31.25531883259152
10frxzh,f,坦南村,121.65201285119491,31.071707000715868
10frxzv,f,坦西村,121.63356211558026,31.073988086947086
10frxul,f,汤巷中心村,121.60903030718352,31.143248918496685
10frxxy,f,唐港路1059弄,121.8641620076294,30.977073965784022
10fryaj,f,唐陆公路3312号,121.6551762698477,31.208332632452244
10frxzi,f,唐陆路1190号,121.63563482140404,31.242362436785292
10fry7s,f,唐陆路139号,121.62380157199047,31.257170786331127
10fry7u,f,唐四村,121.66116338446541,31.214500881176182
10fryeo,f,唐镇路127弄,121.64980719958562,31.20710366015997
10fry34,f,唐镇新街,121.65628208883781,31.209925552876825
10frxv8,f,桃林路189号,121.53552056165981,31.240588473423767
10fry9i,f,桃林路815弄,121.54005092305746,31.23328449532941
10frxsx,f,天花庵村,121.53410737733823,31.122743165911597
10frxv0,f,听悦路960号,121.74002481738283,31.061284256821356
10frxqa,f,通济路328弄,121.7474730916981,31.052080442656827
10frxuz,f,通济路365弄,121.74558496785805,31.051981237624116
10frxtp,f,通济路47弄,121.74548093496057,31.04305714735862
10frxw3,f,通源东路16号,121.88879625831214,31.00548331773164
10frxux,f,团结村,121.77820007880867,31.02152144290291
10frxwa,f,瓦南村,121.65281315732824,31.098683695353664
10frxx7,f,晚霞路551号,121.74955622657333,31.178788078766935
10fry3p,f,晚霞路715弄,121.75148099755269,31.18076448928119
10fry57,f,万德路45弄,121.5569319800365,31.251372307243507
10frycr,f,万德路67弄,121.55993441059586,31.24976529267037
10frxxb,f,王楼村,121.61767977328866,31.06822292063601
10frxzu,f,王桥村,121.66329528601854,31.014276772185173
10fry3c,f,望三村东唐家宅,121.76436518768345,31.153834046365805
10frxqf,f,微山二村,121.51349514200437,31.208472033799538
10fry4i,f,潍坊路126弄,121.52388592501345,31.22179471499692
10frxs1,f,潍坊路168弄,121.52749075190764,31.22542547000437
10frygc,f,潍坊路274号,121.53404824250394,31.22775836995817
10frygb,f,潍坊路280号,121.53446051088603,31.22832004468581
10frya0,f,潍坊路333弄,121.52741605533865,31.225981268004865
10frxxk,f,潍坊路335弄,121.53202814865698,31.22956662077085
10fry6e,f,潍坊路335弄2支弄,121.53202780592979,31.22957742065786
10fry6h,f,潍坊路335弄3支弄,121.53197651880785,31.22959224439612
10frxsc,f,潍坊路606号,121.52250844217839,31.22269333004458
10frycp,f,潍坊路716号,121.52109023767673,31.22383779750443
10fry4h,f,潍坊路89弄,121.51907978992547,31.225457088389994
10frxxj,f,潍坊西路100弄,121.51677071440892,31.22236543189223
10fry4d,f,潍坊西路1弄,121.51286217587331,31.222592659490733
10fry4f,f,潍坊西路2弄,121.51472272969315,31.219491426268117
10frxx8,f,卫东村周家宅,121.75567594828618,31.176801582479868
10frxrz,f,卫民村,121.74122831109688,31.098486157103032
10fry8w,f,卫行村顾家宅,121.5815692015226,31.164757882942457
10fryh4,f,卫行村张家队张家宅,121.54771274425909,31.168085765474927
10frxtf,f,卫行村朱家队朱家宅,121.58315071143369,31.16153342967709
10frygt,f,文康路2号,121.58246531111878,31.11693061527986
10fry1g,f,五莲路100弄,121.57923708707906,31.27555703877803
10frxqe,f,五莲路1047弄,121.59432510134097,31.272600939199997
10frxqx,f,五莲路108弄,121.59982049794992,31.282094466302425
10fry0n,f,五莲路1168号,121.59647984487411,31.272025135377323
10fryar,f,五莲路1424弄,121.59909071754566,31.276809955907247
10frygg,f,五莲路1769弄,121.59584667411664,31.283065972832755
10frxvx,f,五莲路758弄,121.59096576587422,31.269476495598024
10fry49,f,五莲路959弄,121.59213476292044,31.27162550897749
10frxs3,f,五星村陈家队陈家宅,121.56777360290643,31.191883653607665
10frybb,f,五星村家务队顾家宅,121.56975946443194,31.169100983027935
10frydx,f,五星村秦家宅,121.57158587917296,31.17373793898478
10frxt0,f,五星村徐家队奚家宅,121.69696776503876,31.22024709013395
10frxv3,f,西门村,121.74165583970856,31.054963082144955
10frxv2,f,西门路121弄,121.74492844918221,31.046630070952236
10fry9u,f,西泰林路901弄,121.53915081666429,31.144159828267334
10fryfb,f,奚家村,121.71129052165745,31.247737917017528
10fryci,f,霞玉路436弄,121.69518320710331,31.256831080205608
10frybk,f,下南路225弄,121.54293622093672,31.168062904181816
10frxrb,f,下南路276弄,121.54209300360864,31.168360601994685
10frxr2,f,下南路320弄,121.54065880500383,31.168550233322797
10frxr0,f,下南路339弄,121.54249930296376,31.169525696366538
10frxql,f,下南路370弄,121.53958629443999,31.170079519806098
10frxr4,f,下南路500弄,121.53886812401967,31.171941069714226
10frxrm,f,下南路501弄,121.54093547703864,31.172243492605826
10frxrh,f,下南路50弄,121.5426408515601,31.167398482344222
10frxre,f,下南路526弄,121.53849632769794,31.171388776969113
10frxqq,f,下南路551弄,121.54204191241111,31.173141180739222
10fryc5,f,下沙街54号,121.59757681073961,31.049339638486387
10fryer,f,夏碧路80弄,121.58885388880283,31.341100966234386
10frxwj,f,先进村,121.80374250533575,31.096524619639297
10fry3j,f,祥安路149弄,121.81216023374752,30.95991518475761
10fry1x,f,翔川路458弄,121.69570947515214,31.183586027467804
10fry4a,f,向城路19号,121.52964714216247,31.22394222670959
10fry4b,f,向城路29号,121.52910088981677,31.224508034104783
10fry1q,f,向东新村,121.57696743947456,31.272276944806677
10fry0g,f,小湾村,121.6900725845251,31.228325837152177
10frygy,f,小云台街343号,121.57820075438318,31.12138615604034
10fryim,f,欣河村,121.82647154991118,31.021699922139376
10fry0z,f,新安村,121.68139926963183,31.023371810144447
10frxy6,f,新陈路150弄,121.5602914944926,31.17871576086085
10frxuf,f,新陈路303弄,121.56610136171753,31.180868981739053
10fryg7,f,新川路1100弄,121.68418403731214,31.188775601006732
10frya5,f,新川路922弄,121.68809946578571,31.19023231169545
10fry6z,f,新川路995弄,121.68688919029152,31.188785834959063
10fry2y,f,新春村朱家宅,121.69266421679986,31.160330194418027
10fry6t,f,新村路59弄,121.49664054210193,31.164138398178174
10fryg2,f,新德路201弄,121.68762720020253,31.195616650788047
10fry2f,f,新德路341弄,121.69838411965056,31.19710803722574
10fry05,f,新德路558弄,121.69237304615557,31.19709305765767
10frygx,f,新德路835弄,121.68828492835885,31.195777390501156
10fryg5,f,新德路908弄,121.685138380596,31.196007294142117
10fryca,f,新德路939弄,121.68468158903808,31.193845972790765
10fryiw,f,新德西路511弄,121.67131379358989,31.192280398446236
10fry8t,f,新德西路99弄,121.67593286232119,31.193641840929963
10fry0a,f,新东路5号,121.74047222914653,31.193074487473055
10fry7x,f,新虹村东包家宅,121.6495587018457,31.239043135461575
10fryi2,f,新虹村秋家宅,121.64836374925594,31.24290483934332
10fry2i,f,新虹村赵家宅,121.64839006106676,31.242801691865893
10fryf2,f,新华村顾家宅,121.66172497816402,31.264822696101557
10frxzq,f,新环北路1333弄,121.63483666438512,31.030662046119193
10fry0j,f,新吉村,121.71305737882952,31.109539935979942
10frybi,f,新浦路251弄,121.53564811277312,31.166748515573026
10frxui,f,新浦路543弄,121.53045544562889,31.169847508093167
10frxta,f,新浦路587弄,121.52966336002999,31.168026795510293
10frxr7,f,新浦路673弄,121.53048151129047,31.169858340127757
10frxzt,f,新卫村,121.63980189163715,31.039562803489453
10fry84,f,新星村,121.70443853198661,31.25717716142464
10fryfq,f,新营村张朱家宅,121.75178292799143,31.196779405817754
10fryen,f,新镇村石家观音堂,121.64025249202699,31.236449239462637
10frxwk,f,星光村,121.74073710526123,31.11312135730126
10frxwc,f,星火村,121.76875162681704,31.080530014819015
10fry8d,f,行德路141弄,121.61105449077024,31.29476146081472
10fry37,f,行南路900弄,121.58837860379217,31.327827343025614
10fry3v,f,行泰路150弄,121.60692827642752,31.28947835305457
10frxuw,f,幸福村幸福公寓,121.77805672137241,31.026994072156057
10frxyh,f,秀龙村,121.56261820077667,31.126251509054885
10fryiy,f,秀浦路1011号,121.57502784419192,31.12830381554446
10frydi,f,秀浦路168号,121.5519637211445,31.123555960476644
10fryac,f,秀沿路1028弄2支弄,121.57655973307946,31.128277205191118
10frxud,f,秀沿路2501弄,121.6015386099391,31.138237019926127
10fryix,f,秀沿路505弄,121.56311125796367,31.13442813814059
10fryh6,f,秀沿路836弄,121.57107011005459,31.134075821991253
10fryh3,f,秀沿西路218弄,121.53502202729169,31.12974644377222
10frxum,f,秀沿西路68弄,121.53723342165205,31.13163258078914
10fry06,f,绣川路1130号,121.70925962355788,31.18596344537129
10fryiq,f,绣川路581号,121.69939839017857,31.182920406482467
10frxym,f,迅建村,121.69287308901734,31.281718594657132
10fry1e,f,严楼村,121.744455477769,31.020524550055825
10fry70,f,严民路251弄,121.53186670994246,31.190105803619723
10frxvr,f,严杨路165弄,121.5294978566687,31.194812792370637
10fryfm,f,严中路140弄,121.53075354491811,31.193389691855824
10fry6w,f,严中路300弄,121.53227772272294,31.190743870978054
10frxyi,f,沿江村,121.60220990403725,31.056030930710527
10frydy,f,沿南村,121.59843191239683,31.132724055192377
10frydf,f,杨高北路446弄,121.58547393373378,31.34671453772877
10fryef,f,杨高北路5291弄,121.60569588124507,31.264555663661977
10fryb9,f,杨高南路2772弄,121.5194039645234,31.17754299595884
10frxww,f,杨高南路2828号,121.51888282550101,31.17644428898877
10frxsp,f,杨高南路5055弄,121.5312746027468,31.149801262098542
10frybv,f,杨高中路10弄1支弄,121.60004045092118,31.25851451779591
10fry9j,f,杨高中路2168弄,121.55157595656378,31.230233910900747
10frxr6,f,杨莲路311弄,121.5497835715029,31.1651510992388
10frya9,f,杨南路1899弄,121.51790870651692,31.157526347289597
10fry0w,f,杨南路689弄,121.50076292898164,31.15321277199969
10frxws,f,杨思北街,121.49288091230608,31.164012671074595
10frxsi,f,杨思路855弄,121.49870261053826,31.164714058621634
10frxxw,f,杨思镇后长街,121.49687670627566,31.163452145652098
10frxv7,f,洋泾镇路117号,121.55319490800738,31.238986469662702
10fry2n,f,姚桥村,121.59821050360843,31.114614548751362
10fryh1,f,窑港村,121.66576925575242,31.102648881841205
10fry9b,f,窑港路188号,121.66623393146462,31.10045133352923
10fry76,f,药师新村,121.68204654897063,31.20343242431561
10frxsl,f,耀华路200弄,121.49062146491737,31.176156438903195
10fryew,f,耀华路212号,121.48881539276783,31.176052770858334
10frxsz,f,耀华路421弄,121.48267509359128,31.173872873271137
10fryi5,f,耀华路435号,121.48305421360104,31.173653676794668
10frxx3,f,耀华路550弄,121.48155085351452,31.171233291490843
10frxua,f,耀华路579弄,121.48058216759708,31.17227533203253
10frxtc,f,一六村金桥队南赵家宅,121.79557804141355,30.985451628793555
10fryij,f,一六村南赵家宅,121.58909986354995,31.16036930607516
10frya6,f,益江路126弄,121.6330933464883,31.201438387324135
10fryei,f,逸仙路1511弄,121.48611887985683,31.318443833476447
10frxsa,f,懿行路971弄,121.51484107243634,31.125208862626092
10fry8k,f,银城中路8号,121.50729578844133,31.241583845950196
10fry0k,f,银峰路676弄,121.69082256628131,31.26482001573266
10fry5a,f,银山路72弄,121.57844089109017,31.24255745735046
10frxuy,f,英雄村,121.75351315797278,31.02933378951275
10frycn,f,樱花路831号,121.56117684608584,31.208043369027475
10frxv9,f,迎春路1355弄,121.56272959572703,31.228949825959077
10fryb3,f,营房村,121.73546858828956,31.2107695297235
10fry3o,f,营前村,121.7479162659201,31.189855504272092
10frxwq,f,永春东路70号,121.7409794691724,30.973104710905186
10fry1a,f,永春南路407弄,121.73830825856264,30.968674089715893
10fry1b,f,永春西二路86弄,121.73512571706101,30.976581825109186
10fry18,f,永丰村陈家宅,121.56533163270298,31.176602828635154
10frxz1,f,永和村,121.6958352307664,31.263780188026598
10frxyd,f,永乐村,121.758981868538,31.07783219439313
10fryf1,f,永利村龚家宅,121.69889312025634,31.265628278279628
10fry13,f,永宁路136弄,121.60946407531522,31.266805824543347
10frxw9,f,永泰路133弄,121.50453809474492,31.13699840779178
10frygi,f,永泰路136弄,121.50430252191441,31.13459658341209
10frxuo,f,永泰路775弄,121.51938702627687,31.142171398180306
10fry6j,f,永新村,121.66529512628088,31.309593545374643
10fry12,f,永业路218弄,121.61572869552081,31.26748754710692
10fry6k,f,踊跃村,121.6519947886655,31.305956744033917
10fry22,f,羽山路100弄,121.53792196605306,31.229774508954595
10frxqi,f,羽山路1445弄,121.56179910146682,31.242152103436744
10frxv6,f,羽山路1446弄,121.56153315332335,31.239730877010143
10fry5j,f,羽山路1950弄,121.56787689515211,31.2443401930826
10frxvj,f,羽山路308弄,121.54199238235421,31.23168350227907
10frxti,f,羽山路780号,121.55040275985546,31.234876721734015
10fry9m,f,羽山路851弄,121.55294800277926,31.236629149670122
10frycs,f,羽山路951弄,121.55410481986128,31.23705364866857
10frxvb,f,羽山路998弄,121.5565136679019,31.237272368441552
10fryda,f,玉兰路81弄,121.5477627292337,31.20382520504694
10frybe,f,玉盘北路281弄,121.67360887663706,31.225433817635597
10frxvs,f,御北路235号工地生活区,121.56708933492098,31.156706236451647
10frxqo,f,御衡路68弄,121.58195299302785,31.154030039932
10frxtr,f,御桥村姚家队姚家宅,121.55437362694778,31.167284825214026
10fry0v,f,御青路56弄,121.5699507578712,31.161598326998885
10frxu5,f,御山路360弄,121.56737949122642,31.15552402785646
10frybf,f,御水路199弄,121.57479159726466,31.16019610510183
10fry7o,f,园艺村,121.74865905422352,30.98264002466808
10frydd,f,圆洲路189弄,121.63600271807537,31.31499221052845
10fry6i,f,源深路600弄,121.53428034188856,31.231196937930413
10frygv,f,源深路600弄1支弄,121.53091988806428,31.229158755454385
10frxxl,f,源深路600弄2支弄,121.53416694998745,31.229895942165605
10fryba,f,源深路600弄3支弄,121.53223123841424,31.23130945825854
10fry7f,f,跃进新村,121.70494505691062,31.20791439884406
10frxrp,f,云莲路398弄,121.50573782517405,31.17846938647013
10fry6q,f,云山路1395弄,121.57694863643167,31.243978729950012
10fry5m,f,云山路839弄,121.57221946492695,31.253137421588573
10frxr3,f,云台路183弄,121.50441160247115,31.179419954998394
10frxy3,f,云台路453弄,121.50594643320784,31.171608476075555
10fry8b,f,云台路98号,121.50000626503893,31.182150738623868
10fry79,f,运通路728弄,121.70224423938335,31.203008520685405
10frxz6,f,韵浦路167弄,121.5772687215996,31.11190509606037
10fryif,f,韵浦路267弄,121.58118494377189,31.112043167985718
10fry15,f,韵涛路36弄,121.58766307870849,31.10271480408171
10fryd5,f,展凌路58弄,121.53050330549799,31.359740131234943
10fryf4,f,张家浜路112号,121.51677495542474,31.214919444634056
10fry0y,f,张家桥村,121.68695231139178,31.037141469898327
10fry88,f,张杨北路4555弄,121.5840279260701,31.33401021886418
10fry02,f,张杨北路512弄,121.587553588973,31.265019272289532
10fry1p,f,张杨北路555弄,121.58704593969651,31.26703398818069
10fryfs,f,张杨北路558弄,121.58832551292008,31.268135471738315
10frxsd,f,张杨路1000弄,121.52932006582937,31.230354159900134
10frxqh,f,张杨路1050弄,121.53139131338693,31.230182799735925
10frxxp,f,张杨路1269弄,121.53245353969741,31.233101139905944
10fry4g,f,张杨路1308号,121.53109178448157,31.231049416196957
10fryf5,f,张杨路1328号,121.53225189045065,31.2320465796736
10fry4e,f,张杨路1338号,121.53290254100799,31.23220105158983
10frygw,f,张杨路1338号,121.53282448382103,31.231881122083507
10fryeb,f,张杨路1698弄,121.5464684335866,31.23567382739526
10frxrt,f,张杨路1734弄,121.54723743266379,31.235611728336835
10fry5b,f,张杨路2999弄,121.56771623213068,31.248866801823777
10frxsk,f,张杨路310弄,121.51323459503678,31.225031007761206
10fryb2,f,张杨路370弄,121.51461976692711,31.22550655029275
10fryfo,f,张杨路560号,121.51879631753363,31.227368878499647
10frxxo,f,张杨路951弄,121.52590111928195,31.230993417998793
10frxxs,f,张杨路981弄,121.5450722998975,31.236668486525513
10frxw0,f,长岛路1201弄,121.5922552887165,31.261293468394534
10fry3x,f,长岛路1203弄,121.59280387498117,31.261801024951478
10frxvz,f,长岛路1267弄,121.59386441187155,31.263155836699706
10frygh,f,长岛路1280弄,121.59443098066018,31.260055724681816
10fry3l,f,长岛路1338弄,121.59705108623386,31.26318562076557
10frxzn,f,长岛路1398弄,121.59867600350205,31.263610724173144
10fry47,f,长岛路1560弄,121.60105123023827,31.264035989136023
10fry1s,f,长岛路259弄,121.57746525989269,31.266067999481407
10fryb4,f,长岛路800弄,121.58679901985413,31.26012035152707
10fry1o,f,长岛路85弄,121.57799120412949,31.267691807177584
10fry1r,f,长岛路99号,121.57814518961733,31.26740852079589
10fry5x,f,长桥村南乔家宅,121.73242587908796,31.145219638163912
10frydz,f,长青路693弄,121.49164099232625,31.15772047794043
10fry6u,f,长清路967弄,121.49325969454651,31.151899867646904
10frxsg,f,赵家厍,121.53826509701665,31.169895626018313
10fry1d,f,赵桥村,121.72998008715055,30.99519648339767
10fry7p,f,镇南村,121.58054461772062,31.33894484224908
10fryak,f,直属村,121.75254178511281,31.221263603370843
10fryio,f,中大街134弄,121.57752291285945,31.1177642914588
10frycl,f,中界村高桥队秦家宅,121.82209786433295,30.91556513388686
10fry7w,f,中界村沈家队沈家宅,121.52147266747541,31.189105183011925
10fryg0,f,中界村沈家队杨家宅,121.56790188294507,31.18945812101838
10fryfz,f,中界村沈家队姚家宅,121.57645167799419,31.184363983530297
10fryam,f,中林街33弄,121.49874467189954,31.13733475719826
10frxzs,f,众安村,121.65304192841869,30.99473731787586
10fry96,f,周邓公路6600弄,121.6032372318817,31.116430241827583
10frye9,f,周东路123弄,121.58320007471956,31.12310527048504
10fry4z,f,周东路191弄,121.58668954144952,31.113222712083317
10fryc1,f,周东路243弄,121.58607359057972,31.116345343441036
10frxzb,f,周东路418弄,121.58730539605418,31.116958310797287
10fryig,f,周东路491号,121.58454883607716,31.11813425028851
10frxze,f,周东路508弄,121.58669176351466,31.118995401853642
10fry50,f,周东南路388弄,121.59012938994623,31.09799706344596
10frye4,f,周汇路158号,121.58470678059172,31.10284175081824
10fry2v,f,周汇路158弄,121.58485727900778,31.102744643160793
10frygr,f,周康路169弄,121.57235457554867,31.109853123784212
10fry97,f,周康路869弄,121.57522929833378,31.10264075838492
10frxza,f,周南村,121.58391028254056,31.10904895977066
10fryic,f,周浦顾家宅,121.6364707983793,31.229072964133476
10fryf3,f,周浦中大街108弄,121.57789973450079,31.117312721911656
10frxyj,f,周市路1321号,121.58301273752441,31.11343486089016
10fryhp,f,周市路1321号,121.58328801279809,31.113276377273714
10fry95,f,周市路148号,121.58327008731408,31.111872723208933
10frye2,f,周市路380弄,121.58144275148621,31.11816504174773
10fryie,f,周市路38弄,121.58114885455464,31.11534913324427
10fry2u,f,周市路39弄,121.582038329991,31.110297656139984
10frxty,f,周市路66号,121.58406510143931,31.1106617492085
10frxzc,f,周泰路32弄,121.60144633289698,31.101155088516858
10frxz8,f,周星路500弄,121.57893235356588,31.103484538108965
10frya2,f,周秀路118弄,121.60510559285603,31.099914420107694
10fry2l,f,周秀路168弄,121.60513262573963,31.098848495018498
10frydm,f,周秀路26弄,121.60529781709897,31.101450687309338
10frxzg,f,周阳路258弄,121.60144902396019,31.094112781474742
10fry94,f,周园路1680弄,121.5965226817722,31.09890301759518
10frxrw,f,周园路1800弄,121.59631495342002,31.093520809883152
10fryin,f,周祝公路2558号,121.70401579302107,31.11729687136079
10fry8g,f,洲海路1088弄,121.58800016740648,31.31577224634577
10fryev,f,祝城路54号,121.75815204012332,31.107931943720207
10frxwh,f,祝城路77弄,121.76127946738804,31.109271390599556
10fry7i,f,祝城路85弄,121.76438055786,31.110367316233862
10fry8z,f,祝家港路138弄,121.59243130630172,31.11152058744027
10frxy0,f,祝家港路155弄,121.58537115328674,31.111560080628877
10fry8u,f,祝家港路225号,121.58581229922551,31.10937625386676
10fry2s,f,祝家港路399弄,121.5919887542622,31.11166884987838
10fry78,f,祝潘公路301弄,121.75784047473721,31.125607486761897
10fryfp,f,祝桥镇共和村李家宅,121.73350103650125,31.170930640026125
10frxsy,f,祝西村,121.75591247003179,31.107004868266557
10fryax,f,砖桥路180弄,121.6980996974803,31.119348920155744
10frxyg,f,梓康路258号,121.56719792405508,31.12198865239729
10frytf,7,曹安路299号,121.3824207963221,31.24803326245649
10fryt9,7,曹杨九村,121.40533743274781,31.232375242588738
10fryt5,7,曹杨路1222弄,121.40954706411844,31.246308663601592
10fryt7,7,曹杨路777号,121.41288358810024,31.24029946253774
10frys7,7,曹杨七村,121.40920217950949,31.243406216577288
10frysg,7,曹杨五村,121.40857975534355,31.23239281188533
10fryti,7,常德路1298弄,121.43527460781465,31.24229793549212
10frysy,7,常德路1328弄,121.43438881028028,31.242565219130373
10frys6,7,车站新村,121.40241127752321,31.260717517431353
10frysf,7,大渡河路1262弄,121.39488213529472,31.237388826914298
10fryth,7,大渡河路2087弄,121.39774174566675,31.258710464465
10frysh,7,定边路377弄,121.36302771642916,31.260641679947536
10frytg,7,甘泉二村,121.43011355626871,31.26120821742917
10fryst,7,甘泉路501弄,121.42891896276664,31.261156749230768
10fryss,7,甘泉三村,121.42643499000579,31.260766516956284
10fryt4,7,桂巷新村,121.40001565110376,31.237219847587564
10frysk,7,金鼎路1600弄,121.37085619425375,31.259183803005666
10frysv,7,靖边路199弄,121.36719461222042,31.260721470890488
10fryt0,7,靖边路299弄,121.36747736364204,31.262376676406266
10fryso,7,礼尚路222弄,121.40843009061717,31.255231954574217
10fryt1,7,柳园路599号,121.34250574810345,31.295397909005892
10fryse,7,梅川路1333弄,121.37598445492752,31.24237251795385
10fryt2,7,梅岭北路294号,121.40713360932297,31.24266011598428
10frytj,7,梅岭支路23号,118.49065551600933,26.68188253910249
10frysn,7,宁夏路366弄,121.41743417501837,31.234714548106528
10frysu,7,怒江路601弄,121.39816072339153,31.235800437249356
10frysm,7,祁连山南路2727弄,121.37028535286822,31.262144018403646
10frysa,7,清涧路68弄,121.38851749668937,31.263660913175865
10frysd,7,三源路168弄,121.40207135859174,31.259782748333862
10frysl,7,石泉路450弄,121.41677142477056,31.247387414847903
10frysw,7,泰山二村,119.95633921532207,31.817814446839126
10frysr,7,泰山支路9号,122.32396389187578,29.97162084006882
10frysc,7,桃浦路300弄,121.3955472987047,31.2625834831308
10frysi,7,同普路1501弄,121.3616908201788,31.232774412010848
10frysq,7,铜川路1781弄,121.38662912706901,31.25205637567518
10frys5,7,武宁一村,121.42563639590121,31.23941995281382
10fryt6,7,新村路248弄,121.43418044101021,31.26569142942084
10frytk,7,延川路121号,122.3237704787084,29.971716165066336
10fryt3,7,延长西路328号,121.43739791184301,31.261516661672474
10frysp,7,宜川一村,121.43991955548614,31.26123898881991
10frytd,7,长风一村,121.40320392679696,31.23199303113188
10frys9,7,真光路1288号,121.38360324473466,31.245290998183634
10frysj,7,真光路1339弄,121.3814108332056,31.245072540646124
10fryt8,7,真光路962弄,121.38091407379044,31.240280540592515
10frytl,7,真金路251弄,121.40454967302243,31.26831133390274
10frysb,7,真南路85弄,121.39648842817151,31.26604389614817
10frysx,7,真如西村,121.39954436755738,31.246648785003096
10frytc,7,志丹路160号,121.4314526824913,31.260717677158247
10frytb,7,志丹路211号,121.42996228767424,31.267089350771265
10fryta,7,志丹路400弄,121.43251743983424,31.264706824359273
10fryte,7,中宁路88弄,121.41619387291857,31.248968864008138
10frysz,7,中山北路2655弄,121.4193410637413,31.243179430889477
10frys8,7,中潭路100弄,121.44532956100663,31.251510791263648
10frz5d,i,城中北路866号,121.11284406626444,31.162242444912792
10frz5e,i,淀西村,120.93126532936658,31.132104880555513
10frz5f,i,东西村,120.94029670683578,31.036943414727027
10frz5g,i,凤徐路85弄,121.23510697291832,31.18952506116204
10frz5h,i,凤中路57弄,121.23061145177401,31.196762644908866
10frz5i,i,港俞路1088弄,121.09911775731703,31.15049719086385
10frz5j,i,光联村,121.31521604878544,31.165385629223728
10frz5k,i,沪青平公路1881弄,121.27904738766152,31.164609551195706
10frz5l,i,华益村,121.23849349841724,31.25204860079067
10frz5m,i,环城东路188号,121.11468560042981,31.144974339408495
10frz5n,i,京华路90号,121.27662830510982,31.168421079362034
10frz5o,i,刘夏村,121.25123592479683,31.13739056838628
10frz5p,i,青龙村,121.1769344888298,31.239531572090595
10frz5q,i,胜新村,121.16089165974178,31.264652227300836
10frz5r,i,崧建路589弄,121.19570655372378,31.185638778381488
10frz5s,i,崧建路688弄,121.19761113906334,31.19407694948669
10frz5t,i,王泾村,121.1294416082132,31.25889790995786
10frz67,i,王泾村,121.12938344723851,31.25889167239849
10frz5u,i,香大路848弄,121.10248047340797,31.21302866417617
10frz5v,i,新凤中路35号,121.2267252557239,31.235477709261982
10frz5w,i,新凤中路899弄,121.22923530780969,31.223857904768185
10frz5x,i,新府中路1399弄,121.2300710455791,31.22804270798312
10frz5y,i,新联村,121.18471302668412,31.199513583870715
10frz5z,i,徐南路300号,121.31037638404972,31.15929408802736
10frz60,i,叙中村,121.21455424066322,31.20738441933096
10frz61,i,章堰村,121.15997502254038,31.21815264872857
10frz66,i,赵屯村,121.07986312215793,31.261084890064826
10frz62,i,诸光路1355弄,121.30103312624026,31.181642014265663
10frz63,i,诸光路488弄,121.30270506097064,31.181571763283415
10frz64,i,诸光路85弄,121.31894701775792,31.159280656719726
10frz65,i,竹盈路339弄,121.09976102289379,31.169028668310837
10frz3h,h,仓丰路1153弄,121.18723361438748,31.010147402635155
10frz3i,h,仓丰路855弄,121.1959680659277,31.008864607191665
10frz3j,h,仓丰路955弄,121.19320988033809,31.009984906455685
10frz3k,h,仓汇路401弄,121.200233266559,31.009058679910307
10frz3l,h,场东路68弄,121.36243318874553,31.089232522634536
10frz3m,h,车亭公路1098号,121.31451142242396,30.9557866341204
10frz3n,h,辰塔路455弄,121.18564245208626,31.010341104272545
10frz3o,h,陈春公路799弄,121.33745430376328,31.072976686235766
10frz3p,h,陈春公路801弄,121.3365380305496,31.06959830522436
10frz3q,h,陈春公路999号,121.32513614095116,31.068493791871592
10frz3r,h,城置路257弄,121.2424369284118,31.115179632498027
10frz3s,h,方东一村,121.24844511037097,31.00573732022435
10frz3t,h,古楼公路1198弄,121.25036913067898,31.105932435317317
10frz3u,h,广富林东路66号,121.27864896822763,31.05165485254536
10frz3v,h,河东街10弄,121.18821412891708,31.100262330378964
10frz3w,h,恒宣路46号,121.31607382849751,31.06238802965305
10frz3x,h,沪松公路1399弄,121.31969651130836,31.136435276177934
10frz3y,h,沪亭南路1059弄,121.33906217013768,31.1113727507464
10frz3z,h,沪亭南路110弄,121.32675250716858,31.12549099424033
10frz40,h,沪亭南路284弄,121.3307876945195,31.12306055794371
10frz41,h,黄家埭村,121.06632969238208,30.943450090845086
10frz42,h,金龙路180弄,121.22790752626541,31.03213695654215
10frz43,h,金胜村,121.17836927269397,30.965333465094698
10frz44,h,九杜路1000弄,121.30683164236825,31.153291433535696
10frz45,h,九江公路159弄,121.18150184707362,31.085388185666297
10frz46,h,九亭大街569弄,121.3257298207334,31.12695584792276
10frz47,h,九亭大街671弄,121.32299968242106,31.126179029760447
10frz48,h,康电路99号,121.29931166128192,31.031578475534705
10frz49,h,涞坊路288弄,121.31636389262808,31.15556312403757
10frz4a,h,涞坊路333弄,121.31785051186105,31.151840887410174
10frz4b,h,涞坊路45号,121.32384913604886,31.155971024281964
10frz4c,h,涞坊路599弄,121.31178779288483,31.151551025726203
10frz4d,h,涞泾路328弄,121.33686863334435,31.113788462950254
10frz4e,h,涞亭北路600弄,121.32662491294415,31.15625205137615
10frz4f,h,涞寅路106号,121.32496303127321,31.15031271323878
10frz4g,h,涞寅路1200弄,121.30429969469918,31.141800190691956
10frz4h,h,涞寅路658弄,121.31333003624965,31.14585455455475
10frz4i,h,乐都西路1455弄,121.19360695562872,31.01160346744872
10frz4j,h,李高路58弄,121.31696459789312,31.015609924148208
10frz4k,h,联阳路12弄,121.28471709309031,31.02480092513403
10frz4l,h,明兴路528弄,121.34040253769618,31.085659641588922
10frz4m,h,南期昌路458弄,121.22728523191526,31.02550560337344
10frz4n,h,平原街700弄,121.12574532888809,31.031875908548763
10frz4o,h,千新公路585弄,121.17225078130949,31.093902570249686
10frz4p,h,虬泾路559弄,121.33626072532411,31.12614690811807
10frz4q,h,荣乐五村,121.22332154845031,31.016548237738633
10frz4r,h,荣乐中路30弄,121.23839974267776,31.018600297004543
10frz4s,h,荣乐中路800弄,121.21594794623111,31.018449483823094
10frz4t,h,荣乐中路835弄,121.21656695055295,31.016407651989955
10frz4u,h,申港路50弄,121.35381192131051,31.072028543997025
10frz4v,h,申徐二路10号,121.35593823934941,31.063926856989685
10frz4w,h,泗砖路1弄,121.28469033544783,31.111252719675182
10frz4x,h,松金公路10082号,121.24487236897679,31.001849378000944
10frz4y,h,松卫北路260号,121.2600432174608,31.028176615045357
10frz4z,h,同利路116弄,121.31356754007362,31.109451212139483
10frz50,h,外青松公路8211号,121.17947518620758,31.10573548909357
10frz51,h,文诚路1800号,121.19039647277556,31.02819099224543
10frz52,h,新飞路1751弄,121.31598537475543,31.044810439890703
