[{"SH_ID_36":"10fnfp4","区36":"d","地址":"宝钢十一村","lng":121.48448740728675,"lat":31.41034983094008,"确诊日期36":"1"},{"SH_ID_36":"10fnfpy","区36":"d","地址":"宝林四村","lng":121.4914948672605,"lat":31.405115721898948,"确诊日期36":"1"},{"SH_ID_36":"10fnfp3","区36":"d","地址":"德都路399弄","lng":121.42357956968613,"lat":31.419548733290966,"确诊日期36":"1"},{"SH_ID_36":"10fnfp2","区36":"d","地址":"高跃路133弄","lng":121.47215250418681,"lat":31.31831483105648,"确诊日期36":"1"},{"SH_ID_36":"10fnfp1","区36":"d","地址":"庆安一村","lng":121.4359680960253,"lat":31.407554034334076,"确诊日期36":"1"},{"SH_ID_36":"10fnfp5","区36":"d","地址":"长白山路633弄","lng":121.34895422814417,"lat":31.341832809875065,"确诊日期36":"1"},{"SH_ID_36":"10fnfq1","区36":"9","地址":"虹湾路55弄","lng":121.47483889782843,"lat":31.312537442797748,"确诊日期36":"1"},{"SH_ID_36":"10fnfp8","区36":"e","地址":"宝安公路3705弄","lng":121.26852170899306,"lat":31.32556815161575,"确诊日期36":"1"},{"SH_ID_36":"10fnfpa","区36":"e","地址":"宝安公路3705弄","lng":121.26866993316834,"lat":31.325423434387314,"确诊日期36":"1"},{"SH_ID_36":"10fnfpc","区36":"e","地址":"宝安公路3705弄","lng":121.26840835069487,"lat":31.32537679290937,"确诊日期36":"1"},{"SH_ID_36":"10fnfpd","区36":"e","地址":"宝安公路3705弄","lng":121.26868436332025,"lat":31.325528628039454,"确诊日期36":"1"},{"SH_ID_36":"10fnfph","区36":"e","地址":"宝安公路李家村","lng":121.33935816225507,"lat":31.33998386835608,"确诊日期36":"1"},{"SH_ID_36":"10fnfpi","区36":"e","地址":"宝安公路李家村","lng":121.33909089264893,"lat":31.340124194855317,"确诊日期36":"1"},{"SH_ID_36":"10fnfpb","区36":"e","地址":"宝翔路560弄","lng":121.32229243039545,"lat":31.309589079042784,"确诊日期36":"1"},{"SH_ID_36":"10fnfp6","区36":"e","地址":"和静路1060号","lng":121.16139641973353,"lat":31.301772372604592,"确诊日期36":"1"},{"SH_ID_36":"10fnfpf","区36":"e","地址":"菊园新区棋盘路998弄","lng":121.25545980231287,"lat":31.398288708786236,"确诊日期36":"1"},{"SH_ID_36":"10fnfp9","区36":"e","地址":"沈徐路129弄","lng":121.26473690898447,"lat":31.319895327967814,"确诊日期36":"1"},{"SH_ID_36":"10fnfp7","区36":"e","地址":"樱花街116弄","lng":121.28076441747346,"lat":31.327694750513096,"确诊日期36":"1"},{"SH_ID_36":"10fnfp0","区36":"e","地址":"裕民南路336弄","lng":121.27571909371527,"lat":31.335184078867798,"确诊日期36":"1"},{"SH_ID_36":"10fnfpp","区36":"g","地址":"恒康路258弄","lng":121.33787873509306,"lat":30.85763264474727,"确诊日期36":"1"},{"SH_ID_36":"10fnfpe","区36":"c","地址":"报春路399弄","lng":121.38757630465525,"lat":31.123840627457934,"确诊日期36":"1"},{"SH_ID_36":"10fnfq9","区36":"c","地址":"陈南路386号","lng":121.50066764372264,"lat":31.090130569268663,"确诊日期36":"1"},{"SH_ID_36":"10fnfpq","区36":"c","地址":"繁安路59弄","lng":121.39279775382958,"lat":31.062865699219312,"确诊日期36":"1"},{"SH_ID_36":"10fnfpg","区36":"c","地址":"虹梅南路1578号","lng":121.4276759200297,"lat":31.11625047332274,"确诊日期36":"1"},{"SH_ID_36":"10fnfpr","区36":"c","地址":"江川路1552号","lng":121.37440422365052,"lat":30.995047445686062,"确诊日期36":"1"},{"SH_ID_36":"10fnfq8","区36":"c","地址":"莲花路425弄","lng":121.40023233136316,"lat":31.142947810273228,"确诊日期36":"1"},{"SH_ID_36":"10fnfq3","区36":"c","地址":"龙吴路4221号","lng":121.45732799101476,"lat":31.086907913464852,"确诊日期36":"1"},{"SH_ID_36":"10fnfpo","区36":"c","地址":"浦江镇知新村","lng":121.51834083258134,"lat":31.108681545340897,"确诊日期36":"1"},{"SH_ID_36":"10fnfpm","区36":"c","地址":"浦连路150弄","lng":121.54300485817978,"lat":31.05747114629116,"确诊日期36":"1"},{"SH_ID_36":"10fnfoy","区36":"c","地址":"上中西路735弄","lng":121.41788613822057,"lat":31.131125560089043,"确诊日期36":"1"},{"SH_ID_36":"10fnfpn","区36":"c","地址":"紫星路1588号","lng":121.44300195648094,"lat":31.022676168354284,"确诊日期36":"1"},{"SH_ID_36":"10fnfps","区36":"c","地址":"紫星路1588号","lng":121.44299065362115,"lat":31.022666258137413,"确诊日期36":"1"},{"SH_ID_36":"10fnfpt","区36":"c","地址":"紫星路1588号","lng":121.44266553118487,"lat":31.022687223533097,"确诊日期36":"1"},{"SH_ID_36":"10fnfqa","区36":"f","地址":"花木路718弄","lng":121.54842539880475,"lat":31.209701570443585,"确诊日期36":"1"},{"SH_ID_36":"10fnfq4","区36":"f","地址":"浦三路12弄","lng":121.51071492274554,"lat":31.196772507781763,"确诊日期36":"1"},{"SH_ID_36":"10fnfqb","区36":"f","地址":"台儿庄路579弄","lng":121.59756164966821,"lat":31.256673135210207,"确诊日期36":"1"},{"SH_ID_36":"10fnfq6","区36":"f","地址":"五莲路759弄","lng":121.59036390144415,"lat":31.270930799450472,"确诊日期36":"1"},{"SH_ID_36":"10fnfox","区36":"7","地址":"交通西路48弄","lng":121.44877118783386,"lat":31.254631492748906,"确诊日期36":"1"},{"SH_ID_36":"10fnfpk","区36":"h","地址":"沪亭北路618弄","lng":121.31764754729406,"lat":31.14892031653198,"确诊日期36":"1"},{"SH_ID_36":"10fnfpj","区36":"h","地址":"沪亭南路751弄","lng":121.33676096834495,"lat":31.117605821007455,"确诊日期36":"1"},{"SH_ID_36":"10fnfpl","区36":"h","地址":"九新公路180弄","lng":121.31898816929376,"lat":31.129229733064722,"确诊日期36":"1"},{"SH_ID_36":"10fnfpw","区36":"h","地址":"同利路59号","lng":121.31593507125949,"lat":31.10854988942321,"确诊日期36":"1"},{"SH_ID_36":"10fnfoz","区36":"4","地址":"漕溪北路1200号","lng":121.43551082803162,"lat":31.181403777623597,"确诊日期36":"1"},{"SH_ID_36":"10fnfpu","区36":"4","地址":"漕溪北路1200号","lng":121.43547938981096,"lat":31.181401280327044,"确诊日期36":"1"},{"SH_ID_36":"10fnfpv","区36":"4","地址":"漕溪北路1200号","lng":121.4352723788068,"lat":31.181224855917414,"确诊日期36":"1"},{"SH_ID_36":"10fnfpx","区36":"4","地址":"漕溪北路1200号","lng":121.4353891199006,"lat":31.18135696909866,"确诊日期36":"1"},{"SH_ID_36":"10fnfpz","区36":"4","地址":"漕溪北路1200号","lng":121.43540072155064,"lat":31.181533194442025,"确诊日期36":"1"},{"SH_ID_36":"10fnfq0","区36":"4","地址":"漕溪北路1200号","lng":121.43554302064415,"lat":31.181340723269358,"确诊日期36":"1"},{"SH_ID_36":"10fnfq2","区36":"4","地址":"漕溪北路1200号","lng":121.43548996741994,"lat":31.181490585604486,"确诊日期36":"1"},{"SH_ID_36":"10fnfox","区36":"4","地址":"沪闵路9490号","lng":121.43389788544697,"lat":31.16456235171012,"确诊日期36":"1"},{"SH_ID_36":"10fnfp0","区36":"4","地址":"柳州路460号","lng":121.42331211073181,"lat":31.172210564183946,"确诊日期36":"1"},{"SH_ID_36":"10fnfoy","区36":"4","地址":"龙华西路20号","lng":121.45352516622104,"lat":31.171026647995618,"确诊日期36":"1"},{"SH_ID_36":"10fnfq5","区36":"4","地址":"龙水南路336弄","lng":121.45401724237685,"lat":31.151792120005137,"确诊日期36":"1"},{"SH_ID_36":"10fnfq7","区36":"4","地址":"宜山路670号","lng":121.41929026969702,"lat":31.17533091074886,"确诊日期36":"1"},{"SH_ID_36":"10fnfoz","区36":"4","地址":"宜山路829号","lng":121.4064531732741,"lat":31.171955358077927,"确诊日期36":"1"}]