[{"SH_ID_36":"10fnng3","区36":"d","地址":"德都路399弄","lng":121.42364030321976,"lat":31.419496014212932,"确诊日期36":"2"},{"SH_ID_36":"10fnng0","区36":"d","地址":"鹤林路58弄","lng":121.40420277152228,"lat":31.446628640370214,"确诊日期36":"2"},{"SH_ID_36":"10fnnf5","区36":"d","地址":"菊太路1399弄","lng":121.35288385341678,"lat":31.34599350481033,"确诊日期36":"2"},{"SH_ID_36":"10fnng1","区36":"d","地址":"罗东路50弄","lng":121.37809594572182,"lat":31.417656160488285,"确诊日期36":"2"},{"SH_ID_36":"10fnng5","区36":"d","地址":"美丹路1033弄","lng":121.33774725796576,"lat":31.392136019221972,"确诊日期36":"2"},{"SH_ID_36":"10fnnfo","区36":"d","地址":"泗塘一村","lng":121.45157912925117,"lat":31.33808723973681,"确诊日期36":"2"},{"SH_ID_36":"10fnnfp","区36":"d","地址":"泗塘一村","lng":121.45196843574539,"lat":31.338023825605113,"确诊日期36":"2"},{"SH_ID_36":"10fnnfq","区36":"d","地址":"友谊路1869弄","lng":121.44479295833544,"lat":31.394478926884133,"确诊日期36":"2"},{"SH_ID_36":"10fnnfy","区36":"d","地址":"月浦六村","lng":121.49574637895545,"lat":31.384921608954926,"确诊日期36":"2"},{"SH_ID_36":"10fnng4","区36":"d","地址":"月浦六村","lng":121.4957255817642,"lat":31.384853729657564,"确诊日期36":"2"},{"SH_ID_36":"10fnnfz","区36":"d","地址":"真华路999弄","lng":121.40902739845373,"lat":31.27593832231337,"确诊日期36":"2"},{"SH_ID_36":"10fnnf6","区36":"e","地址":"宝安公路3705弄","lng":121.26843031891616,"lat":31.325599985202203,"确诊日期36":"2"},{"SH_ID_36":"10fnnf7","区36":"e","地址":"宝安公路3705弄","lng":121.26849103389816,"lat":31.325769064712564,"确诊日期36":"2"},{"SH_ID_36":"10fnneq","区36":"e","地址":"宝乐路58弄","lng":121.28954980575256,"lat":31.331063541935936,"确诊日期36":"2"},{"SH_ID_36":"10fnnf1","区36":"e","地址":"宝乐路58弄","lng":121.28951120827897,"lat":31.331117691296413,"确诊日期36":"2"},{"SH_ID_36":"10fnnfu","区36":"e","地址":"城中路20号","lng":121.24894873493761,"lat":31.376694196453748,"确诊日期36":"2"},{"SH_ID_36":"10fnng2","区36":"e","地址":"沪宜公路3066弄","lng":121.26124794182628,"lat":31.365270553569307,"确诊日期36":"2"},{"SH_ID_36":"10fnnft","区36":"e","地址":"康年路208弄","lng":121.27440663928961,"lat":31.320051606398444,"确诊日期36":"2"},{"SH_ID_36":"10fnnf4","区36":"e","地址":"徐行和桥村","lng":121.32958208805312,"lat":31.417224435921238,"确诊日期36":"2"},{"SH_ID_36":"10fnnf2","区36":"6","地址":"沪太路1329弄","lng":121.42389946471192,"lat":31.28204819980699,"确诊日期36":"2"},{"SH_ID_36":"10fnnep","区36":"6","地址":"平型关路300弄","lng":121.46459063782177,"lat":31.269980192121874,"确诊日期36":"2"},{"SH_ID_36":"10fnnf9","区36":"c","地址":"虹梅南路1578号","lng":121.42792071451757,"lat":31.1164678235723,"确诊日期36":"2"},{"SH_ID_36":"10fnnfa","区36":"c","地址":"虹梅南路1578号","lng":121.4279514100626,"lat":31.116256003298915,"确诊日期36":"2"},{"SH_ID_36":"10fnnfb","区36":"c","地址":"虹梅南路1578号","lng":121.42757232452007,"lat":31.116512267742973,"确诊日期36":"2"},{"SH_ID_36":"10fnnfe","区36":"c","地址":"华茂路1036号","lng":121.34830168987563,"lat":31.142833347650278,"确诊日期36":"2"},{"SH_ID_36":"10fnnep","区36":"c","地址":"龙吴路4221号","lng":121.4574537150097,"lat":31.087000660648606,"确诊日期36":"2"},{"SH_ID_36":"10fnneq","区36":"c","地址":"龙吴路4221号","lng":121.45724187692497,"lat":31.08713976439926,"确诊日期36":"2"},{"SH_ID_36":"10fnner","区36":"c","地址":"龙吴路4221号","lng":121.4571885425814,"lat":31.087240868348776,"确诊日期36":"2"},{"SH_ID_36":"10fnner","区36":"c","地址":"龙吴路4221号","lng":121.45713274509754,"lat":31.086965565960288,"确诊日期36":"2"},{"SH_ID_36":"10fnnes","区36":"c","地址":"龙吴路4221号","lng":121.45725150966774,"lat":31.08686015150559,"确诊日期36":"2"},{"SH_ID_36":"10fnnf0","区36":"c","地址":"龙吴路4221号","lng":121.45730719093454,"lat":31.086862461037796,"确诊日期36":"2"},{"SH_ID_36":"10fnnge","区36":"c","地址":"罗秀路1377号","lng":121.41798483387971,"lat":31.12851357230483,"确诊日期36":"2"},{"SH_ID_36":"10fnnfw","区36":"c","地址":"普乐路333弄","lng":121.42474615161971,"lat":31.113599567534745,"确诊日期36":"2"},{"SH_ID_36":"10fnnga","区36":"f","地址":"台儿庄路579弄","lng":121.59765468358236,"lat":31.256385910602862,"确诊日期36":"2"},{"SH_ID_36":"10fnngb","区36":"f","地址":"台儿庄路579弄","lng":121.59761018574234,"lat":31.256511782537558,"确诊日期36":"2"},{"SH_ID_36":"10fnng9","区36":"f","地址":"长岛路85弄","lng":121.57807761695167,"lat":31.267631578941455,"确诊日期36":"2"},{"SH_ID_36":"10fnnfx","区36":"7","地址":"石泉东路168弄","lng":121.43525503633529,"lat":31.25574927631887,"确诊日期36":"2"},{"SH_ID_36":"10fnney","区36":"7","地址":"真南路1051弄","lng":121.37871235251774,"lat":31.26995647961954,"确诊日期36":"2"},{"SH_ID_36":"10fnnfs","区36":"i","地址":"徐泾前明村","lng":121.2643782007853,"lat":31.15644211705026,"确诊日期36":"2"},{"SH_ID_36":"10fnnf3","区36":"i","地址":"徐泾镇杨巷西区","lng":121.26635837428408,"lat":31.17416918664059,"确诊日期36":"2"},{"SH_ID_36":"10fnnfv","区36":"i","地址":"赵巷和睦村","lng":121.23961827276935,"lat":31.157859365849237,"确诊日期36":"2"},{"SH_ID_36":"10fnnfk","区36":"h","地址":"博安路32弄","lng":121.31187952488303,"lat":31.137073447817695,"确诊日期36":"2"},{"SH_ID_36":"10fnnfn","区36":"h","地址":"博安路32弄","lng":121.31213353870567,"lat":31.137145316879042,"确诊日期36":"2"},{"SH_ID_36":"10fnnfg","区36":"h","地址":"淀浦河路399弄","lng":121.33214594346711,"lat":31.12625253688382,"确诊日期36":"2"},{"SH_ID_36":"10fnngc","区36":"h","地址":"洞坤路168弄","lng":121.23096016555945,"lat":31.100419502246872,"确诊日期36":"2"},{"SH_ID_36":"10fnngd","区36":"h","地址":"洞坤路168弄","lng":121.23118689268819,"lat":31.100376418354422,"确诊日期36":"2"},{"SH_ID_36":"10fnnff","区36":"h","地址":"洞宁路655弄","lng":121.27900697146715,"lat":31.076310984090117,"确诊日期36":"2"},{"SH_ID_36":"10fnnfi","区36":"h","地址":"方塔北路618号","lng":121.24816799480404,"lat":31.021844603711678,"确诊日期36":"2"},{"SH_ID_36":"10fnnfm","区36":"h","地址":"沪亭北路338弄","lng":121.31834321572299,"lat":31.14458158604769,"确诊日期36":"2"},{"SH_ID_36":"10fnnfd","区36":"h","地址":"沪亭北路618弄","lng":121.31789471602468,"lat":31.148801875014094,"确诊日期36":"2"},{"SH_ID_36":"10fnnfj","区36":"h","地址":"沪亭北路618弄","lng":121.317906989649,"lat":31.148656377720563,"确诊日期36":"2"},{"SH_ID_36":"10fnnfl","区36":"h","地址":"九亭镇庄家村","lng":121.32373536063794,"lat":31.12842131719106,"确诊日期36":"2"},{"SH_ID_36":"10fnnfr","区36":"h","地址":"涞坊路333弄","lng":121.31764124652375,"lat":31.152179935445414,"确诊日期36":"2"},{"SH_ID_36":"10fnnf8","区36":"h","地址":"陆家圈路63弄","lng":121.2926186150306,"lat":31.085544823945895,"确诊日期36":"2"},{"SH_ID_36":"10fnnfh","区36":"h","地址":"南期昌路458弄","lng":121.22701648110349,"lat":31.025469313839384,"确诊日期36":"2"},{"SH_ID_36":"10fnnet","区36":"4","地址":"漕溪北路1200号","lng":121.43534801090523,"lat":31.181367379230796,"确诊日期36":"2"},{"SH_ID_36":"10fnnev","区36":"4","地址":"漕溪北路1200号","lng":121.43528933088098,"lat":31.181295276628862,"确诊日期36":"2"},{"SH_ID_36":"10fnnew","区36":"4","地址":"漕溪北路1200号","lng":121.43560179920361,"lat":31.181492516860825,"确诊日期36":"2"},{"SH_ID_36":"10fnnez","区36":"4","地址":"漕溪北路1200号","lng":121.43523959120041,"lat":31.181457595581218,"确诊日期36":"2"},{"SH_ID_36":"10fnng6","区36":"4","地址":"漕溪北路1200号","lng":121.43542093830942,"lat":31.181393751093612,"确诊日期36":"2"},{"SH_ID_36":"10fnng7","区36":"4","地址":"漕溪北路1200号","lng":121.43556412309036,"lat":31.181223998268813,"确诊日期36":"2"},{"SH_ID_36":"10fnnfc","区36":"4","地址":"华泾路880弄","lng":121.44770941938799,"lat":31.120569567553808,"确诊日期36":"2"},{"SH_ID_36":"10fnneu","区36":"4","地址":"梅陇三村","lng":121.41768999133663,"lat":31.135698379645277,"确诊日期36":"2"},{"SH_ID_36":"10fnng8","区36":"4","地址":"宜山路250弄","lng":121.42907554733303,"lat":31.18949741251495,"确诊日期36":"2"},{"SH_ID_36":"10fnnex","区36":"5","地址":"延安西路649弄","lng":121.43498607017908,"lat":31.21498066625934,"确诊日期36":"2"}]