[{"SH_ID_36":"10frimo","区36":"d","地址":"白杨村","lng":121.39627173379132,"lat":31.34225222007097,"确诊日期36":"k"},{"SH_ID_36":"10frimp","区36":"d","地址":"宝安公路2145号","lng":121.34828805640048,"lat":31.34952452770891,"确诊日期36":"k"},{"SH_ID_36":"10frimt","区36":"d","地址":"宝杨路3084号","lng":121.44346462954644,"lat":31.375991311005315,"确诊日期36":"k"},{"SH_ID_36":"10frimr","区36":"d","地址":"北宗村","lng":121.40345708220627,"lat":31.387937364853627,"确诊日期36":"k"},{"SH_ID_36":"10frin5","区36":"d","地址":"蔡家弄村","lng":121.36571840404713,"lat":31.372921346480755,"确诊日期36":"k"},{"SH_ID_36":"10frimu","区36":"d","地址":"丹霞山路257弄","lng":121.36296696967683,"lat":31.36173215219288,"确诊日期36":"k"},{"SH_ID_36":"10frimv","区36":"d","地址":"电台路568弄","lng":121.39136314199956,"lat":31.355947174078747,"确诊日期36":"k"},{"SH_ID_36":"10frimz","区36":"d","地址":"东街村","lng":121.43747792654301,"lat":31.382086490732195,"确诊日期36":"k"},{"SH_ID_36":"10frimw","区36":"d","地址":"段泾村","lng":121.39658509896893,"lat":31.421417177704473,"确诊日期36":"k"},{"SH_ID_36":"10frimx","区36":"d","地址":"富锦路1500号","lng":121.4459056474296,"lat":31.403156739739146,"确诊日期36":"k"},{"SH_ID_36":"10frimy","区36":"d","地址":"富联二路55弄","lng":121.40996027003585,"lat":31.37223758131916,"确诊日期36":"k"},{"SH_ID_36":"10frin6","区36":"d","地址":"富联路128弄","lng":121.41043710988492,"lat":31.353394718965188,"确诊日期36":"k"},{"SH_ID_36":"10frims","区36":"d","地址":"高境二村","lng":121.4790075436431,"lat":31.322392069904435,"确诊日期36":"k"},{"SH_ID_36":"10frin4","区36":"d","地址":"高境路477弄","lng":121.47190665131703,"lat":31.323867078136395,"确诊日期36":"k"},{"SH_ID_36":"10frin0","区36":"d","地址":"高逸路201弄","lng":121.48962326248609,"lat":31.325184298606512,"确诊日期36":"k"},{"SH_ID_36":"10frin1","区36":"d","地址":"共富二村","lng":121.4321999463787,"lat":31.35024121310452,"确诊日期36":"k"},{"SH_ID_36":"10frinm","区36":"d","地址":"共富路228弄","lng":121.42914960861611,"lat":31.349475991911216,"确诊日期36":"k"},{"SH_ID_36":"10frin2","区36":"d","地址":"共和新路4719弄","lng":121.44934476373945,"lat":31.319225876380045,"确诊日期36":"k"},{"SH_ID_36":"10frin3","区36":"d","地址":"顾北东路155弄","lng":121.41215110591902,"lat":31.360972534808557,"确诊日期36":"k"},{"SH_ID_36":"10frio4","区36":"d","地址":"顾北东路500弄","lng":121.40938244294139,"lat":31.35597751150788,"确诊日期36":"k"},{"SH_ID_36":"10frinf","区36":"d","地址":"顾北路666弄","lng":121.38861316800278,"lat":31.349113498903222,"确诊日期36":"k"},{"SH_ID_36":"10frin7","区36":"d","地址":"顾陈路388号","lng":121.38880694341846,"lat":31.336494033241117,"确诊日期36":"k"},{"SH_ID_36":"10frina","区36":"d","地址":"顾陈路455弄","lng":121.39007176025657,"lat":31.338187969570917,"确诊日期36":"k"},{"SH_ID_36":"10friov","区36":"d","地址":"归王村","lng":121.35669370434505,"lat":31.35861137942244,"确诊日期36":"k"},{"SH_ID_36":"10frin8","区36":"d","地址":"涵青路100弄","lng":121.40245078445244,"lat":31.332742289454572,"确诊日期36":"k"},{"SH_ID_36":"10frin9","区36":"d","地址":"呼兰路515弄","lng":121.45011213911316,"lat":31.346794681960727,"确诊日期36":"k"},{"SH_ID_36":"10frini","区36":"d","地址":"呼玛三村","lng":121.44160535755913,"lat":31.339278449649346,"确诊日期36":"k"},{"SH_ID_36":"10frinb","区36":"d","地址":"呼玛一村","lng":121.45176716113767,"lat":31.341845946493276,"确诊日期36":"k"},{"SH_ID_36":"10frinc","区36":"d","地址":"虎林路611号","lng":121.45557691586285,"lat":31.34142967886592,"确诊日期36":"k"},{"SH_ID_36":"10frind","区36":"d","地址":"沪太路4332号","lng":121.39573129024683,"lat":31.340106438125737,"确诊日期36":"k"},{"SH_ID_36":"10friny","区36":"d","地址":"沪太路5018号","lng":121.3809467257851,"lat":31.350587538694427,"确诊日期36":"k"},{"SH_ID_36":"10frine","区36":"d","地址":"华和路6号","lng":121.41037750488933,"lat":31.291451004283513,"确诊日期36":"k"},{"SH_ID_36":"10frint","区36":"d","地址":"华灵路1920号","lng":121.4030633733875,"lat":31.280077017888868,"确诊日期36":"k"},{"SH_ID_36":"10frinh","区36":"d","地址":"华灵路410弄","lng":121.42273651108482,"lat":31.273046385058993,"确诊日期36":"k"},{"SH_ID_36":"10frio7","区36":"d","地址":"华灵路680弄","lng":121.42227188151676,"lat":31.27930235171983,"确诊日期36":"k"},{"SH_ID_36":"10frinj","区36":"d","地址":"集贤路85弄","lng":121.35278263204157,"lat":31.42373591588058,"确诊日期36":"k"},{"SH_ID_36":"10frioc","区36":"d","地址":"菊泉街1398弄","lng":121.36954937432941,"lat":31.362910769856327,"确诊日期36":"k"},{"SH_ID_36":"10frink","区36":"d","地址":"菊泉街547弄","lng":121.37627563005142,"lat":31.35635310589397,"确诊日期36":"k"},{"SH_ID_36":"10frinv","区36":"d","地址":"菊泉街577弄","lng":121.37400026794678,"lat":31.357305256169077,"确诊日期36":"k"},{"SH_ID_36":"10frinn","区36":"d","地址":"兰岗路757号","lng":121.45338460017426,"lat":31.375624230398355,"确诊日期36":"k"},{"SH_ID_36":"10frinr","区36":"d","地址":"莲花山路517弄","lng":121.44514322124266,"lat":31.361977220631285,"确诊日期36":"k"},{"SH_ID_36":"10frins","区36":"d","地址":"联杨路1078弄","lng":121.35424263003452,"lat":31.345069845203405,"确诊日期36":"k"},{"SH_ID_36":"10frinl","区36":"d","地址":"罗店路840弄","lng":121.3487753413686,"lat":31.397398973156022,"确诊日期36":"k"},{"SH_ID_36":"10frinu","区36":"d","地址":"罗溪路1001弄","lng":121.34326293291316,"lat":31.424965668156336,"确诊日期36":"k"},{"SH_ID_36":"10frinw","区36":"d","地址":"美丹路1058弄","lng":121.33745086411395,"lat":31.395387161706307,"确诊日期36":"k"},{"SH_ID_36":"10frinz","区36":"d","地址":"美秀路358弄","lng":121.35134435200051,"lat":31.38394392447584,"确诊日期36":"k"},{"SH_ID_36":"10frio1","区36":"d","地址":"牡丹江路1900号","lng":121.47561912132448,"lat":31.41461576082908,"确诊日期36":"k"},{"SH_ID_36":"10frio2","区36":"d","地址":"南大路160弄","lng":121.40151277535776,"lat":31.300055516484917,"确诊日期36":"k"},{"SH_ID_36":"10frioe","区36":"d","地址":"南大路76弄","lng":121.40581228654612,"lat":31.29982235328078,"确诊日期36":"k"},{"SH_ID_36":"10frio3","区36":"d","地址":"南蕰藻路408号","lng":121.42992062848893,"lat":31.340380114929598,"确诊日期36":"k"},{"SH_ID_36":"10frio5","区36":"d","地址":"南周村","lng":121.34027777511231,"lat":31.377807326188353,"确诊日期36":"k"},{"SH_ID_36":"10frio6","区36":"d","地址":"潘广路1765弄","lng":121.36793842953536,"lat":31.36464135692262,"确诊日期36":"k"},{"SH_ID_36":"10frio8","区36":"d","地址":"潘新路255弄","lng":121.33156122926688,"lat":31.486316637834154,"确诊日期36":"k"},{"SH_ID_36":"10frio9","区36":"d","地址":"祁华路300弄","lng":121.37102694112409,"lat":31.322827368049325,"确诊日期36":"k"},{"SH_ID_36":"10frioa","区36":"d","地址":"钱潘村","lng":121.40011145022405,"lat":31.431960466193306,"确诊日期36":"k"},{"SH_ID_36":"10frinp","区36":"d","地址":"羌家村","lng":121.38585432775245,"lat":31.357378858883685,"确诊日期36":"k"},{"SH_ID_36":"10friod","区36":"d","地址":"沙浦路128弄","lng":121.38837528801866,"lat":31.356585209552644,"确诊日期36":"k"},{"SH_ID_36":"10friok","区36":"d","地址":"沙浦路311弄","lng":121.38713970037772,"lat":31.355464395664153,"确诊日期36":"k"},{"SH_ID_36":"10frip0","区36":"d","地址":"沙浦路518弄","lng":121.38233073971026,"lat":31.35636971668531,"确诊日期36":"k"},{"SH_ID_36":"10friof","区36":"d","地址":"韶山路245弄","lng":121.36466972090116,"lat":31.35883158435106,"确诊日期36":"k"},{"SH_ID_36":"10friog","区36":"d","地址":"盛宅一村","lng":121.41172412994472,"lat":31.352936148163902,"确诊日期36":"k"},{"SH_ID_36":"10friob","区36":"d","地址":"水产西路268弄","lng":121.42775598621625,"lat":31.359866372155405,"确诊日期36":"k"},{"SH_ID_36":"10frioi","区36":"d","地址":"水产西路738号","lng":121.41677636766995,"lat":31.356076452671306,"确诊日期36":"k"},{"SH_ID_36":"10friop","区36":"d","地址":"水产西路999弄","lng":121.4098613420308,"lat":31.354460764210277,"确诊日期36":"k"},{"SH_ID_36":"10frioj","区36":"d","地址":"泗塘八村","lng":121.45717336771179,"lat":31.329931048612167,"确诊日期36":"k"},{"SH_ID_36":"10fring","区36":"d","地址":"泗塘四村","lng":121.46025780698828,"lat":31.336844135344634,"确诊日期36":"k"},{"SH_ID_36":"10frio0","区36":"d","地址":"泗塘五村","lng":121.46163149780128,"lat":31.332873268745466,"确诊日期36":"k"},{"SH_ID_36":"10frioh","区36":"d","地址":"松兰路233弄","lng":121.44894494089088,"lat":31.370784370374643,"确诊日期36":"k"},{"SH_ID_36":"10friom","区36":"d","地址":"淞南七村","lng":121.48170759050112,"lat":31.33327638063482,"确诊日期36":"k"},{"SH_ID_36":"10frino","区36":"d","地址":"淞南三村","lng":121.4892103633835,"lat":31.344259419730076,"确诊日期36":"k"},{"SH_ID_36":"10frinx","区36":"d","地址":"淞南五村","lng":121.48506160211777,"lat":31.339165583508365,"确诊日期36":"k"},{"SH_ID_36":"10friol","区36":"d","地址":"淞兴西路176号","lng":121.48907978975558,"lat":31.36908594604001,"确诊日期36":"k"},{"SH_ID_36":"10frion","区36":"d","地址":"苏家浜路435弄","lng":121.39196850845218,"lat":31.359750976407028,"确诊日期36":"k"},{"SH_ID_36":"10frioo","区36":"d","地址":"泰和路1700号","lng":121.4483666094005,"lat":31.355063498295344,"确诊日期36":"k"},{"SH_ID_36":"10friou","区36":"d","地址":"泰和西路3463弄","lng":121.40603317802693,"lat":31.349421407521447,"确诊日期36":"k"},{"SH_ID_36":"10frior","区36":"d","地址":"铁城路1555号","lng":121.4517440766854,"lat":31.356362090459957,"确诊日期36":"k"},{"SH_ID_36":"10frios","区36":"d","地址":"通河四村","lng":121.44504999812438,"lat":31.330585488434885,"确诊日期36":"k"},{"SH_ID_36":"10frip8","区36":"d","地址":"王家村","lng":121.38873575352171,"lat":31.38574672419546,"确诊日期36":"k"},{"SH_ID_36":"10frioq","区36":"d","地址":"五星村","lng":121.34704660358902,"lat":31.30476982501068,"确诊日期36":"k"},{"SH_ID_36":"10friot","区36":"d","地址":"西浜村","lng":121.44125697023523,"lat":31.358661673342052,"确诊日期36":"k"},{"SH_ID_36":"10frimq","区36":"d","地址":"新沪路837弄","lng":121.41667409129003,"lat":31.270753223121456,"确诊日期36":"k"},{"SH_ID_36":"10friow","区36":"d","地址":"新沪路960弄","lng":121.41913140757377,"lat":31.272906529835343,"确诊日期36":"k"},{"SH_ID_36":"10friox","区36":"d","地址":"一二八纪念路55弄","lng":121.46643145548182,"lat":31.32908747040861,"确诊日期36":"k"},{"SH_ID_36":"10frioy","区36":"d","地址":"殷高路7弄","lng":121.49358605670584,"lat":31.32154931342959,"确诊日期36":"k"},{"SH_ID_36":"10frioz","区36":"d","地址":"友谊路1999弄","lng":121.44732477447715,"lat":31.39100711750809,"确诊日期36":"k"},{"SH_ID_36":"10frinq","区36":"d","地址":"友谊路38号","lng":121.48977939502834,"lat":31.407167597709204,"确诊日期36":"k"},{"SH_ID_36":"10frip1","区36":"d","地址":"友谊支路300弄","lng":121.48617772169968,"lat":31.40858085484685,"确诊日期36":"k"},{"SH_ID_36":"10frip2","区36":"d","地址":"月浦六村","lng":121.49565970157967,"lat":31.38496153418625,"确诊日期36":"k"},{"SH_ID_36":"10frip3","区36":"d","地址":"长白山路633弄","lng":121.34903091120712,"lat":31.342019828866924,"确诊日期36":"k"},{"SH_ID_36":"10frip4","区36":"d","地址":"长临路1318弄","lng":121.43184944653525,"lat":31.330556125719408,"确诊日期36":"k"},{"SH_ID_36":"10frip5","区36":"d","地址":"朱家弄村","lng":121.38778423955897,"lat":31.34076846850773,"确诊日期36":"k"},{"SH_ID_36":"10frip6","区36":"d","地址":"竹韵路128弄","lng":121.44431814795176,"lat":31.365605319372648,"确诊日期36":"k"},{"SH_ID_36":"10frip7","区36":"d","地址":"走马塘路1228弄","lng":121.37224137454955,"lat":31.304843054247133,"确诊日期36":"k"},{"SH_ID_36":"10frj1y","区36":"u","地址":"创建村","lng":121.61297092197564,"lat":31.428739107377496,"确诊日期36":"k"},{"SH_ID_36":"10frj23","区36":"u","地址":"江南大道","lng":121.73789110805274,"lat":31.36830964447446,"确诊日期36":"k"},{"SH_ID_36":"10frj1z","区36":"u","地址":"齐南村","lng":121.75181081123759,"lat":31.575750464299933,"确诊日期36":"k"},{"SH_ID_36":"10frj20","区36":"u","地址":"四滧村","lng":121.65677795481444,"lat":31.526372366381388,"确诊日期36":"k"},{"SH_ID_36":"10frj21","区36":"u","地址":"新开河路674号","lng":121.52363846880101,"lat":31.581926992638525,"确诊日期36":"k"},{"SH_ID_36":"10frj22","区36":"u","地址":"裕展路679弄","lng":121.84472451096015,"lat":31.530408840463966,"确诊日期36":"k"},{"SH_ID_36":"10frj0r","区36":"k","地址":"安中路108号","lng":121.40008212198211,"lat":30.959299562689388,"确诊日期36":"k"},{"SH_ID_36":"10frj1v","区36":"k","地址":"八字村","lng":121.64128655378059,"lat":30.936278060427103,"确诊日期36":"k"},{"SH_ID_36":"10frj1c","区36":"k","地址":"北港小区","lng":121.58374333707059,"lat":30.929393853668472,"确诊日期36":"k"},{"SH_ID_36":"10frj16","区36":"k","地址":"德泉路99弄","lng":121.52283623465759,"lat":30.921605804511437,"确诊日期36":"k"},{"SH_ID_36":"10frj1k","区36":"k","地址":"德政路298弄","lng":121.4851832220925,"lat":30.921373834291746,"确诊日期36":"k"},{"SH_ID_36":"10frj0o","区36":"k","地址":"工农村","lng":121.53681457791721,"lat":30.911748588020817,"确诊日期36":"k"},{"SH_ID_36":"10frj0t","区36":"k","地址":"光明路40弄","lng":121.51121591253913,"lat":30.905621356110696,"确诊日期36":"k"},{"SH_ID_36":"10frj15","区36":"k","地址":"光钱路343-1码头","lng":121.50977695206547,"lat":30.909734519552824,"确诊日期36":"k"},{"SH_ID_36":"10frj12","区36":"k","地址":"光钱路600弄","lng":121.50948184619314,"lat":30.908394397360205,"确诊日期36":"k"},{"SH_ID_36":"10frj0x","区36":"k","地址":"和中村","lng":121.55230870226178,"lat":30.934488229052782,"确诊日期36":"k"},{"SH_ID_36":"10frj0w","区36":"k","地址":"环城东路885弄","lng":121.4699416858835,"lat":30.927930681659046,"确诊日期36":"k"},{"SH_ID_36":"10frj0v","区36":"k","地址":"江海新村","lng":121.4583506285392,"lat":30.906720620738103,"确诊日期36":"k"},{"SH_ID_36":"10frj1i","区36":"k","地址":"江南路151号","lng":121.46292995532046,"lat":30.90268458508607,"确诊日期36":"k"},{"SH_ID_36":"10frj1f","区36":"k","地址":"解放村","lng":121.5368304379021,"lat":30.901198821421914,"确诊日期36":"k"},{"SH_ID_36":"10frj0m","区36":"k","地址":"解放东路555弄","lng":121.48175828693964,"lat":30.918758222896365,"确诊日期36":"k"},{"SH_ID_36":"10frj18","区36":"k","地址":"金海村","lng":121.5014080647844,"lat":30.871968597761377,"确诊日期36":"k"},{"SH_ID_36":"10frj14","区36":"k","地址":"李窑村","lng":121.59185557675947,"lat":30.913407179925187,"确诊日期36":"k"},{"SH_ID_36":"10frj1m","区36":"k","地址":"梁典村","lng":121.5984028725611,"lat":30.963813640529057,"确诊日期36":"k"},{"SH_ID_36":"10frj1q","区36":"k","地址":"瞭海路239弄","lng":121.56957267693623,"lat":30.866097188409093,"确诊日期36":"k"},{"SH_ID_36":"10frj1t","区36":"k","地址":"陆家桥村","lng":121.62512353695469,"lat":30.956348928309893,"确诊日期36":"k"},{"SH_ID_36":"10frj1n","区36":"k","地址":"梅园村","lng":121.59686858537911,"lat":30.990448383728136,"确诊日期36":"k"},{"SH_ID_36":"10frj1p","区36":"k","地址":"民乐路28弄","lng":121.56475523600619,"lat":30.86168115007632,"确诊日期36":"k"},{"SH_ID_36":"10frj1h","区36":"k","地址":"南奉公路3200号","lng":121.57349997099182,"lat":30.924771723190407,"确诊日期36":"k"},{"SH_ID_36":"10frj1e","区36":"k","地址":"南奉公路8889弄","lng":121.47714692410483,"lat":30.911015655175053,"确诊日期36":"k"},{"SH_ID_36":"10frj1o","区36":"k","地址":"南奉公路999号","lng":121.61957900144192,"lat":30.914040207821582,"确诊日期36":"k"},{"SH_ID_36":"10frj0q","区36":"k","地址":"南明路191号","lng":121.57743694127176,"lat":30.927332675061663,"确诊日期36":"k"},{"SH_ID_36":"10frj1l","区36":"k","地址":"南桥新城17单元19-02区域地块","lng":121.50310942297699,"lat":30.918205028835573,"确诊日期36":"k"},{"SH_ID_36":"10frj1w","区36":"k","地址":"南宋村","lng":121.67513673192116,"lat":30.966252629207688,"确诊日期36":"k"},{"SH_ID_36":"10frj10","区36":"k","地址":"钱忠村","lng":121.54680543619507,"lat":30.88229930523976,"确诊日期36":"k"},{"SH_ID_36":"10frj13","区36":"k","地址":"青成路108弄","lng":121.57873908270517,"lat":30.925060027401965,"确诊日期36":"k"},{"SH_ID_36":"10frj0p","区36":"k","地址":"上塑路1175弄","lng":121.5735818701352,"lat":30.91593128931808,"确诊日期36":"k"},{"SH_ID_36":"10frj0s","区36":"k","地址":"申隆二村","lng":121.56132203032081,"lat":30.88815764835354,"确诊日期36":"k"},{"SH_ID_36":"10frj11","区36":"k","地址":"申隆一村","lng":121.57676500601616,"lat":30.888034124744735,"确诊日期36":"k"},{"SH_ID_36":"10frj1d","区36":"k","地址":"曙宏路46号","lng":121.64300060371447,"lat":30.90985836991865,"确诊日期36":"k"},{"SH_ID_36":"10frj1a","区36":"k","地址":"陶宅村","lng":121.55215350214924,"lat":30.948232317162603,"确诊日期36":"k"},{"SH_ID_36":"10frj19","区36":"k","地址":"湾张村","lng":121.52978578420596,"lat":30.920547808600492,"确诊日期36":"k"},{"SH_ID_36":"10frj0z","区36":"k","地址":"万顺路2088弄","lng":121.51775989113968,"lat":30.958013697368624,"确诊日期36":"k"},{"SH_ID_36":"10frj0u","区36":"k","地址":"吴房村","lng":121.53508929153286,"lat":30.892376521820392,"确诊日期36":"k"},{"SH_ID_36":"10frj1g","区36":"k","地址":"西吴村","lng":121.58084753759404,"lat":30.9455070289281,"确诊日期36":"k"},{"SH_ID_36":"10frj1u","区36":"k","地址":"西校村","lng":121.40302825887534,"lat":30.935353414169594,"确诊日期36":"k"},{"SH_ID_36":"10frj1r","区36":"k","地址":"西闸路75号","lng":121.4342691981349,"lat":30.99456014098147,"确诊日期36":"k"},{"SH_ID_36":"10frj1s","区36":"k","地址":"夏家村","lng":121.7283037974436,"lat":30.966488179743234,"确诊日期36":"k"},{"SH_ID_36":"10frj1j","区36":"k","地址":"贤瑞路100弄","lng":121.51928868301297,"lat":30.922453033553,"确诊日期36":"k"},{"SH_ID_36":"10frj1x","区36":"k","地址":"沿河港路350弄","lng":121.47385139020466,"lat":30.917839415316,"确诊日期36":"k"},{"SH_ID_36":"10frj0n","区36":"k","地址":"姚家村","lng":121.57943552425034,"lat":30.917023570289814,"确诊日期36":"k"},{"SH_ID_36":"10frj17","区36":"k","地址":"邮电路118号","lng":121.64051980720694,"lat":30.909590907182825,"确诊日期36":"k"},{"SH_ID_36":"10frj1b","区36":"k","地址":"邮电路188号","lng":121.64137084858771,"lat":30.907700502650854,"确诊日期36":"k"},{"SH_ID_36":"10frj0y","区36":"k","地址":"张弄村","lng":121.52235922131635,"lat":30.907383116746935,"确诊日期36":"k"},{"SH_ID_36":"10frj0l","区36":"k","地址":"朱店村","lng":121.5541861493962,"lat":30.919552207717885,"确诊日期36":"k"},{"SH_ID_36":"10frilz","区36":"9","地址":"场中路803弄","lng":121.46968292381655,"lat":31.30660649247927,"确诊日期36":"k"},{"SH_ID_36":"10frilg","区36":"9","地址":"车站北路491弄","lng":121.4740390426425,"lat":31.2958645885959,"确诊日期36":"k"},{"SH_ID_36":"10frilb","区36":"9","地址":"车站北路507弄","lng":121.47325616052541,"lat":31.296750291373044,"确诊日期36":"k"},{"SH_ID_36":"10frilr","区36":"9","地址":"车站北路507弄","lng":121.47350046984747,"lat":31.29657420984371,"确诊日期36":"k"},{"SH_ID_36":"10friln","区36":"9","地址":"车站北路565弄","lng":121.47258282408325,"lat":31.295812745205065,"确诊日期36":"k"},{"SH_ID_36":"10frils","区36":"9","地址":"车站南路406弄","lng":121.47341237877328,"lat":31.29459281435326,"确诊日期36":"k"},{"SH_ID_36":"10frim1","区36":"9","地址":"大连路975弄","lng":121.50499533691188,"lat":31.267630151566134,"确诊日期36":"k"},{"SH_ID_36":"10frilp","区36":"9","地址":"飞虹路187弄","lng":121.50195447389093,"lat":31.261849596886123,"确诊日期36":"k"},{"SH_ID_36":"10fril7","区36":"9","地址":"广灵二村","lng":121.47864837429402,"lat":31.285918082603207,"确诊日期36":"k"},{"SH_ID_36":"10frild","区36":"9","地址":"广灵二路160号","lng":121.47740067782932,"lat":31.28285981941324,"确诊日期36":"k"},{"SH_ID_36":"10frilc","区36":"9","地址":"广灵二路186号","lng":121.47670726981256,"lat":31.282992031505017,"确诊日期36":"k"},{"SH_ID_36":"10fril9","区36":"9","地址":"广灵四路140弄","lng":121.47962915789161,"lat":31.286341966774327,"确诊日期36":"k"},{"SH_ID_36":"10frim0","区36":"9","地址":"广中路456号","lng":121.47014860975337,"lat":31.279418198310324,"确诊日期36":"k"},{"SH_ID_36":"10frilw","区36":"9","地址":"海伦路306弄","lng":121.49189040299747,"lat":31.25769926234503,"确诊日期36":"k"},{"SH_ID_36":"10frilf","区36":"9","地址":"花园路118弄","lng":121.47451264775094,"lat":31.27081911322212,"确诊日期36":"k"},{"SH_ID_36":"10frila","区36":"9","地址":"凉城路847弄","lng":121.470501623993,"lat":31.299269067934404,"确诊日期36":"k"},{"SH_ID_36":"10frim4","区36":"9","地址":"密云路471弄","lng":121.49544895164078,"lat":31.283146454145687,"确诊日期36":"k"},{"SH_ID_36":"10frilh","区36":"9","地址":"曲阳路440号","lng":121.49127598246531,"lat":31.274284689079327,"确诊日期36":"k"},{"SH_ID_36":"10frilv","区36":"9","地址":"山阴路57弄","lng":121.48502079557366,"lat":31.26457904884512,"确诊日期36":"k"},{"SH_ID_36":"10fril8","区36":"9","地址":"商业二村","lng":121.48045953631544,"lat":31.28427064377662,"确诊日期36":"k"},{"SH_ID_36":"10frile","区36":"9","地址":"水电路120号","lng":121.4725501954153,"lat":31.273648160760832,"确诊日期36":"k"},{"SH_ID_36":"10frilq","区36":"9","地址":"水电路1324弄5支弄","lng":121.4768469104219,"lat":31.292739530226896,"确诊日期36":"k"},{"SH_ID_36":"10frilk","区36":"9","地址":"水电路810弄","lng":121.47552764284545,"lat":31.284030632855174,"确诊日期36":"k"},{"SH_ID_36":"10frim2","区36":"9","地址":"四川北路1545弄","lng":121.48200307559605,"lat":31.255561026719956,"确诊日期36":"k"},{"SH_ID_36":"10frilx","区36":"9","地址":"四平路327弄","lng":121.49067697121782,"lat":31.2662266110265,"确诊日期36":"k"},{"SH_ID_36":"10frill","区36":"9","地址":"天宝西路242弄","lng":121.49482110121716,"lat":31.27398021544971,"确诊日期36":"k"},{"SH_ID_36":"10frilj","区36":"9","地址":"天宝西路252弄","lng":121.49255996049907,"lat":31.27273237883471,"确诊日期36":"k"},{"SH_ID_36":"10frilo","区36":"9","地址":"汶水东路298弄","lng":121.48166411709964,"lat":31.28966271715764,"确诊日期36":"k"},{"SH_ID_36":"10frilu","区36":"9","地址":"汶水东路650弄","lng":121.47621064805993,"lat":31.28883689906555,"确诊日期36":"k"},{"SH_ID_36":"10frim3","区36":"9","地址":"吴家湾路101弄","lng":121.4850693515338,"lat":31.293369497678192,"确诊日期36":"k"},{"SH_ID_36":"10frili","区36":"9","地址":"祥德路139弄","lng":121.4866125999324,"lat":31.271512147028332,"确诊日期36":"k"},{"SH_ID_36":"10frilt","区36":"9","地址":"新市路228号","lng":121.48049568999834,"lat":31.2864156823673,"确诊日期36":"k"},{"SH_ID_36":"10frilm","区36":"9","地址":"友谊二村","lng":121.47933179167669,"lat":31.285119026587484,"确诊日期36":"k"},{"SH_ID_36":"10frily","区36":"9","地址":"乍浦路325号","lng":121.48698989798334,"lat":31.249961471796507,"确诊日期36":"k"},{"SH_ID_36":"10frie2","区36":"1","地址":"保屯路211弄","lng":121.49144322098317,"lat":31.203959355416345,"确诊日期36":"k"},{"SH_ID_36":"10frifi","区36":"1","地址":"曹市弄15弄","lng":121.48907252537185,"lat":31.218791799440453,"确诊日期36":"k"},{"SH_ID_36":"10fridz","区36":"1","地址":"打浦路339弄","lng":121.4721664751502,"lat":31.19971144333541,"确诊日期36":"k"},{"SH_ID_36":"10frif9","区36":"1","地址":"打浦路500弄","lng":121.4728377708484,"lat":31.196431933619206,"确诊日期36":"k"},{"SH_ID_36":"10frifl","区36":"1","地址":"打浦路594号","lng":121.47394527629855,"lat":31.19512837381376,"确诊日期36":"k"},{"SH_ID_36":"10frifc","区36":"1","地址":"大兴街115弄","lng":121.48985131373476,"lat":31.21291848976355,"确诊日期36":"k"},{"SH_ID_36":"10friej","区36":"1","地址":"方浜西路63弄","lng":121.48268815426502,"lat":31.2203910338564,"确诊日期36":"k"},{"SH_ID_36":"10friff","区36":"1","地址":"方斜路35弄","lng":121.48597985842744,"lat":31.216122534546066,"确诊日期36":"k"},{"SH_ID_36":"10frifg","区36":"1","地址":"复兴东路663弄","lng":121.4918928856508,"lat":31.222026798211196,"确诊日期36":"k"},{"SH_ID_36":"10frifp","区36":"1","地址":"广西北路433号","lng":121.47644115147719,"lat":31.236609594833585,"确诊日期36":"k"},{"SH_ID_36":"10frien","区36":"1","地址":"海潮路222弄","lng":121.49684641177313,"lat":31.207992285642625,"确诊日期36":"k"},{"SH_ID_36":"10friey","区36":"1","地址":"海潮路230弄","lng":121.49752039383944,"lat":31.20767093705703,"确诊日期36":"k"},{"SH_ID_36":"10frif5","区36":"1","地址":"海潮路240弄","lng":121.4971006151651,"lat":31.207757306317358,"确诊日期36":"k"},{"SH_ID_36":"10fridx","区36":"1","地址":"海潮路256弄","lng":121.49674381098549,"lat":31.207320046049453,"确诊日期36":"k"},{"SH_ID_36":"10frif8","区36":"1","地址":"海潮路93弄","lng":121.49965854874189,"lat":31.210577293594305,"确诊日期36":"k"},{"SH_ID_36":"10frifh","区36":"1","地址":"河南南路1001弄","lng":121.49340477627729,"lat":31.213621914813487,"确诊日期36":"k"},{"SH_ID_36":"10friex","区36":"1","地址":"黄陂南路783号","lng":121.47758784811462,"lat":31.212315866823,"确诊日期36":"k"},{"SH_ID_36":"10friep","区36":"1","地址":"江阴路54号","lng":121.46897672976186,"lat":31.229466481131855,"确诊日期36":"k"},{"SH_ID_36":"10frieg","区36":"1","地址":"静修路114弄","lng":121.48729072448778,"lat":31.219231378131784,"确诊日期36":"k"},{"SH_ID_36":"10friec","区36":"1","地址":"静修路126弄","lng":121.48656232673183,"lat":31.21947329441115,"确诊日期36":"k"},{"SH_ID_36":"10frie3","区36":"1","地址":"局门路239号","lng":121.48124608304991,"lat":31.20617242515948,"确诊日期36":"k"},{"SH_ID_36":"10frie0","区36":"1","地址":"局门路241弄","lng":121.4805591472983,"lat":31.207797328559177,"确诊日期36":"k"},{"SH_ID_36":"10frief","区36":"1","地址":"丽园路68弄","lng":121.48978640204865,"lat":31.210447585315443,"确诊日期36":"k"},{"SH_ID_36":"10frieu","区36":"1","地址":"丽园路857号","lng":121.47711257417983,"lat":31.20699891419026,"确诊日期36":"k"},{"SH_ID_36":"10frieh","区36":"1","地址":"丽园路873号","lng":121.47620694387027,"lat":31.206819760074058,"确诊日期36":"k"},{"SH_ID_36":"10fridp","区36":"1","地址":"丽园路875号","lng":121.47617354616644,"lat":31.206605787179125,"确诊日期36":"k"},{"SH_ID_36":"10frif7","区36":"1","地址":"陆家浜路388号","lng":121.4997245473811,"lat":31.210896009039676,"确诊日期36":"k"},{"SH_ID_36":"10frif4","区36":"1","地址":"陆家浜路418号","lng":121.49940407242245,"lat":31.210723130726084,"确诊日期36":"k"},{"SH_ID_36":"10fridq","区36":"1","地址":"蒙自路601弄","lng":121.48079212581908,"lat":31.200008257206623,"确诊日期36":"k"},{"SH_ID_36":"10fries","区36":"1","地址":"蒙自西路28弄3号","lng":121.47602638530749,"lat":31.20703889578523,"确诊日期36":"k"},{"SH_ID_36":"10frifn","区36":"1","地址":"蒙自西路6号","lng":121.47539618132151,"lat":31.206739217526295,"确诊日期36":"k"},{"SH_ID_36":"10friet","区36":"1","地址":"蓬莱路19号","lng":121.49361425235489,"lat":31.21937577329008,"确诊日期36":"k"},{"SH_ID_36":"10frifk","区36":"1","地址":"蓬莱路284号","lng":121.48959142028575,"lat":31.21720144072813,"确诊日期36":"k"},{"SH_ID_36":"10friev","区36":"1","地址":"蓬莱路405弄","lng":121.48708156905393,"lat":31.216686365628366,"确诊日期36":"k"},{"SH_ID_36":"10frif0","区36":"1","地址":"普育东路101弄","lng":121.49626901325774,"lat":31.21008243229587,"确诊日期36":"k"},{"SH_ID_36":"10frie1","区36":"1","地址":"普育东路200弄","lng":121.4958132397571,"lat":31.207930004913997,"确诊日期36":"k"},{"SH_ID_36":"10frif2","区36":"1","地址":"乔家路204号","lng":121.49525192431028,"lat":31.217759436006467,"确诊日期36":"k"},{"SH_ID_36":"10fridv","区36":"1","地址":"瞿溪路117号","lng":121.49462075267738,"lat":31.20700067658549,"确诊日期36":"k"},{"SH_ID_36":"10frie5","区36":"1","地址":"瞿溪路1200弄","lng":121.47266062691608,"lat":31.197460262281474,"确诊日期36":"k"},{"SH_ID_36":"10frier","区36":"1","地址":"瞿溪路120弄","lng":121.49539036364013,"lat":31.206662103310787,"确诊日期36":"k"},{"SH_ID_36":"10fridy","区36":"1","地址":"瞿溪路121号","lng":121.49446782727202,"lat":31.206588796298337,"确诊日期36":"k"},{"SH_ID_36":"10frids","区36":"1","地址":"瞿溪路130号","lng":121.49366033502332,"lat":31.20574722222772,"确诊日期36":"k"},{"SH_ID_36":"10frieb","区36":"1","地址":"瞿溪路301弄","lng":121.4919551800248,"lat":31.205062004577332,"确诊日期36":"k"},{"SH_ID_36":"10frifa","区36":"1","地址":"瞿溪路888号","lng":121.47923915180917,"lat":31.200009817772024,"确诊日期36":"k"},{"SH_ID_36":"10friee","区36":"1","地址":"瑞金二路264号","lng":121.466679453069,"lat":31.207973373677778,"确诊日期36":"k"},{"SH_ID_36":"10frif6","区36":"1","地址":"瑞金二路386号","lng":121.4666471306136,"lat":31.2068298136089,"确诊日期36":"k"},{"SH_ID_36":"10fridr","区36":"1","地址":"瑞金二路410弄","lng":121.46576920703498,"lat":31.207033569997225,"确诊日期36":"k"},{"SH_ID_36":"10frifm","区36":"1","地址":"盛家街65号","lng":121.4931282554089,"lat":31.22368482656751,"确诊日期36":"k"},{"SH_ID_36":"10friez","区36":"1","地址":"顺昌路550弄","lng":121.47925138937153,"lat":31.21187842819129,"确诊日期36":"k"},{"SH_ID_36":"10frifq","区36":"1","地址":"顺昌路582号","lng":121.47934875721523,"lat":31.211653210159746,"确诊日期36":"k"},{"SH_ID_36":"10friei","区36":"1","地址":"顺昌路612弄37号","lng":121.47924393559884,"lat":31.211227101852,"确诊日期36":"k"},{"SH_ID_36":"10frif1","区36":"1","地址":"四牌楼路108号","lng":121.49496333564367,"lat":31.22362303825356,"确诊日期36":"k"},{"SH_ID_36":"10frieo","区36":"1","地址":"天柱山路20号","lng":121.49339399061347,"lat":31.210891124370267,"确诊日期36":"k"},{"SH_ID_36":"10frif3","区36":"1","地址":"天柱山路88弄","lng":121.49264231563664,"lat":31.211125674661126,"确诊日期36":"k"},{"SH_ID_36":"10frifs","区36":"1","地址":"西仓桥街129号","lng":121.48973975066816,"lat":31.22064732576566,"确诊日期36":"k"},{"SH_ID_36":"10friea","区36":"1","地址":"县左街20弄","lng":121.49468659859868,"lat":31.224359413110932,"确诊日期36":"k"},{"SH_ID_36":"10friew","区36":"1","地址":"县左街24弄","lng":121.49502655872445,"lat":31.224112649533065,"确诊日期36":"k"},{"SH_ID_36":"10fridu","区36":"1","地址":"斜土路460弄","lng":121.47776151203053,"lat":31.203084564430554,"确诊日期36":"k"},{"SH_ID_36":"10fridt","区36":"1","地址":"斜土路486弄","lng":121.4776427078997,"lat":31.202455270496696,"确诊日期36":"k"},{"SH_ID_36":"10frido","区36":"1","地址":"斜土路60号","lng":121.4835970275549,"lat":31.206418031084574,"确诊日期36":"k"},{"SH_ID_36":"10frie6","区36":"1","地址":"新闸路200号","lng":121.46997398268316,"lat":31.23852310487499,"确诊日期36":"k"},{"SH_ID_36":"10frifb","区36":"1","地址":"学院路125号","lng":121.49465855440734,"lat":31.22346395964732,"确诊日期36":"k"},{"SH_ID_36":"10frie8","区36":"1","地址":"学院路127弄","lng":121.49515221511209,"lat":31.22318730917455,"确诊日期36":"k"},{"SH_ID_36":"10frie4","区36":"1","地址":"学院路135号","lng":121.49449054637708,"lat":31.223217999000806,"确诊日期36":"k"},{"SH_ID_36":"10frie7","区36":"1","地址":"学院路205号","lng":121.49323272244835,"lat":31.22320237027211,"确诊日期36":"k"},{"SH_ID_36":"10frifj","区36":"1","地址":"巡道街53弄","lng":121.49778912398087,"lat":31.21994169245747,"确诊日期36":"k"},{"SH_ID_36":"10friek","区36":"1","地址":"延安中路545弄","lng":121.45925720683142,"lat":31.223462333365987,"确诊日期36":"k"},{"SH_ID_36":"10fried","区36":"1","地址":"制造局路567弄","lng":121.48654406351812,"lat":31.203980247063452,"确诊日期36":"k"},{"SH_ID_36":"10frie9","区36":"1","地址":"中山南路1358弄","lng":121.49955959997125,"lat":31.21052483936372,"确诊日期36":"k"},{"SH_ID_36":"10frieq","区36":"1","地址":"中山南路1586弄","lng":121.4948841628245,"lat":31.205601880522448,"确诊日期36":"k"},{"SH_ID_36":"10fridw","区36":"1","地址":"中山南路1667号","lng":121.49498746179583,"lat":31.20473195767899,"确诊日期36":"k"},{"SH_ID_36":"10friem","区36":"1","地址":"中山南路1701号","lng":121.4940262360747,"lat":31.204004201601013,"确诊日期36":"k"},{"SH_ID_36":"10friel","区36":"1","地址":"中山南路1711弄","lng":121.4937406371472,"lat":31.20361762205985,"确诊日期36":"k"},{"SH_ID_36":"10frife","区36":"1","地址":"中山南路1726弄","lng":121.49359125530773,"lat":31.204601528545254,"确诊日期36":"k"},{"SH_ID_36":"10frifr","区36":"1","地址":"中山南路200弄","lng":121.50110502753229,"lat":31.222675211523153,"确诊日期36":"k"},{"SH_ID_36":"10frifo","区36":"1","地址":"中山南一路247弄","lng":121.48669118584677,"lat":31.200879685019302,"确诊日期36":"k"},{"SH_ID_36":"10frifd","区36":"1","地址":"重庆南路12号丙","lng":121.47135448153485,"lat":31.220952696975917,"确诊日期36":"k"},{"SH_ID_36":"10frivv","区36":"e","地址":"爱特路68弄","lng":121.3224171691449,"lat":31.23439794333464,"确诊日期36":"k"},{"SH_ID_36":"10friyx","区36":"e","地址":"安亭镇星光村","lng":121.23574889309165,"lat":31.30024109966426,"确诊日期36":"k"},{"SH_ID_36":"10friy5","区36":"e","地址":"宝安公路3705弄","lng":121.26846304968775,"lat":31.325391870227786,"确诊日期36":"k"},{"SH_ID_36":"10frivw","区36":"e","地址":"宝翔路998弄","lng":121.31802292532063,"lat":31.31538626784677,"确诊日期36":"k"},{"SH_ID_36":"10frivx","区36":"e","地址":"北和公路1650号","lng":121.17907479059052,"lat":31.424546699759308,"确诊日期36":"k"},{"SH_ID_36":"10frivy","区36":"e","地址":"博园路422号","lng":121.17918889843064,"lat":31.27995553692214,"确诊日期36":"k"},{"SH_ID_36":"10frix9","区36":"e","地址":"曹安公路1558号","lng":121.36868895517064,"lat":31.25310129663619,"确诊日期36":"k"},{"SH_ID_36":"10frivz","区36":"e","地址":"曹安公路1685号","lng":121.36594675042846,"lat":31.252416861047312,"确诊日期36":"k"},{"SH_ID_36":"10frixa","区36":"e","地址":"曹安公路1760号","lng":121.36390617583339,"lat":31.254458922253995,"确诊日期36":"k"},{"SH_ID_36":"10frixf","区36":"e","地址":"曹安公路1777号","lng":121.36303140740816,"lat":31.252581619797517,"确诊日期36":"k"},{"SH_ID_36":"10frixh","区36":"e","地址":"曹安公路1798号","lng":121.3633367728892,"lat":31.255045383887698,"确诊日期36":"k"},{"SH_ID_36":"10friw0","区36":"e","地址":"曹安公路1936号","lng":121.3590862869977,"lat":31.256137902792236,"确诊日期36":"k"},{"SH_ID_36":"10frixg","区36":"e","地址":"曹安公路1986号","lng":121.35368857571622,"lat":31.257183466223047,"确诊日期36":"k"},{"SH_ID_36":"10friw1","区36":"e","地址":"曹安公路1991号","lng":121.21501735481667,"lat":31.27382263100822,"确诊日期36":"k"},{"SH_ID_36":"10frix0","区36":"e","地址":"曹安公路1991弄","lng":121.21495160700492,"lat":31.27376531896131,"确诊日期36":"k"},{"SH_ID_36":"10frix8","区36":"e","地址":"曹安公路2033号","lng":121.34859709983252,"lat":31.258074360769225,"确诊日期36":"k"},{"SH_ID_36":"10frixi","区36":"e","地址":"曹安公路2098号","lng":121.34791577563568,"lat":31.259681369685993,"确诊日期36":"k"},{"SH_ID_36":"10frixb","区36":"e","地址":"曹安公路2258号","lng":121.34399168637148,"lat":31.260840574991835,"确诊日期36":"k"},{"SH_ID_36":"10frixc","区36":"e","地址":"曹安公路2291号","lng":121.34281970825714,"lat":31.25954000038458,"确诊日期36":"k"},{"SH_ID_36":"10frixd","区36":"e","地址":"曹安公路2300弄","lng":121.34184870178119,"lat":31.261515002934047,"确诊日期36":"k"},{"SH_ID_36":"10frixe","区36":"e","地址":"曹安公路2688号","lng":121.33180145713203,"lat":31.263343006093713,"确诊日期36":"k"},{"SH_ID_36":"10friw2","区36":"e","地址":"曹安路华江路","lng":121.3459066066614,"lat":31.257821491053345,"确诊日期36":"k"},{"SH_ID_36":"10friy2","区36":"e","地址":"陈家山路388弄","lng":121.23981471084474,"lat":31.391112235325107,"确诊日期36":"k"},{"SH_ID_36":"10frix1","区36":"e","地址":"城北路4089号","lng":121.19092508011782,"lat":31.447233019866882,"确诊日期36":"k"},{"SH_ID_36":"10frix2","区36":"e","地址":"福海路111弄","lng":121.25497139792377,"lat":31.36959811131008,"确诊日期36":"k"},{"SH_ID_36":"10frix3","区36":"e","地址":"福海路728号","lng":121.24255779703827,"lat":31.365100719843706,"确诊日期36":"k"},{"SH_ID_36":"10friw3","区36":"e","地址":"海波路1000弄","lng":121.329827883464,"lat":31.270009274378943,"确诊日期36":"k"},{"SH_ID_36":"10frixk","区36":"e","地址":"海波路127弄","lng":121.34534015573313,"lat":31.2667258792208,"确诊日期36":"k"},{"SH_ID_36":"10frixl","区36":"e","地址":"海波路850弄","lng":121.33120997623637,"lat":31.269809204632317,"确诊日期36":"k"},{"SH_ID_36":"10frixm","区36":"e","地址":"海川路46号","lng":121.35022122366445,"lat":31.26410889847435,"确诊日期36":"k"},{"SH_ID_36":"10friw4","区36":"e","地址":"海川路58弄","lng":121.34914820718198,"lat":31.264580543022593,"确诊日期36":"k"},{"SH_ID_36":"10frixn","区36":"e","地址":"海川路77弄","lng":121.34839471784738,"lat":31.263422495986095,"确诊日期36":"k"},{"SH_ID_36":"10friw5","区36":"e","地址":"海蓝路318弄","lng":121.34201164749894,"lat":31.263509377180835,"确诊日期36":"k"},{"SH_ID_36":"10frixo","区36":"e","地址":"海蓝路98弄","lng":121.3495378831746,"lat":31.26111476753892,"确诊日期36":"k"},{"SH_ID_36":"10frixj","区36":"e","地址":"鹤望路365弄","lng":121.32690758668443,"lat":31.246306115271256,"确诊日期36":"k"},{"SH_ID_36":"10frixq","区36":"e","地址":"鹤霞路555弄","lng":121.29707620182533,"lat":31.285740232719714,"确诊日期36":"k"},{"SH_ID_36":"10frixr","区36":"e","地址":"华江公路370号","lng":121.33483234489367,"lat":31.250020792640647,"确诊日期36":"k"},{"SH_ID_36":"10frixs","区36":"e","地址":"华江公路726弄","lng":121.3283683688001,"lat":31.246056127228137,"确诊日期36":"k"},{"SH_ID_36":"10friw6","区36":"e","地址":"华江路157号","lng":121.34064997508541,"lat":31.25349224178893,"确诊日期36":"k"},{"SH_ID_36":"10friw7","区36":"e","地址":"华江路726弄","lng":121.32847305143613,"lat":31.245596214507234,"确诊日期36":"k"},{"SH_ID_36":"10frixt","区36":"e","地址":"华江支路328弄","lng":121.34072079603743,"lat":31.259668480343887,"确诊日期36":"k"},{"SH_ID_36":"10friw8","区36":"e","地址":"华江支路343号","lng":121.33884030615167,"lat":31.26199068953038,"确诊日期36":"k"},{"SH_ID_36":"10frixp","区36":"e","地址":"华江支路369号","lng":121.33874233317013,"lat":31.262070718924086,"确诊日期36":"k"},{"SH_ID_36":"10frixu","区36":"e","地址":"华江支路677弄","lng":121.33631612546358,"lat":31.265249123343285,"确诊日期36":"k"},{"SH_ID_36":"10friyw","区36":"e","地址":"华亭镇毛桥村","lng":121.25167711334335,"lat":31.472110022824435,"确诊日期36":"k"},{"SH_ID_36":"10friyv","区36":"e","地址":"华亭镇塔桥村","lng":121.24798923856073,"lat":31.444375975021977,"确诊日期36":"k"},{"SH_ID_36":"10frixv","区36":"e","地址":"黄家花园路88弄","lng":121.32136137423944,"lat":31.252694637482197,"确诊日期36":"k"},{"SH_ID_36":"10friy9","区36":"e","地址":"汇德路668号","lng":121.16882537105731,"lat":31.389782979192045,"确诊日期36":"k"},{"SH_ID_36":"10frix4","区36":"e","地址":"汇善路1333弄","lng":121.20525527500457,"lat":31.403080640384193,"确诊日期36":"k"},{"SH_ID_36":"10friw9","区36":"e","地址":"汇通路25号","lng":121.18635153131356,"lat":31.403736501824234,"确诊日期36":"k"},{"SH_ID_36":"10friwa","区36":"e","地址":"嘉安公路200弄","lng":121.23248379088375,"lat":31.368872369203324,"确诊日期36":"k"},{"SH_ID_36":"10frivr","区36":"e","地址":"嘉定工业区草庵村","lng":121.21457548979023,"lat":31.45009458754114,"确诊日期36":"k"},{"SH_ID_36":"10friyq","区36":"e","地址":"嘉定工业区灯塔村","lng":121.17208028472928,"lat":31.436245418146747,"确诊日期36":"k"},{"SH_ID_36":"10friyn","区36":"e","地址":"嘉定工业区陆渡村","lng":121.19780251488,"lat":31.462183692280615,"确诊日期36":"k"},{"SH_ID_36":"10friyo","区36":"e","地址":"嘉定工业区南苑九村","lng":121.25458270382777,"lat":31.370332849304535,"确诊日期36":"k"},{"SH_ID_36":"10friyp","区36":"e","地址":"嘉定工业区旺泾村","lng":121.18668443534152,"lat":31.416743915853875,"确诊日期36":"k"},{"SH_ID_36":"10friyr","区36":"e","地址":"嘉定工业区新浏村","lng":121.2400961567238,"lat":31.358951207866536,"确诊日期36":"k"},{"SH_ID_36":"10friys","区36":"e","地址":"嘉定工业区中贸世纪","lng":121.2046559245863,"lat":31.4167147147472,"确诊日期36":"k"},{"SH_ID_36":"10frivs","区36":"e","地址":"嘉定工业区朱家桥村","lng":121.18998771512453,"lat":31.407697914343274,"确诊日期36":"k"},{"SH_ID_36":"10friyt","区36":"e","地址":"嘉定镇街道李园二村","lng":121.25015554036362,"lat":31.388665091268525,"确诊日期36":"k"},{"SH_ID_36":"10friy8","区36":"e","地址":"嘉美路1050弄","lng":121.27499659091325,"lat":31.301527230011132,"确诊日期36":"k"},{"SH_ID_36":"10friy4","区36":"e","地址":"嘉唐公路99弄","lng":121.2415496605895,"lat":31.395051796039702,"确诊日期36":"k"},{"SH_ID_36":"10frixw","区36":"e","地址":"嘉涛路60弄","lng":121.3298429965362,"lat":31.265738390038962,"确诊日期36":"k"},{"SH_ID_36":"10friy6","区36":"e","地址":"嘉新公路668弄","lng":121.26899040145814,"lat":31.362327119969557,"确诊日期36":"k"},{"SH_ID_36":"10friwb","区36":"e","地址":"嘉涌路99弄","lng":121.33526494774691,"lat":31.270178211609466,"确诊日期36":"k"},{"SH_ID_36":"10friyk","区36":"e","地址":"江桥镇北陈家宅","lng":121.33156245075733,"lat":31.238842174683334,"确诊日期36":"k"},{"SH_ID_36":"10frivo","区36":"e","地址":"江桥镇高潮村","lng":121.33187980021978,"lat":31.255210249431872,"确诊日期36":"k"},{"SH_ID_36":"10frivq","区36":"e","地址":"江桥镇高榆新村","lng":121.32615017620724,"lat":31.2533443850253,"确诊日期36":"k"},{"SH_ID_36":"10friyg","区36":"e","地址":"江桥镇恒嘉花园","lng":121.35352288842324,"lat":31.261940418028534,"确诊日期36":"k"},{"SH_ID_36":"10friyh","区36":"e","地址":"江桥镇红光村","lng":121.29747236177246,"lat":31.271967016937275,"确诊日期36":"k"},{"SH_ID_36":"10friye","区36":"e","地址":"江桥镇江桥二村","lng":121.34589307232598,"lat":31.256086570602513,"确诊日期36":"k"},{"SH_ID_36":"10friyf","区36":"e","地址":"江桥镇江桥三村","lng":121.34162026315609,"lat":31.257553263025926,"确诊日期36":"k"},{"SH_ID_36":"10friyd","区36":"e","地址":"江桥镇江桥一村","lng":121.34509271220105,"lat":31.258896010062404,"确诊日期36":"k"},{"SH_ID_36":"10friyi","区36":"e","地址":"江桥镇上淌湾小区","lng":121.33158581839825,"lat":31.238929302617912,"确诊日期36":"k"},{"SH_ID_36":"10friyl","区36":"e","地址":"江桥镇水岸丽苑","lng":121.32867811129998,"lat":31.27044659175859,"确诊日期36":"k"},{"SH_ID_36":"10friyj","区36":"e","地址":"江桥镇五四村","lng":121.32705173924946,"lat":31.24984441480525,"确诊日期36":"k"},{"SH_ID_36":"10frivp","区36":"e","地址":"江桥镇增建村","lng":121.29011343171611,"lat":31.241881500480257,"确诊日期36":"k"},{"SH_ID_36":"10friwd","区36":"e","地址":"金鼎路2388弄","lng":121.36292292429994,"lat":31.25932007787899,"确诊日期36":"k"},{"SH_ID_36":"10friwc","区36":"e","地址":"金鼎路2588弄","lng":121.35963166727115,"lat":31.260783056894947,"确诊日期36":"k"},{"SH_ID_36":"10friwe","区36":"e","地址":"金耀路555弄","lng":121.30936739036696,"lat":31.248440927152632,"确诊日期36":"k"},{"SH_ID_36":"10friwf","区36":"e","地址":"金耀南路299弄","lng":121.30890426134583,"lat":31.236028673269878,"确诊日期36":"k"},{"SH_ID_36":"10friwh","区36":"e","地址":"金耀南路300弄","lng":121.31309043181813,"lat":31.236939018129277,"确诊日期36":"k"},{"SH_ID_36":"10friwg","区36":"e","地址":"金耀南路80弄","lng":121.31155798236068,"lat":31.23453970826607,"确诊日期36":"k"},{"SH_ID_36":"10friwi","区36":"e","地址":"金园一路1115弄","lng":121.31971838717297,"lat":31.24482824168141,"确诊日期36":"k"},{"SH_ID_36":"10friwj","区36":"e","地址":"金园一路1118弄","lng":121.31491584234905,"lat":31.249030452848935,"确诊日期36":"k"},{"SH_ID_36":"10frixx","区36":"e","地址":"靖远路1099弄","lng":121.32474976456295,"lat":31.254669548580257,"确诊日期36":"k"},{"SH_ID_36":"10frixy","区36":"e","地址":"靖远路490弄","lng":121.34001682515365,"lat":31.2556998604691,"确诊日期36":"k"},{"SH_ID_36":"10frix5","区36":"e","地址":"菊城路311号","lng":121.21885939348486,"lat":31.35112022409417,"确诊日期36":"k"},{"SH_ID_36":"10friwk","区36":"e","地址":"临洮路1000弄","lng":121.33477063581651,"lat":31.26719714597667,"确诊日期36":"k"},{"SH_ID_36":"10friwn","区36":"e","地址":"临夏路256弄","lng":121.33294674022618,"lat":31.25933222664151,"确诊日期36":"k"},{"SH_ID_36":"10friwm","区36":"e","地址":"临夏路800弄","lng":121.32853611857672,"lat":31.257787116565606,"确诊日期36":"k"},{"SH_ID_36":"10friwl","区36":"e","地址":"临夏路801弄","lng":121.32818086663214,"lat":31.25668056060185,"确诊日期36":"k"},{"SH_ID_36":"10friwo","区36":"e","地址":"临夏路98弄","lng":121.33666778837016,"lat":31.258447077343423,"确诊日期36":"k"},{"SH_ID_36":"10friyu","区36":"e","地址":"马陆镇大裕村","lng":121.31623856418794,"lat":31.381044937177197,"确诊日期36":"k"},{"SH_ID_36":"10friyc","区36":"e","地址":"南翔镇新丰村","lng":121.3016884050752,"lat":31.320762853599696,"确诊日期36":"k"},{"SH_ID_36":"10frix6","区36":"e","地址":"南新路206号","lng":121.21820740311607,"lat":31.430799853019995,"确诊日期36":"k"},{"SH_ID_36":"10friy7","区36":"e","地址":"彭封路161弄","lng":121.28098478589646,"lat":31.34485690968891,"确诊日期36":"k"},{"SH_ID_36":"10friy3","区36":"e","地址":"平城路388弄","lng":121.25511754392808,"lat":31.40074504113917,"确诊日期36":"k"},{"SH_ID_36":"10friwp","区36":"e","地址":"祁连山南路2199号","lng":121.37206608676837,"lat":31.25271898130712,"确诊日期36":"k"},{"SH_ID_36":"10frixz","区36":"e","地址":"曲江路201弄","lng":121.34770282077949,"lat":31.25274144527707,"确诊日期36":"k"},{"SH_ID_36":"10friyb","区36":"e","地址":"墅沟路69弄","lng":121.27775857016857,"lat":31.380492871372194,"确诊日期36":"k"},{"SH_ID_36":"10friwq","区36":"e","地址":"双河路437弄","lng":121.37689048404444,"lat":31.258635168450937,"确诊日期36":"k"},{"SH_ID_36":"10frivt","区36":"e","地址":"铜川路2655弄","lng":121.36596022105095,"lat":31.255323495333258,"确诊日期36":"k"},{"SH_ID_36":"10friwr","区36":"e","地址":"吴杨东路333弄","lng":121.30662807089878,"lat":31.269715794051653,"确诊日期36":"k"},{"SH_ID_36":"10friws","区36":"e","地址":"吴杨路100弄","lng":121.2968479537401,"lat":31.269624499267202,"确诊日期36":"k"},{"SH_ID_36":"10friwt","区36":"e","地址":"翔铁东路88号","lng":121.34690606184807,"lat":31.27088993258758,"确诊日期36":"k"},{"SH_ID_36":"10friy0","区36":"e","地址":"翔铁中路219号","lng":121.31720755959431,"lat":31.276866313541255,"确诊日期36":"k"},{"SH_ID_36":"10friwu","区36":"e","地址":"新和路489号","lng":121.19558340858121,"lat":31.429629416604104,"确诊日期36":"k"},{"SH_ID_36":"10frivu","区36":"e","地址":"新和路789号","lng":121.19017057723184,"lat":31.433949646929175,"确诊日期36":"k"},{"SH_ID_36":"10frix7","区36":"e","地址":"兴荣路811号","lng":121.19835857513011,"lat":31.42921758143493,"确诊日期36":"k"},{"SH_ID_36":"10friwv","区36":"e","地址":"永靖路501弄","lng":121.2578697222004,"lat":31.4014747751337,"确诊日期36":"k"},{"SH_ID_36":"10friww","区36":"e","地址":"榆中路68弄","lng":121.3259042459306,"lat":31.25427191987942,"确诊日期36":"k"},{"SH_ID_36":"10friy1","区36":"e","地址":"虞姬墩路506号","lng":121.34303535700785,"lat":31.25605744413581,"确诊日期36":"k"},{"SH_ID_36":"10friwx","区36":"e","地址":"裕民路1000弄","lng":121.23823767270233,"lat":31.36734137900346,"确诊日期36":"k"},{"SH_ID_36":"10friya","区36":"e","地址":"泽普路588弄","lng":121.15570814586498,"lat":31.29081549592089,"确诊日期36":"k"},{"SH_ID_36":"10friwy","区36":"e","地址":"张掖路355号","lng":121.33467148094034,"lat":31.259006276801188,"确诊日期36":"k"},{"SH_ID_36":"10friym","区36":"e","地址":"真新街道江桥批发市场","lng":121.35931721784937,"lat":31.255985639197412,"确诊日期36":"k"},{"SH_ID_36":"10friwz","区36":"e","地址":"众百南路605号","lng":121.24664894067729,"lat":31.299210794276004,"确诊日期36":"k"},{"SH_ID_36":"10friyy","区36":"g","地址":"清泉路79号","lng":121.17852551504185,"lat":30.88910535639901,"确诊日期36":"k"},{"SH_ID_36":"10frigu","区36":"6","地址":"昌化路443弄","lng":121.4501212092539,"lat":31.2385568439646,"确诊日期36":"k"},{"SH_ID_36":"10frig2","区36":"6","地址":"昌平路999弄","lng":121.4372704686717,"lat":31.23233397826149,"确诊日期36":"k"},{"SH_ID_36":"10frigj","区36":"6","地址":"大宁路181弄","lng":121.45507248464735,"lat":31.277079103550623,"确诊日期36":"k"},{"SH_ID_36":"10frigk","区36":"6","地址":"大统路1033弄","lng":121.46008928398287,"lat":31.256818303543678,"确诊日期36":"k"},{"SH_ID_36":"10frig3","区36":"6","地址":"大统路938弄","lng":121.45864310825243,"lat":31.255620399970248,"确诊日期36":"k"},{"SH_ID_36":"10frify","区36":"6","地址":"光复路909号","lng":121.45563547226823,"lat":31.239180676283997,"确诊日期36":"k"},{"SH_ID_36":"10frigl","区36":"6","地址":"广中西路999弄","lng":121.43493907407664,"lat":31.27724011514485,"确诊日期36":"k"},{"SH_ID_36":"10frigi","区36":"6","地址":"沪太路315弄","lng":121.45305578259494,"lat":31.2551939375325,"确诊日期36":"k"},{"SH_ID_36":"10frigp","区36":"6","地址":"沪太路607号","lng":121.44920761608633,"lat":31.25977703045726,"确诊日期36":"k"},{"SH_ID_36":"10frig0","区36":"6","地址":"江场西路1366弄","lng":121.42400883596778,"lat":31.296102356638322,"确诊日期36":"k"},{"SH_ID_36":"10frig6","区36":"6","地址":"江宁路363弄","lng":121.45254932318512,"lat":31.23386446447592,"确诊日期36":"k"},{"SH_ID_36":"10frig9","区36":"6","地址":"江杨南路466弄","lng":121.46791938820556,"lat":31.316649917589164,"确诊日期36":"k"},{"SH_ID_36":"10frigv","区36":"6","地址":"康定路710弄","lng":121.44346155283456,"lat":31.23268236998901,"确诊日期36":"k"},{"SH_ID_36":"10frifz","区36":"6","地址":"康定路758弄","lng":121.44250870682163,"lat":31.232300965586635,"确诊日期36":"k"},{"SH_ID_36":"10frigo","区36":"6","地址":"柳营路1025弄","lng":121.4504176650298,"lat":31.261833395025107,"确诊日期36":"k"},{"SH_ID_36":"10frigq","区36":"6","地址":"柳营路650弄","lng":121.45766438641091,"lat":31.263505501314633,"确诊日期36":"k"},{"SH_ID_36":"10frigr","区36":"6","地址":"柳营路768弄","lng":121.45561593166484,"lat":31.262821087459994,"确诊日期36":"k"},{"SH_ID_36":"10frifv","区36":"6","地址":"陆丰路1号","lng":121.475290387661,"lat":31.25929598070575,"确诊日期36":"k"},{"SH_ID_36":"10frigg","区36":"6","地址":"南京西路778号","lng":121.46186002819204,"lat":31.230953691644455,"确诊日期36":"k"},{"SH_ID_36":"10frifu","区36":"6","地址":"平顺路721弄","lng":121.45147921933399,"lat":31.317169900883165,"确诊日期36":"k"},{"SH_ID_36":"10frigb","区36":"6","地址":"普善路239弄","lng":121.45610223988142,"lat":31.257878107544396,"确诊日期36":"k"},{"SH_ID_36":"10frigs","区36":"6","地址":"普善路390弄","lng":121.45395229078458,"lat":31.260129903033587,"确诊日期36":"k"},{"SH_ID_36":"10frige","区36":"6","地址":"普善路毛家弄4号","lng":121.4547629090849,"lat":31.258553408900678,"确诊日期36":"k"},{"SH_ID_36":"10frigh","区36":"6","地址":"普善路铁路新村18号","lng":121.45496258505884,"lat":31.25605412951165,"确诊日期36":"k"},{"SH_ID_36":"10frigc","区36":"6","地址":"虬江路888弄","lng":121.47596730003454,"lat":31.251913616336726,"确诊日期36":"k"},{"SH_ID_36":"10frign","区36":"6","地址":"谈家桥路163弄","lng":121.45033435527053,"lat":31.260369906435795,"确诊日期36":"k"},{"SH_ID_36":"10frigt","区36":"6","地址":"谈家桥路85弄","lng":121.45264458119019,"lat":31.259508859426056,"确诊日期36":"k"},{"SH_ID_36":"10frigf","区36":"6","地址":"万航渡路342号","lng":121.43818120815888,"lat":31.22540540303864,"确诊日期36":"k"},{"SH_ID_36":"10frifx","区36":"6","地址":"乌鲁木齐北路506号","lng":121.44368795437086,"lat":31.217630501577474,"确诊日期36":"k"},{"SH_ID_36":"10frig1","区36":"6","地址":"阳城路283弄","lng":121.42604308940079,"lat":31.28419987226521,"确诊日期36":"k"},{"SH_ID_36":"10frifw","区36":"6","地址":"永和路1080弄","lng":121.42655482926088,"lat":31.28733814784051,"确诊日期36":"k"},{"SH_ID_36":"10frig4","区36":"6","地址":"永兴小马路70号","lng":121.46429459596112,"lat":31.25133129693106,"确诊日期36":"k"},{"SH_ID_36":"10frig8","区36":"6","地址":"愚园路611弄","lng":121.4377272957019,"lat":31.220638495127552,"确诊日期36":"k"},{"SH_ID_36":"10frigm","区36":"6","地址":"止园路400弄","lng":121.46897182568864,"lat":31.259662232536613,"确诊日期36":"k"},{"SH_ID_36":"10friga","区36":"6","地址":"芷江西路393弄","lng":121.45812227997259,"lat":31.257539485949405,"确诊日期36":"k"},{"SH_ID_36":"10frigd","区36":"6","地址":"芷江西路593弄","lng":121.45494427849167,"lat":31.257042041314044,"确诊日期36":"k"},{"SH_ID_36":"10frift","区36":"6","地址":"芷江中路363弄","lng":121.47082018727359,"lat":31.259823980575437,"确诊日期36":"k"},{"SH_ID_36":"10frigw","区36":"6","地址":"中华新路893弄","lng":121.4560304679791,"lat":31.254225987926606,"确诊日期36":"k"},{"SH_ID_36":"10frig5","区36":"6","地址":"中山北路828号","lng":121.4570782023658,"lat":31.25953779803826,"确诊日期36":"k"},{"SH_ID_36":"10frig7","区36":"6","地址":"中山北路831弄","lng":121.45799909802457,"lat":31.260493225152626,"确诊日期36":"k"},{"SH_ID_36":"10frip9","区36":"c","地址":"安乐村","lng":121.4108970511362,"lat":31.029231379024036,"确诊日期36":"k"},{"SH_ID_36":"10fripa","区36":"c","地址":"安宁路26弄","lng":121.41589442911565,"lat":31.00992745981551,"确诊日期36":"k"},{"SH_ID_36":"10fripb","区36":"c","地址":"安宁路330弄","lng":121.41627684577527,"lat":31.01405227538077,"确诊日期36":"k"},{"SH_ID_36":"10fripc","区36":"c","地址":"宝联路100号","lng":121.35092331671298,"lat":31.14630914455235,"确诊日期36":"k"},{"SH_ID_36":"10fripd","区36":"c","地址":"报春路816弄","lng":121.37755606548822,"lat":31.12123683209533,"确诊日期36":"k"},{"SH_ID_36":"10fripe","区36":"c","地址":"报春路817弄","lng":121.37721192091854,"lat":31.120236863023532,"确诊日期36":"k"},{"SH_ID_36":"10fripf","区36":"c","地址":"报春路862弄","lng":121.37472540473027,"lat":31.120786840769085,"确诊日期36":"k"},{"SH_ID_36":"10fripg","区36":"c","地址":"报春路863弄","lng":121.37546094883784,"lat":31.119187662186352,"确诊日期36":"k"},{"SH_ID_36":"10fripj","区36":"c","地址":"北翟路2900弄","lng":121.32432063254241,"lat":31.22221436678596,"确诊日期36":"k"},{"SH_ID_36":"10friph","区36":"c","地址":"北江燕路228弄","lng":121.50281606044555,"lat":31.079466579706622,"确诊日期36":"k"},{"SH_ID_36":"10fripi","区36":"c","地址":"北沈路260弄","lng":121.33554415557768,"lat":31.2291905458275,"确诊日期36":"k"},{"SH_ID_36":"10fripk","区36":"c","地址":"碧江路401弄","lng":121.4030762068863,"lat":31.0119083177457,"确诊日期36":"k"},{"SH_ID_36":"10fripl","区36":"c","地址":"碧江路501弄","lng":121.40008139122409,"lat":31.01498709817173,"确诊日期36":"k"},{"SH_ID_36":"10fripm","区36":"c","地址":"宾川路380弄","lng":121.41175761382493,"lat":31.005067813361638,"确诊日期36":"k"},{"SH_ID_36":"10fripo","区36":"c","地址":"曹家塘路220弄","lng":121.44593419043031,"lat":31.041664175931846,"确诊日期36":"k"},{"SH_ID_36":"10fripp","区36":"c","地址":"曹家塘路299弄","lng":121.44504050706216,"lat":31.041026420295072,"确诊日期36":"k"},{"SH_ID_36":"10fripn","区36":"c","地址":"曹行村","lng":121.44565310338645,"lat":31.095587752568086,"确诊日期36":"k"},{"SH_ID_36":"10fripq","区36":"c","地址":"曹中村","lng":121.43283667446049,"lat":31.08850025326579,"确诊日期36":"k"},{"SH_ID_36":"10fripr","区36":"c","地址":"漕宝路1243号","lng":121.39349154654896,"lat":31.1599916508246,"确诊日期36":"k"},{"SH_ID_36":"10frips","区36":"c","地址":"漕宝路1467弄","lng":121.38356055362341,"lat":31.160883011369407,"确诊日期36":"k"},{"SH_ID_36":"10fript","区36":"c","地址":"漕宝路1508弄","lng":121.38432925869199,"lat":31.155908598163368,"确诊日期36":"k"},{"SH_ID_36":"10fripu","区36":"c","地址":"昌林路430号","lng":121.51767620728022,"lat":31.064941967429817,"确诊日期36":"k"},{"SH_ID_36":"10fripv","区36":"c","地址":"春都路358弄","lng":121.41444274292509,"lat":31.08396789290175,"确诊日期36":"k"},{"SH_ID_36":"10fripw","区36":"c","地址":"春申路1580弄","lng":121.43197427850093,"lat":31.115816764822107,"确诊日期36":"k"},{"SH_ID_36":"10fripx","区36":"c","地址":"春申路1581弄","lng":121.43199559833221,"lat":31.113885451959195,"确诊日期36":"k"},{"SH_ID_36":"10fripy","区36":"c","地址":"春申路2458弄","lng":121.4146759058141,"lat":31.11215925621402,"确诊日期36":"k"},{"SH_ID_36":"10fripz","区36":"c","地址":"灯辉路1169弄","lng":121.41785262247181,"lat":31.028728784000506,"确诊日期36":"k"},{"SH_ID_36":"10friq0","区36":"c","地址":"东川路2718弄","lng":121.40037022793341,"lat":31.00909397360345,"确诊日期36":"k"},{"SH_ID_36":"10friq1","区36":"c","地址":"东川路800号","lng":121.43604969840341,"lat":31.024060622322903,"确诊日期36":"k"},{"SH_ID_36":"10friq2","区36":"c","地址":"东风村","lng":121.54458842472236,"lat":31.102512437947116,"确诊日期36":"k"},{"SH_ID_36":"10friq3","区36":"c","地址":"东兰路1349弄","lng":121.38098072139587,"lat":31.149882439295506,"确诊日期36":"k"},{"SH_ID_36":"10friq4","区36":"c","地址":"都会路258号","lng":121.43143524083968,"lat":31.03720613587345,"确诊日期36":"k"},{"SH_ID_36":"10friq5","区36":"c","地址":"都会路2799弄","lng":121.40987960234145,"lat":31.079997482287922,"确诊日期36":"k"},{"SH_ID_36":"10friq6","区36":"c","地址":"都会路3199弄","lng":121.40923455666753,"lat":31.08458382522791,"确诊日期36":"k"},{"SH_ID_36":"10friq7","区36":"c","地址":"都市路1900弄","lng":121.41500860193143,"lat":31.05737287009396,"确诊日期36":"k"},{"SH_ID_36":"10friq8","区36":"c","地址":"都市路3635弄","lng":121.4000522862037,"lat":31.082325317093506,"确诊日期36":"k"},{"SH_ID_36":"10friq9","区36":"c","地址":"繁兴路469弄","lng":121.28902420127243,"lat":31.212142589738413,"确诊日期36":"k"},{"SH_ID_36":"10friqa","区36":"c","地址":"放鹤路2323弄","lng":121.4223393666347,"lat":31.044954149639167,"确诊日期36":"k"},{"SH_ID_36":"10friqb","区36":"c","地址":"放鹤路2号","lng":121.47715068919393,"lat":31.051349891222703,"确诊日期36":"k"},{"SH_ID_36":"10friqc","区36":"c","地址":"富国路199弄","lng":121.37899754405126,"lat":31.02173071355383,"确诊日期36":"k"},{"SH_ID_36":"10friqd","区36":"c","地址":"富国路355弄","lng":121.37830887357823,"lat":31.023988123002777,"确诊日期36":"k"},{"SH_ID_36":"10friqe","区36":"c","地址":"富国路39弄","lng":121.37889519695949,"lat":31.01987383213753,"确诊日期36":"k"},{"SH_ID_36":"10friqf","区36":"c","地址":"富岩路328弄","lng":121.3708263614128,"lat":31.032583318931582,"确诊日期36":"k"},{"SH_ID_36":"10friqg","区36":"c","地址":"共和村","lng":121.46488045685236,"lat":31.049624409746016,"确诊日期36":"k"},{"SH_ID_36":"10friqi","区36":"c","地址":"鹤庆路136弄","lng":121.41942769068342,"lat":31.011637008951293,"确诊日期36":"k"},{"SH_ID_36":"10friqj","区36":"c","地址":"鹤庆路358弄","lng":121.41383933580143,"lat":31.00967538612949,"确诊日期36":"k"},{"SH_ID_36":"10friqk","区36":"c","地址":"虹井路618弄","lng":121.37107203187215,"lat":31.18505663844774,"确诊日期36":"k"},{"SH_ID_36":"10friql","区36":"c","地址":"虹梅路3329弄","lng":121.38515556664257,"lat":31.189620939626323,"确诊日期36":"k"},{"SH_ID_36":"10friqm","区36":"c","地址":"虹梅南路1008号","lng":121.42443963689237,"lat":31.123645190744586,"确诊日期36":"k"},{"SH_ID_36":"10friqn","区36":"c","地址":"虹梅南路1526弄","lng":121.43389006110925,"lat":31.118243022184387,"确诊日期36":"k"},{"SH_ID_36":"10friqo","区36":"c","地址":"虹梅南路1660弄","lng":121.42865289107019,"lat":31.115069200245305,"确诊日期36":"k"},{"SH_ID_36":"10friqp","区36":"c","地址":"虹梅南路1770弄","lng":121.43036245870692,"lat":31.111660000175867,"确诊日期36":"k"},{"SH_ID_36":"10friqq","区36":"c","地址":"虹梅南路1776弄","lng":121.43040216890611,"lat":31.11118416223349,"确诊日期36":"k"},{"SH_ID_36":"10friqr","区36":"c","地址":"虹梅南路1781弄","lng":121.42819914224484,"lat":31.10693756416568,"确诊日期36":"k"},{"SH_ID_36":"10friqs","区36":"c","地址":"虹梅南路221号","lng":121.41419474625508,"lat":31.136288511556753,"确诊日期36":"k"},{"SH_ID_36":"10friqt","区36":"c","地址":"虹梅南路2288弄","lng":121.43374139062728,"lat":31.100749862919628,"确诊日期36":"k"},{"SH_ID_36":"10friqu","区36":"c","地址":"虹梅南路2555弄","lng":121.4300388423418,"lat":31.098101504185415,"确诊日期36":"k"},{"SH_ID_36":"10friqv","区36":"c","地址":"虹梅南路3509弄","lng":121.43776132100452,"lat":31.08328998085884,"确诊日期36":"k"},{"SH_ID_36":"10friqw","区36":"c","地址":"虹梅南路3678号","lng":121.44012742537777,"lat":31.081756163399675,"确诊日期36":"k"},{"SH_ID_36":"10friqx","区36":"c","地址":"虹梅南路4828号","lng":121.44855371362395,"lat":31.05920205222418,"确诊日期36":"k"},{"SH_ID_36":"10friqy","区36":"c","地址":"虹梅南路5205弄","lng":121.44960296048335,"lat":31.048721588283843,"确诊日期36":"k"},{"SH_ID_36":"10friqz","区36":"c","地址":"虹梅南路788号","lng":121.4226728776302,"lat":31.12572105305536,"确诊日期36":"k"},{"SH_ID_36":"10frir0","区36":"c","地址":"虹梅南路990号","lng":121.42384282834983,"lat":31.124591822413418,"确诊日期36":"k"},{"SH_ID_36":"10frir1","区36":"c","地址":"沪光路39弄","lng":121.42128116144063,"lat":31.079036395358898,"确诊日期36":"k"},{"SH_ID_36":"10frir3","区36":"c","地址":"沪闵路3131弄","lng":121.40996244440495,"lat":31.055320788800845,"确诊日期36":"k"},{"SH_ID_36":"10frir4","区36":"c","地址":"沪闵路5366弄","lng":121.38550411117834,"lat":31.096514293447026,"确诊日期36":"k"},{"SH_ID_36":"10frir5","区36":"c","地址":"华光路300弄","lng":121.38121812360936,"lat":31.18869620386957,"确诊日期36":"k"},{"SH_ID_36":"10frir6","区36":"c","地址":"华宁路1399弄","lng":121.3904977500537,"lat":31.023716816816965,"确诊日期36":"k"},{"SH_ID_36":"10frir7","区36":"c","地址":"华展路168弄","lng":121.44883937768202,"lat":31.111980435782943,"确诊日期36":"k"},{"SH_ID_36":"10frir8","区36":"c","地址":"黄桦路422弄","lng":121.36535497144435,"lat":31.184335854152895,"确诊日期36":"k"},{"SH_ID_36":"10frir9","区36":"c","地址":"汇南村","lng":121.56066665262773,"lat":31.00436628422692,"确诊日期36":"k"},{"SH_ID_36":"10frira","区36":"c","地址":"纪翟南路165号","lng":121.30027169360208,"lat":31.203877333338774,"确诊日期36":"k"},{"SH_ID_36":"10frirb","区36":"c","地址":"建东村","lng":121.50300223912845,"lat":31.040379346037646,"确诊日期36":"k"},{"SH_ID_36":"10frirc","区36":"c","地址":"剑川路100弄","lng":121.472526207077,"lat":31.044277971777376,"确诊日期36":"k"},{"SH_ID_36":"10frird","区36":"c","地址":"剑川路121弄","lng":121.46994733871686,"lat":31.041854599252897,"确诊日期36":"k"},{"SH_ID_36":"10frire","区36":"c","地址":"剑川路150弄","lng":121.46520889128948,"lat":31.04364288001238,"确诊日期36":"k"},{"SH_ID_36":"10frirf","区36":"c","地址":"剑川路198弄","lng":121.46220411096074,"lat":31.042112468688487,"确诊日期36":"k"},{"SH_ID_36":"10frirg","区36":"c","地址":"剑川路201弄","lng":121.46436002269895,"lat":31.03872227376515,"确诊日期36":"k"},{"SH_ID_36":"10frirh","区36":"c","地址":"剑川路50弄","lng":121.47586410195036,"lat":31.04386676897054,"确诊日期36":"k"},{"SH_ID_36":"10frirj","区36":"c","地址":"江潮路168号","lng":121.52559932831754,"lat":31.072065848575555,"确诊日期36":"k"},{"SH_ID_36":"10frirk","区36":"c","地址":"江川东路863弄","lng":121.42579862060849,"lat":31.004830910577056,"确诊日期36":"k"},{"SH_ID_36":"10frirl","区36":"c","地址":"江川路1777弄","lng":121.37009783516929,"lat":30.992252877200862,"确诊日期36":"k"},{"SH_ID_36":"10frirm","区36":"c","地址":"江川路2060弄101支弄","lng":121.41864199711912,"lat":31.004149454126694,"确诊日期36":"k"},{"SH_ID_36":"10frirn","区36":"c","地址":"江川路680弄","lng":121.40124952647786,"lat":31.00160990124586,"确诊日期36":"k"},{"SH_ID_36":"10friri","区36":"c","地址":"江川路街道剑川路综合服务中心工地宿舍","lng":121.35350130364968,"lat":31.00685911860037,"确诊日期36":"k"},{"SH_ID_36":"10friro","区36":"c","地址":"江柳路888弄","lng":121.48544035792865,"lat":31.100040162973237,"确诊日期36":"k"},{"SH_ID_36":"10frirp","区36":"c","地址":"江文路330弄","lng":121.54323015417957,"lat":31.064838642269596,"确诊日期36":"k"},{"SH_ID_36":"10frirq","区36":"c","地址":"金光路699弄","lng":121.27365742190989,"lat":31.199958273598284,"确诊日期36":"k"},{"SH_ID_36":"10frirr","区36":"c","地址":"金汇路460弄","lng":121.37605502348677,"lat":31.1779346415108,"确诊日期36":"k"},{"SH_ID_36":"10frirs","区36":"c","地址":"金汇路588弄","lng":121.37465482645568,"lat":31.18357734026994,"确诊日期36":"k"},{"SH_ID_36":"10frirt","区36":"c","地址":"金平路328弄","lng":121.40799762083049,"lat":31.013015106010123,"确诊日期36":"k"},{"SH_ID_36":"10friru","区36":"c","地址":"金平路337弄","lng":121.41074762064898,"lat":31.013486334548286,"确诊日期36":"k"},{"SH_ID_36":"10frirv","区36":"c","地址":"金平路555弄","lng":121.41171862032314,"lat":31.018249051679078,"确诊日期36":"k"},{"SH_ID_36":"10frirw","区36":"c","地址":"金平路558弄","lng":121.40705559836604,"lat":31.01692939099926,"确诊日期36":"k"},{"SH_ID_36":"10frirx","区36":"c","地址":"金平路788弄","lng":121.40548527720877,"lat":31.02039724783182,"确诊日期36":"k"},{"SH_ID_36":"10friry","区36":"c","地址":"景谷路64弄","lng":121.40121215763095,"lat":31.015225499813063,"确诊日期36":"k"},{"SH_ID_36":"10frirz","区36":"c","地址":"景谷中路58弄","lng":121.41754835110699,"lat":31.022212604661846,"确诊日期36":"k"},{"SH_ID_36":"10fris1","区36":"c","地址":"兰坪路301弄22支弄","lng":121.42038720508178,"lat":31.009354596167885,"确诊日期36":"k"},{"SH_ID_36":"10fris2","区36":"c","地址":"老沪闵路1111弄","lng":121.43578428372308,"lat":31.126178719295186,"确诊日期36":"k"},{"SH_ID_36":"10frir2","区36":"c","地址":"老沪闵路1351弄","lng":121.4337734835133,"lat":31.11320658021001,"确诊日期36":"k"},{"SH_ID_36":"10fris3","区36":"c","地址":"老沪闵路2259弄","lng":121.41460141299754,"lat":31.09282633792702,"确诊日期36":"k"},{"SH_ID_36":"10fris4","区36":"c","地址":"黎安路380弄","lng":121.37418569883283,"lat":31.131477335066535,"确诊日期36":"k"},{"SH_ID_36":"10fris5","区36":"c","地址":"立跃路3800弄","lng":121.4977098089392,"lat":31.086545434052887,"确诊日期36":"k"},{"SH_ID_36":"10fris6","区36":"c","地址":"莲花南路1108弄","lng":121.40884646632051,"lat":31.106250548907298,"确诊日期36":"k"},{"SH_ID_36":"10fris7","区36":"c","地址":"莲花南路1111弄","lng":121.4110353469521,"lat":31.107438889537022,"确诊日期36":"k"},{"SH_ID_36":"10fris8","区36":"c","地址":"莲花南路431弄","lng":121.40793479939715,"lat":31.122920234406664,"确诊日期36":"k"},{"SH_ID_36":"10fris9","区36":"c","地址":"联航路2015弄","lng":121.50525384270026,"lat":31.072400754334446,"确诊日期36":"k"},{"SH_ID_36":"10frisa","区36":"c","地址":"联青路50弄","lng":121.38337079788015,"lat":31.04849757520786,"确诊日期36":"k"},{"SH_ID_36":"10frisb","区36":"c","地址":"联青路51弄","lng":121.3891159816443,"lat":31.042514523054063,"确诊日期36":"k"},{"SH_ID_36":"10frisc","区36":"c","地址":"联青路699弄","lng":121.37993311426412,"lat":31.038409924314553,"确诊日期36":"k"},{"SH_ID_36":"10frisd","区36":"c","地址":"龙柏二村","lng":121.36229444616984,"lat":31.18166777636872,"确诊日期36":"k"},{"SH_ID_36":"10frisf","区36":"c","地址":"龙柏七村","lng":121.3628126909097,"lat":31.173980950912096,"确诊日期36":"k"},{"SH_ID_36":"10frise","区36":"c","地址":"龙柏四村","lng":121.36316610778739,"lat":31.178416272301327,"确诊日期36":"k"},{"SH_ID_36":"10frisg","区36":"c","地址":"龙吴路3008号","lng":121.45663441060674,"lat":31.096107707323885,"确诊日期36":"k"},{"SH_ID_36":"10frish","区36":"c","地址":"龙吴路3399号","lng":121.45668573780192,"lat":31.092433113034033,"确诊日期36":"k"},{"SH_ID_36":"10frisi","区36":"c","地址":"龙吴路4341号","lng":121.45966518936622,"lat":31.083216651979217,"确诊日期36":"k"},{"SH_ID_36":"10frisj","区36":"c","地址":"龙吴路4787弄","lng":121.45989860735308,"lat":31.066272820953454,"确诊日期36":"k"},{"SH_ID_36":"10frisk","区36":"c","地址":"龙吴路5492号","lng":121.46768657791323,"lat":31.045063697339017,"确诊日期36":"k"},{"SH_ID_36":"10frisl","区36":"c","地址":"龙吴路5511弄","lng":121.46637973858238,"lat":31.0442620459345,"确诊日期36":"k"},{"SH_ID_36":"10frism","区36":"c","地址":"龙吴路5530弄","lng":121.46587974186563,"lat":31.043505980176263,"确诊日期36":"k"},{"SH_ID_36":"10frisn","区36":"c","地址":"龙吴路5599弄","lng":121.46783484288457,"lat":31.039830799750646,"确诊日期36":"k"},{"SH_ID_36":"10friso","区36":"c","地址":"罗锦路111弄","lng":121.41608822747352,"lat":31.12469624238802,"确诊日期36":"k"},{"SH_ID_36":"10frisp","区36":"c","地址":"罗锦路258弄","lng":121.41169782224073,"lat":31.121954415358772,"确诊日期36":"k"},{"SH_ID_36":"10frisq","区36":"c","地址":"罗锦路69号","lng":121.42028905202012,"lat":31.12422549186509,"确诊日期36":"k"},{"SH_ID_36":"10frisr","区36":"c","地址":"罗锦路85号","lng":121.4186514436404,"lat":31.123267714595325,"确诊日期36":"k"},{"SH_ID_36":"10friss","区36":"c","地址":"罗秀路1501号","lng":121.41435198420349,"lat":31.127538274373027,"确诊日期36":"k"},{"SH_ID_36":"10frist","区36":"c","地址":"罗秀路1955弄","lng":121.4033999064027,"lat":31.12690311449914,"确诊日期36":"k"},{"SH_ID_36":"10frisu","区36":"c","地址":"罗秀路1980弄","lng":121.40419082493342,"lat":31.12921054399953,"确诊日期36":"k"},{"SH_ID_36":"10frisv","区36":"c","地址":"罗阳路258弄","lng":121.41069926305143,"lat":31.12451167572736,"确诊日期36":"k"},{"SH_ID_36":"10frisw","区36":"c","地址":"马桥西街小区58弄","lng":121.36738998898862,"lat":31.02813185914907,"确诊日期36":"k"},{"SH_ID_36":"10frisy","区36":"c","地址":"梅陇二村","lng":121.41158971501174,"lat":31.131136867636155,"确诊日期36":"k"},{"SH_ID_36":"10frisx","区36":"c","地址":"梅陇一村","lng":121.41257581024377,"lat":31.136393417333963,"确诊日期36":"k"},{"SH_ID_36":"10fris0","区36":"c","地址":"民建村","lng":121.45534160090226,"lat":31.095558959637135,"确诊日期36":"k"},{"SH_ID_36":"10frisz","区36":"c","地址":"闵驰一路208弄","lng":121.54313319711876,"lat":31.04056373965228,"确诊日期36":"k"},{"SH_ID_36":"10frit0","区36":"c","地址":"平南路61号","lng":121.3907224206398,"lat":31.151317654078277,"确诊日期36":"k"},{"SH_ID_36":"10frit2","区36":"c","地址":"平南三村","lng":121.39086272438503,"lat":31.151815193976088,"确诊日期36":"k"},{"SH_ID_36":"10frit1","区36":"c","地址":"平南一村","lng":121.39634473265149,"lat":31.15404839814918,"确诊日期36":"k"},{"SH_ID_36":"10frit3","区36":"c","地址":"平阳路1375弄","lng":121.38709920022924,"lat":31.13435680420481,"确诊日期36":"k"},{"SH_ID_36":"10frit4","区36":"c","地址":"瓶北路479弄","lng":121.3970250708265,"lat":31.051240889414103,"确诊日期36":"k"},{"SH_ID_36":"10frit5","区36":"c","地址":"浦驰路188弄","lng":121.50360660445631,"lat":31.074352886652175,"确诊日期36":"k"},{"SH_ID_36":"10frit6","区36":"c","地址":"浦江路190号","lng":121.42694868223703,"lat":30.999380125876193,"确诊日期36":"k"},{"SH_ID_36":"10frit7","区36":"c","地址":"浦涛路100弄","lng":121.5423019573676,"lat":31.05210451659151,"确诊日期36":"k"},{"SH_ID_36":"10frit8","区36":"c","地址":"浦涛路505弄","lng":121.53617558446297,"lat":31.045902514622327,"确诊日期36":"k"},{"SH_ID_36":"10frit9","区36":"c","地址":"普杰路100弄","lng":121.42282835656817,"lat":31.117371517453062,"确诊日期36":"k"},{"SH_ID_36":"10frita","区36":"c","地址":"普乐路425弄","lng":121.42366020499654,"lat":31.114632463308368,"确诊日期36":"k"},{"SH_ID_36":"10fritb","区36":"c","地址":"七莘路1818弄","lng":121.36275651726396,"lat":31.1383877583685,"确诊日期36":"k"},{"SH_ID_36":"10fritc","区36":"c","地址":"七莘路3885弄","lng":121.33830039944901,"lat":31.170120090595695,"确诊日期36":"k"},{"SH_ID_36":"10fritd","区36":"c","地址":"沁春路168弄","lng":121.37955849058973,"lat":31.098963584538115,"确诊日期36":"k"},{"SH_ID_36":"10frite","区36":"c","地址":"群英路88弄","lng":121.3699483063705,"lat":31.119537158703604,"确诊日期36":"k"},{"SH_ID_36":"10fritf","区36":"c","地址":"瑞丽路22弄","lng":121.40916508106434,"lat":31.003176715590357,"确诊日期36":"k"},{"SH_ID_36":"10fritg","区36":"c","地址":"上中西路1011弄","lng":121.41107950126234,"lat":31.128862992505223,"确诊日期36":"k"},{"SH_ID_36":"10frith","区36":"c","地址":"上中西路735弄","lng":121.41800866568065,"lat":31.130879923231852,"确诊日期36":"k"},{"SH_ID_36":"10friti","区36":"c","地址":"上中西路738弄","lng":121.41688771028046,"lat":31.13201364101724,"确诊日期36":"k"},{"SH_ID_36":"10fritj","区36":"c","地址":"上中西路810弄","lng":121.41692071622022,"lat":31.13167198737901,"确诊日期36":"k"},{"SH_ID_36":"10fritk","区36":"c","地址":"上中西路855弄","lng":121.41559721580799,"lat":31.129552463278422,"确诊日期36":"k"},{"SH_ID_36":"10fritl","区36":"c","地址":"上中西路925弄","lng":121.4126079780169,"lat":31.12900105110316,"确诊日期36":"k"},{"SH_ID_36":"10fritm","区36":"c","地址":"尚义路229弄","lng":121.45063892751253,"lat":31.041962280117296,"确诊日期36":"k"},{"SH_ID_36":"10fritn","区36":"c","地址":"申北路135弄","lng":121.3866914679239,"lat":31.09022322498824,"确诊日期36":"k"},{"SH_ID_36":"10frito","区36":"c","地址":"申滨路1058弄","lng":121.31019839367151,"lat":31.21058846429514,"确诊日期36":"k"},{"SH_ID_36":"10fritp","区36":"c","地址":"申郑路18弄","lng":121.3113355362522,"lat":31.203493667316327,"确诊日期36":"k"},{"SH_ID_36":"10fritq","区36":"c","地址":"莘沥路501弄","lng":121.36786217642917,"lat":31.108274474250365,"确诊日期36":"k"},{"SH_ID_36":"10fritr","区36":"c","地址":"莘松路958弄","lng":121.35392470144326,"lat":31.106458583900306,"确诊日期36":"k"},{"SH_ID_36":"10frits","区36":"c","地址":"莘西南路155弄","lng":121.3790170228894,"lat":31.094315010711465,"确诊日期36":"k"},{"SH_ID_36":"10fritt","区36":"c","地址":"莘朱路1365号","lng":121.41818227549864,"lat":31.120065566504813,"确诊日期36":"k"},{"SH_ID_36":"10fritu","区36":"c","地址":"莘朱路1688弄","lng":121.41885260335523,"lat":31.121409598082305,"确诊日期36":"k"},{"SH_ID_36":"10fritv","区36":"c","地址":"莘朱路1935弄","lng":121.3910454936669,"lat":31.109956906348874,"确诊日期36":"k"},{"SH_ID_36":"10fritw","区36":"c","地址":"石屏路399弄","lng":121.41850311675226,"lat":31.01684701745578,"确诊日期36":"k"},{"SH_ID_36":"10fritx","区36":"c","地址":"疏影路1188弄","lng":121.3601786192328,"lat":31.118195617122367,"确诊日期36":"k"},{"SH_ID_36":"10frity","区36":"c","地址":"疏影路758弄","lng":121.36789810584588,"lat":31.121000634397365,"确诊日期36":"k"},{"SH_ID_36":"10fritz","区36":"c","地址":"疏影路789弄","lng":121.3650192750526,"lat":31.118737167845477,"确诊日期36":"k"},{"SH_ID_36":"10friu0","区36":"c","地址":"曙建路185弄","lng":121.41950200742357,"lat":31.090720987821555,"确诊日期36":"k"},{"SH_ID_36":"10friu1","区36":"c","地址":"水清路1000弄","lng":121.37832458765381,"lat":31.125788106605285,"确诊日期36":"k"},{"SH_ID_36":"10friu2","区36":"c","地址":"水清路999弄","lng":121.37525406614225,"lat":31.12655365475823,"确诊日期36":"k"},{"SH_ID_36":"10friu3","区36":"c","地址":"苏民村","lng":121.53270892692653,"lat":31.10895255367538,"确诊日期36":"k"},{"SH_ID_36":"10friu4","区36":"c","地址":"塘口村","lng":121.4803521129301,"lat":31.088160132421606,"确诊日期36":"k"},{"SH_ID_36":"10friu5","区36":"c","地址":"塘湾村","lng":121.44277496733618,"lat":31.05524801724521,"确诊日期36":"k"},{"SH_ID_36":"10friu6","区36":"c","地址":"天山西路4178弄","lng":121.30607351681876,"lat":31.217105163406817,"确诊日期36":"k"},{"SH_ID_36":"10friu7","区36":"c","地址":"同乐路151弄","lng":121.41854979355122,"lat":31.124315246236417,"确诊日期36":"k"},{"SH_ID_36":"10friu8","区36":"c","地址":"同乐路158号","lng":121.4192098943482,"lat":31.124890360875,"确诊日期36":"k"},{"SH_ID_36":"10friu9","区36":"c","地址":"同心村","lng":121.34526856395968,"lat":30.992309484159716,"确诊日期36":"k"},{"SH_ID_36":"10friua","区36":"c","地址":"吴河路328号","lng":121.43148267376935,"lat":31.043207825485954,"确诊日期36":"k"},{"SH_ID_36":"10friub","区36":"c","地址":"吴河路333号","lng":121.43040615001253,"lat":31.042145891873343,"确诊日期36":"k"},{"SH_ID_36":"10friuc","区36":"c","地址":"吴中路405弄100支弄","lng":121.41073679529472,"lat":31.183916683377177,"确诊日期36":"k"},{"SH_ID_36":"10friud","区36":"c","地址":"吴中路870弄","lng":121.39094528608219,"lat":31.17888070485766,"确诊日期36":"k"},{"SH_ID_36":"10friue","区36":"c","地址":"西环二村","lng":121.36579050468693,"lat":31.10335404535063,"确诊日期36":"k"},{"SH_ID_36":"10friuf","区36":"c","地址":"先进村","lng":121.53042950792756,"lat":31.035704675278616,"确诊日期36":"k"},{"SH_ID_36":"10friug","区36":"c","地址":"向阳路228弄","lng":121.43778733577604,"lat":31.075883605458962,"确诊日期36":"k"},{"SH_ID_36":"10friuh","区36":"c","地址":"新建村","lng":121.44416314929045,"lat":31.06422711755395,"确诊日期36":"k"},{"SH_ID_36":"10friui","区36":"c","地址":"新龙路1111弄","lng":121.34067204773324,"lat":31.15188473971687,"确诊日期36":"k"},{"SH_ID_36":"10friuj","区36":"c","地址":"新镇路1060弄","lng":121.36071823705154,"lat":31.155364487575106,"确诊日期36":"k"},{"SH_ID_36":"10friuk","区36":"c","地址":"新镇路603弄","lng":121.36467162910398,"lat":31.145575731494812,"确诊日期36":"k"},{"SH_ID_36":"10friul","区36":"c","地址":"鑫都路2535弄","lng":121.3976483680245,"lat":31.052237940931835,"确诊日期36":"k"},{"SH_ID_36":"10frium","区36":"c","地址":"星火村","lng":121.4718472614948,"lat":31.03737343318054,"确诊日期36":"k"},{"SH_ID_36":"10friqh","区36":"c","地址":"行南村","lng":121.42753167878516,"lat":31.115832399812156,"确诊日期36":"k"},{"SH_ID_36":"10friun","区36":"c","地址":"幸乐路500弄","lng":121.27866953019918,"lat":31.206790013571037,"确诊日期36":"k"},{"SH_ID_36":"10friuo","区36":"c","地址":"许浦村","lng":121.33721987939089,"lat":31.224559681514044,"确诊日期36":"k"},{"SH_ID_36":"10friup","区36":"c","地址":"盐铁塘路176弄","lng":121.51136555400866,"lat":31.03553341191846,"确诊日期36":"k"},{"SH_ID_36":"10friuq","区36":"c","地址":"杨家巷村","lng":121.3019916811521,"lat":31.223653309333297,"确诊日期36":"k"},{"SH_ID_36":"10friur","区36":"c","地址":"业祥路111弄","lng":121.43582837116281,"lat":31.123612093226992,"确诊日期36":"k"},{"SH_ID_36":"10frius","区36":"c","地址":"益文路101弄","lng":121.41091663969539,"lat":31.136820777905225,"确诊日期36":"k"},{"SH_ID_36":"10friut","区36":"c","地址":"益文路79弄","lng":121.41217983692908,"lat":31.135813243486783,"确诊日期36":"k"},{"SH_ID_36":"10friuu","区36":"c","地址":"银春路1799弄","lng":121.3936023964425,"lat":31.02476157962056,"确诊日期36":"k"},{"SH_ID_36":"10friuv","区36":"c","地址":"银春路1800弄","lng":121.39461076868447,"lat":31.027766674362745,"确诊日期36":"k"},{"SH_ID_36":"10friuw","区36":"c","地址":"银春路2200弄","lng":121.38680653494481,"lat":31.025771061433208,"确诊日期36":"k"},{"SH_ID_36":"10friux","区36":"c","地址":"银都路2688弄","lng":121.40659426109437,"lat":31.098099449023465,"确诊日期36":"k"},{"SH_ID_36":"10friuy","区36":"c","地址":"银都路3151弄","lng":121.3992891198535,"lat":31.09187464723485,"确诊日期36":"k"},{"SH_ID_36":"10friuz","区36":"c","地址":"银都路3828弄","lng":121.3855816286914,"lat":31.089183172820647,"确诊日期36":"k"},{"SH_ID_36":"10friv0","区36":"c","地址":"银都路666弄","lng":121.43931227631845,"lat":31.10671421967946,"确诊日期36":"k"},{"SH_ID_36":"10friv1","区36":"c","地址":"银康路750弄","lng":121.37447975692277,"lat":31.020480573656524,"确诊日期36":"k"},{"SH_ID_36":"10friv2","区36":"c","地址":"银康路76弄","lng":121.38832826050213,"lat":31.024171397674067,"确诊日期36":"k"},{"SH_ID_36":"10friv3","区36":"c","地址":"银林路1002弄","lng":121.3705704016225,"lat":31.017441121484723,"确诊日期36":"k"},{"SH_ID_36":"10friv4","区36":"c","地址":"银林路100弄","lng":121.38859478917895,"lat":31.020877871644636,"确诊日期36":"k"},{"SH_ID_36":"10friv5","区36":"c","地址":"永德路369弄","lng":121.46017540883024,"lat":31.039370452721318,"确诊日期36":"k"},{"SH_ID_36":"10friv6","区36":"c","地址":"永德路700弄","lng":121.45335504662995,"lat":31.04327314330017,"确诊日期36":"k"},{"SH_ID_36":"10friv7","区36":"c","地址":"永杰路577弄","lng":121.5071905333203,"lat":31.030931526853525,"确诊日期36":"k"},{"SH_ID_36":"10friv8","区36":"c","地址":"永联村","lng":121.44259349858865,"lat":31.105543909667976,"确诊日期36":"k"},{"SH_ID_36":"10friv9","区36":"c","地址":"永跃路781弄","lng":121.50983195506701,"lat":31.034405280183208,"确诊日期36":"k"},{"SH_ID_36":"10friva","区36":"c","地址":"友好村","lng":121.39174473285816,"lat":30.9952977796128,"确诊日期36":"k"},{"SH_ID_36":"10frivb","区36":"c","地址":"俞塘村","lng":121.3816940903848,"lat":31.03307537013955,"确诊日期36":"k"},{"SH_ID_36":"10frivc","区36":"c","地址":"元和路181弄","lng":121.38312027260382,"lat":31.05136691425006,"确诊日期36":"k"},{"SH_ID_36":"10frivd","区36":"c","地址":"元江路4600弄","lng":121.37749032973942,"lat":31.044087354791642,"确诊日期36":"k"},{"SH_ID_36":"10frive","区36":"c","地址":"元江路4805弄","lng":121.37288369450881,"lat":31.039201698088693,"确诊日期36":"k"},{"SH_ID_36":"10frivf","区36":"c","地址":"召楼路1706弄","lng":121.53684211539714,"lat":31.06419855956856,"确诊日期36":"k"},{"SH_ID_36":"10frivg","区36":"c","地址":"召泰路1068号","lng":121.55730657100374,"lat":31.003973258095357,"确诊日期36":"k"},{"SH_ID_36":"10frivh","区36":"c","地址":"知新村","lng":121.51807393568136,"lat":31.10876589059351,"确诊日期36":"k"},{"SH_ID_36":"10frivi","区36":"c","地址":"中春路255号","lng":121.39989340877646,"lat":31.025653743035313,"确诊日期36":"k"},{"SH_ID_36":"10frivj","区36":"c","地址":"中心村","lng":121.40624271591513,"lat":31.035154470411214,"确诊日期36":"k"},{"SH_ID_36":"10frivk","区36":"c","地址":"竹园路2758号","lng":121.52295218885774,"lat":31.069997366174935,"确诊日期36":"k"},{"SH_ID_36":"10frivl","区36":"c","地址":"颛兴路358弄","lng":121.393451090359,"lat":31.066242278879916,"确诊日期36":"k"},{"SH_ID_36":"10frivm","区36":"c","地址":"颛兴路639弄","lng":121.39182277392595,"lat":31.063616504908648,"确诊日期36":"k"},{"SH_ID_36":"10frivn","区36":"c","地址":"紫藤路238号","lng":121.36478315499849,"lat":31.173955262070553,"确诊日期36":"k"},{"SH_ID_36":"10fricc","区36":"f","地址":"板泉路2000弄","lng":121.53141660069966,"lat":31.16575722896108,"确诊日期36":"k"},{"SH_ID_36":"10fribk","区36":"f","地址":"板泉路2030号","lng":121.53017982496377,"lat":31.16612867093243,"确诊日期36":"k"},{"SH_ID_36":"10fribb","区36":"f","地址":"北中路354弄","lng":121.55963649545366,"lat":31.182992995401854,"确诊日期36":"k"},{"SH_ID_36":"10fricl","区36":"f","地址":"大团镇镇南村","lng":121.75211152205439,"lat":30.960706919895884,"确诊日期36":"k"},{"SH_ID_36":"10fricm","区36":"f","地址":"东方路1881弄","lng":121.52161300631101,"lat":31.199201403555993,"确诊日期36":"k"},{"SH_ID_36":"10fricg","区36":"f","地址":"东沟四村","lng":121.57447689177073,"lat":31.290990509245464,"确诊日期36":"k"},{"SH_ID_36":"10fribj","区36":"f","地址":"东海2村","lng":121.90331468442989,"lat":30.954188635235603,"确诊日期36":"k"},{"SH_ID_36":"10fricb","区36":"f","地址":"东林街117弄","lng":121.50192828585145,"lat":31.138212173160895,"确诊日期36":"k"},{"SH_ID_36":"10frib4","区36":"f","地址":"东三里桥124弄","lng":121.6890796058201,"lat":31.19712984387324,"确诊日期36":"k"},{"SH_ID_36":"10fricv","区36":"f","地址":"芳华路933弄","lng":121.56882483032821,"lat":31.19770213526753,"确诊日期36":"k"},{"SH_ID_36":"10frico","区36":"f","地址":"海阳路1065号","lng":121.50596186979779,"lat":31.15870269193309,"确诊日期36":"k"},{"SH_ID_36":"10friby","区36":"f","地址":"韩荡村梦将堂南宅","lng":121.60784085809577,"lat":31.15757553289178,"确诊日期36":"k"},{"SH_ID_36":"10fricp","区36":"f","地址":"航城三路518弄","lng":121.75096151337809,"lat":31.15150620982173,"确诊日期36":"k"},{"SH_ID_36":"10fric0","区36":"f","地址":"鹤驰路88弄","lng":121.59459987151374,"lat":31.080552682220265,"确诊日期36":"k"},{"SH_ID_36":"10fribt","区36":"f","地址":"洪山路1097号","lng":121.50421523535856,"lat":31.158360878510766,"确诊日期36":"k"},{"SH_ID_36":"10fricr","区36":"f","地址":"沪南路2000号","lng":121.56093175387578,"lat":31.164728322731776,"确诊日期36":"k"},{"SH_ID_36":"10fric5","区36":"f","地址":"华安路24弄","lng":121.51612992919276,"lat":31.21175452230893,"确诊日期36":"k"},{"SH_ID_36":"10frid3","区36":"f","地址":"华夏东路2026弄","lng":121.69043057010732,"lat":31.19879579768051,"确诊日期36":"k"},{"SH_ID_36":"10frid1","区36":"f","地址":"华州路张家宅","lng":121.73797508165698,"lat":31.197174008115013,"确诊日期36":"k"},{"SH_ID_36":"10fricx","区36":"f","地址":"黄路村","lng":121.76427834237866,"lat":31.030332673876647,"确诊日期36":"k"},{"SH_ID_36":"10fribr","区36":"f","地址":"藿香路238弄","lng":121.59226306387825,"lat":31.19818580384997,"确诊日期36":"k"},{"SH_ID_36":"10frida","区36":"f","地址":"佳林路898弄","lng":121.61170382959439,"lat":31.264304462172003,"确诊日期36":"k"},{"SH_ID_36":"10fribi","区36":"f","地址":"建港村","lng":121.84079330563293,"lat":31.030421582953387,"确诊日期36":"k"},{"SH_ID_36":"10fric2","区36":"f","地址":"金桥路301弄","lng":121.5728533267817,"lat":31.266271623236683,"确诊日期36":"k"},{"SH_ID_36":"10fricu","区36":"f","地址":"锦绣路1650弄","lng":121.53956273431092,"lat":31.211140108853794,"确诊日期36":"k"},{"SH_ID_36":"10fribg","区36":"f","地址":"锦绣路3338弄","lng":121.5401164841765,"lat":31.17581296974829,"确诊日期36":"k"},{"SH_ID_36":"10fribc","区36":"f","地址":"康花路599号","lng":121.54915062234612,"lat":31.14736197839222,"确诊日期36":"k"},{"SH_ID_36":"10fricw","区36":"f","地址":"崂山新村","lng":121.5198641746265,"lat":31.238027241506447,"确诊日期36":"k"},{"SH_ID_36":"10fridn","区36":"f","地址":"利津路215弄","lng":121.58267196276616,"lat":31.278623782212996,"确诊日期36":"k"},{"SH_ID_36":"10fric6","区36":"f","地址":"利津路385弄","lng":121.58622938879698,"lat":31.277431916084286,"确诊日期36":"k"},{"SH_ID_36":"10fribh","区36":"f","地址":"莲安西路125弄","lng":121.553829637789,"lat":31.179153552059944,"确诊日期36":"k"},{"SH_ID_36":"10friaz","区36":"f","地址":"林浦路417号","lng":121.47779378876504,"lat":31.11943878082647,"确诊日期36":"k"},{"SH_ID_36":"10fricz","区36":"f","地址":"临江村筠西队庞家宅","lng":121.47569256885622,"lat":31.11603031685422,"确诊日期36":"k"},{"SH_ID_36":"10fribd","区36":"f","地址":"灵岩南路1333号","lng":121.50193658746845,"lat":31.138464829210648,"确诊日期36":"k"},{"SH_ID_36":"10friau","区36":"f","地址":"灵岩南路410弄","lng":121.49651318954055,"lat":31.15367845997363,"确诊日期36":"k"},{"SH_ID_36":"10fridl","区36":"f","地址":"凌河路618弄","lng":121.60276111302069,"lat":31.271775709408924,"确诊日期36":"k"},{"SH_ID_36":"10fricn","区36":"f","地址":"凌兆路127弄","lng":121.49267474671299,"lat":31.14238747110335,"确诊日期36":"k"},{"SH_ID_36":"10friaw","区36":"f","地址":"罗山路108弄","lng":121.5522599322277,"lat":31.2483007186457,"确诊日期36":"k"},{"SH_ID_36":"10frid4","区36":"f","地址":"罗山路1700弄","lng":121.56813952195064,"lat":31.22553210165155,"确诊日期36":"k"},{"SH_ID_36":"10fridh","区36":"f","地址":"罗山路5111号","lng":121.59030068722643,"lat":31.163170095633298,"确诊日期36":"k"},{"SH_ID_36":"10friax","区36":"f","地址":"罗山七村","lng":121.56442236703458,"lat":31.252372056352893,"确诊日期36":"k"},{"SH_ID_36":"10friay","区36":"f","地址":"罗山四村","lng":121.55704660576222,"lat":31.25150394633624,"确诊日期36":"k"},{"SH_ID_36":"10fridf","区36":"f","地址":"民耀路391弄","lng":121.65509875243664,"lat":31.27115033329767,"确诊日期36":"k"},{"SH_ID_36":"10frick","区36":"f","地址":"明通国际公寓","lng":121.5445130048406,"lat":31.221318650730066,"确诊日期36":"k"},{"SH_ID_36":"10fribf","区36":"f","地址":"牡丹路259弄","lng":121.54989818333576,"lat":31.20848469041335,"确诊日期36":"k"},{"SH_ID_36":"10frid5","区36":"f","地址":"南阜村高树队油车头","lng":121.51943526351508,"lat":31.133979368226882,"确诊日期36":"k"},{"SH_ID_36":"10fricf","区36":"f","地址":"南林路48号","lng":121.52315878045762,"lat":31.138339810116854,"确诊日期36":"k"},{"SH_ID_36":"10fridj","区36":"f","地址":"南泉北路1040弄","lng":121.52032936709483,"lat":31.225935686796532,"确诊日期36":"k"},{"SH_ID_36":"10fridk","区36":"f","地址":"南泉路1350弄","lng":121.52101102086262,"lat":31.20928794731294,"确诊日期36":"k"},{"SH_ID_36":"10fribs","区36":"f","地址":"南新村石家宅","lng":121.7886170243236,"lat":30.871689344644405,"确诊日期36":"k"},{"SH_ID_36":"10friaq","区36":"f","地址":"南祝路258弄","lng":121.75584148830444,"lat":31.1175860271084,"确诊日期36":"k"},{"SH_ID_36":"10fribe","区36":"f","地址":"鹏飞路101弄","lng":121.55561424177233,"lat":31.175800539726517,"确诊日期36":"k"},{"SH_ID_36":"10fribx","区36":"f","地址":"浦东大道1695弄","lng":121.54397848784893,"lat":31.246410867574653,"确诊日期36":"k"},{"SH_ID_36":"10frib0","区36":"f","地址":"浦东大道2188号","lng":121.55074722682932,"lat":31.24939600169487,"确诊日期36":"k"},{"SH_ID_36":"10frib2","区36":"f","地址":"浦三路628弄","lng":121.5161572994978,"lat":31.18864389716285,"确诊日期36":"k"},{"SH_ID_36":"10frice","区36":"f","地址":"浦三路649号","lng":121.51677055137576,"lat":31.188245245671716,"确诊日期36":"k"},{"SH_ID_36":"10frib1","区36":"f","地址":"浦三路817弄","lng":121.52042470122863,"lat":31.185947938513095,"确诊日期36":"k"},{"SH_ID_36":"10frid2","区36":"f","地址":"普庆路301弄","lng":121.72379078033204,"lat":31.156473666246985,"确诊日期36":"k"},{"SH_ID_36":"10frid9","区36":"f","地址":"前进村西李家宅","lng":121.63960377527852,"lat":31.202506202286326,"确诊日期36":"k"},{"SH_ID_36":"10fridm","区36":"f","地址":"瑞和路269弄","lng":121.58855081273428,"lat":31.087188664756095,"确诊日期36":"k"},{"SH_ID_36":"10fric8","区36":"f","地址":"三林路519弄","lng":121.50153101954132,"lat":31.140906341718267,"确诊日期36":"k"},{"SH_ID_36":"10frid7","区36":"f","地址":"上南路6555弄","lng":121.5519201188052,"lat":31.120262661876293,"确诊日期36":"k"},{"SH_ID_36":"10frid6","区36":"f","地址":"坦直村","lng":121.64732877826812,"lat":31.07286028085186,"确诊日期36":"k"},{"SH_ID_36":"10fricj","区36":"f","地址":"天花庵村","lng":121.5341861870261,"lat":31.122597931040843,"确诊日期36":"k"},{"SH_ID_36":"10fribm","区36":"f","地址":"亭园新村","lng":121.89995817064052,"lat":30.951517678794215,"确诊日期36":"k"},{"SH_ID_36":"10friar","区36":"f","地址":"瓦南村","lng":121.65290750659209,"lat":31.098502557804327,"确诊日期36":"k"},{"SH_ID_36":"10frid8","区36":"f","地址":"潍坊六村","lng":121.52233407293802,"lat":31.222019340040852,"确诊日期36":"k"},{"SH_ID_36":"10fric7","区36":"f","地址":"潍坊十村","lng":121.52507256971163,"lat":31.22523430733715,"确诊日期36":"k"},{"SH_ID_36":"10fridi","区36":"f","地址":"潍坊五村","lng":121.52315421835176,"lat":31.220212808613894,"确诊日期36":"k"},{"SH_ID_36":"10fribn","区36":"f","地址":"五星村吴家队吴家宅","lng":121.63145368370616,"lat":31.180074985807043,"确诊日期36":"k"},{"SH_ID_36":"10fribu","区36":"f","地址":"西泰林路158弄","lng":121.53165731248819,"lat":31.152509623899356,"确诊日期36":"k"},{"SH_ID_36":"10frias","区36":"f","地址":"下南路309弄","lng":121.54322201610799,"lat":31.169117608323106,"确诊日期36":"k"},{"SH_ID_36":"10frici","区36":"f","地址":"下南路500号","lng":121.53993407427426,"lat":31.171937219486466,"确诊日期36":"k"},{"SH_ID_36":"10fribl","区36":"f","地址":"夏栎路336弄","lng":121.91622642879115,"lat":30.91547839108253,"确诊日期36":"k"},{"SH_ID_36":"10frib8","区36":"f","地址":"祥凯路2013弄","lng":121.8077489696753,"lat":30.955235730757952,"确诊日期36":"k"},{"SH_ID_36":"10fricy","区36":"f","地址":"新安村","lng":121.6813908339574,"lat":31.02335235269622,"确诊日期36":"k"},{"SH_ID_36":"10fribz","区36":"f","地址":"新德西路511弄","lng":121.67125696878543,"lat":31.192313987135112,"确诊日期36":"k"},{"SH_ID_36":"10fric4","区36":"f","地址":"新浦路673弄","lng":121.53043939077978,"lat":31.16991881832438,"确诊日期36":"k"},{"SH_ID_36":"10fride","区36":"f","地址":"星光村","lng":121.74105725425994,"lat":31.11323936781456,"确诊日期36":"k"},{"SH_ID_36":"10friav","区36":"f","地址":"行泰路150弄","lng":121.60707743220509,"lat":31.289791086693448,"确诊日期36":"k"},{"SH_ID_36":"10fridg","区36":"f","地址":"秀浦路800弄","lng":121.56982237673952,"lat":31.12569279997011,"确诊日期36":"k"},{"SH_ID_36":"10fricd","区36":"f","地址":"秀沿路2501弄","lng":121.6013026326029,"lat":31.138468359330336,"确诊日期36":"k"},{"SH_ID_36":"10frict","区36":"f","地址":"宣春路201号","lng":121.72609387043578,"lat":31.086041792986503,"确诊日期36":"k"},{"SH_ID_36":"10frich","区36":"f","地址":"沿南村","lng":121.59850401259969,"lat":31.132695884463295,"确诊日期36":"k"},{"SH_ID_36":"10fric3","区36":"f","地址":"阳光二村","lng":121.55149972801527,"lat":31.245766516365872,"确诊日期36":"k"},{"SH_ID_36":"10fridb","区36":"f","地址":"洋泾镇路95号","lng":121.55074274085894,"lat":31.24183474697316,"确诊日期36":"k"},{"SH_ID_36":"10fridd","区36":"f","地址":"艺泰安邦","lng":117.08680689771754,"lat":36.201664092662064,"确诊日期36":"k"},{"SH_ID_36":"10fribq","区36":"f","地址":"益丰路55弄","lng":121.62284437277152,"lat":31.20084363051542,"确诊日期36":"k"},{"SH_ID_36":"10frib6","区36":"f","地址":"懿德村吴家队","lng":121.5159269573183,"lat":31.11872802550182,"确诊日期36":"k"},{"SH_ID_36":"10frid0","区36":"f","地址":"永春东路46号","lng":121.74227056338297,"lat":30.972094492161666,"确诊日期36":"k"},{"SH_ID_36":"10fribp","区36":"f","地址":"永泰路258弄","lng":121.50884609642021,"lat":31.135875559050007,"确诊日期36":"k"},{"SH_ID_36":"10fric9","区36":"f","地址":"友谊村","lng":121.77593541385777,"lat":31.030795573946982,"确诊日期36":"k"},{"SH_ID_36":"10friba","区36":"f","地址":"御北路235号","lng":121.55919806749493,"lat":31.15799934338672,"确诊日期36":"k"},{"SH_ID_36":"10fribv","区36":"f","地址":"御桥村姚家宅","lng":121.57625321916517,"lat":31.1844591716321,"确诊日期36":"k"},{"SH_ID_36":"10fricq","区36":"f","地址":"御桥路347弄","lng":121.56737588153665,"lat":31.15789730606743,"确诊日期36":"k"},{"SH_ID_36":"10frib9","区36":"f","地址":"御青路1051弄","lng":121.57458381735378,"lat":31.151626593967222,"确诊日期36":"k"},{"SH_ID_36":"10fribw","区36":"f","地址":"御青路328弄","lng":121.5718702320944,"lat":31.155711278258856,"确诊日期36":"k"},{"SH_ID_36":"10frib3","区36":"f","地址":"御青路918弄","lng":121.57157215221697,"lat":31.15282783319297,"确诊日期36":"k"},{"SH_ID_36":"10frib7","区36":"f","地址":"御水路555弄","lng":121.57752279069292,"lat":31.154425839284805,"确诊日期36":"k"},{"SH_ID_36":"10fric1","区36":"f","地址":"跃进路48弄","lng":121.7543873534618,"lat":31.046586968673648,"确诊日期36":"k"},{"SH_ID_36":"10frica","区36":"f","地址":"运通路728弄","lng":121.70230755585628,"lat":31.202991096054618,"确诊日期36":"k"},{"SH_ID_36":"10friat","区36":"f","地址":"枣庄路998弄","lng":121.58154790327393,"lat":31.247322451758134,"确诊日期36":"k"},{"SH_ID_36":"10frib5","区36":"f","地址":"张江镇中心村","lng":121.64341007947031,"lat":31.174568041666888,"确诊日期36":"k"},{"SH_ID_36":"10fribo","区36":"f","地址":"中界村孔家圈","lng":121.57396160099651,"lat":31.18359105811722,"确诊日期36":"k"},{"SH_ID_36":"10frics","区36":"f","地址":"中界村周家宅","lng":121.56785474081707,"lat":31.18932338707477,"确诊日期36":"k"},{"SH_ID_36":"10friap","区36":"f","地址":"周南村","lng":121.58401487109901,"lat":31.10904056895166,"确诊日期36":"k"},{"SH_ID_36":"10fridc","区36":"f","地址":"祝新村","lng":121.5445150115756,"lat":31.221536789818376,"确诊日期36":"k"},{"SH_ID_36":"10fril6","区36":"7","地址":"白玉路669弄","lng":121.42106393267788,"lat":31.228232611411368,"确诊日期36":"k"},{"SH_ID_36":"10friku","区36":"7","地址":"曹杨七村","lng":121.40926543969297,"lat":31.243419123661322,"确诊日期36":"k"},{"SH_ID_36":"10frikp","区36":"7","地址":"昌化路994弄","lng":121.44540588812998,"lat":31.245759302958405,"确诊日期36":"k"},{"SH_ID_36":"10frikq","区36":"7","地址":"大渡河路1262弄","lng":121.39479347025113,"lat":31.237524993468092,"确诊日期36":"k"},{"SH_ID_36":"10frik5","区36":"7","地址":"大渡河路1550弄52支弄","lng":121.39472533889837,"lat":31.246049445442207,"确诊日期36":"k"},{"SH_ID_36":"10frik7","区36":"7","地址":"定边路377弄","lng":121.36327301342816,"lat":31.260705337535246,"确诊日期36":"k"},{"SH_ID_36":"10frikx","区36":"7","地址":"东新路137弄","lng":121.4261978793056,"lat":31.24074550505015,"确诊日期36":"k"},{"SH_ID_36":"10friks","区36":"7","地址":"甘泉三村","lng":121.42659964861018,"lat":31.26068304136924,"确诊日期36":"k"},{"SH_ID_36":"10frikm","区36":"7","地址":"古浪路378号","lng":121.38634038273298,"lat":31.283594193156283,"确诊日期36":"k"},{"SH_ID_36":"10frikc","区36":"7","地址":"金迈路358弄","lng":121.32850236745637,"lat":31.288358707583626,"确诊日期36":"k"},{"SH_ID_36":"10frik6","区36":"7","地址":"靖边路199弄","lng":121.3672356305612,"lat":31.26085430173018,"确诊日期36":"k"},{"SH_ID_36":"10frikd","区36":"7","地址":"靖边路299弄","lng":121.36746621619285,"lat":31.26256252253131,"确诊日期36":"k"},{"SH_ID_36":"10frikr","区36":"7","地址":"岚皋西路45弄","lng":121.42455230475511,"lat":31.248260442033217,"确诊日期36":"k"},{"SH_ID_36":"10fril1","区36":"7","地址":"梅川路1275号","lng":121.38234020413469,"lat":31.242744237364594,"确诊日期36":"k"},{"SH_ID_36":"10frik3","区36":"7","地址":"梅川路1333弄","lng":121.3762517274765,"lat":31.2424970768829,"确诊日期36":"k"},{"SH_ID_36":"10fril5","区36":"7","地址":"梅岭北路1251弄","lng":121.39109386088218,"lat":31.2420079835427,"确诊日期36":"k"},{"SH_ID_36":"10frik8","区36":"7","地址":"祁连山南路2727弄","lng":121.37035771892434,"lat":31.261893954142504,"确诊日期36":"k"},{"SH_ID_36":"10frik9","区36":"7","地址":"祁连山南路999弄","lng":121.36638452937672,"lat":31.243377828530207,"确诊日期36":"k"},{"SH_ID_36":"10frikk","区36":"7","地址":"清峪路81弄","lng":121.37368053635336,"lat":31.235096843737054,"确诊日期36":"k"},{"SH_ID_36":"10frikg","区36":"7","地址":"三源路41弄","lng":121.40741634180574,"lat":31.260879179713783,"确诊日期36":"k"},{"SH_ID_36":"10frikh","区36":"7","地址":"三源路66弄","lng":121.40622551187421,"lat":31.261195250084945,"确诊日期36":"k"},{"SH_ID_36":"10fril0","区36":"7","地址":"石泉路135弄","lng":121.42588125639918,"lat":31.250049596212396,"确诊日期36":"k"},{"SH_ID_36":"10friki","区36":"7","地址":"桃浦路1925弄","lng":121.36293524837916,"lat":31.2638659023679,"确诊日期36":"k"},{"SH_ID_36":"10fril3","区36":"7","地址":"桃浦路321弄","lng":121.39405594391204,"lat":31.258698053992415,"确诊日期36":"k"},{"SH_ID_36":"10fril2","区36":"7","地址":"桃浦路873弄","lng":121.38586086561047,"lat":31.25907588044485,"确诊日期36":"k"},{"SH_ID_36":"10frik4","区36":"7","地址":"桃浦七村","lng":121.35139026820984,"lat":31.28661280867396,"确诊日期36":"k"},{"SH_ID_36":"10frika","区36":"7","地址":"铜川路1653号","lng":121.38888498126313,"lat":31.251891044691472,"确诊日期36":"k"},{"SH_ID_36":"10friky","区36":"7","地址":"铜川路309号","lng":121.41650503816741,"lat":31.252847734420225,"确诊日期36":"k"},{"SH_ID_36":"10fril4","区36":"7","地址":"万镇路600号","lng":121.37613167435633,"lat":31.245985437508903,"确诊日期36":"k"},{"SH_ID_36":"10frikn","区36":"7","地址":"西乡路91弄","lng":121.42559574187815,"lat":31.269097505803522,"确诊日期36":"k"},{"SH_ID_36":"10friko","区36":"7","地址":"新村路389号","lng":121.43137184846199,"lat":31.266767917377233,"确诊日期36":"k"},{"SH_ID_36":"10frike","区36":"7","地址":"雪松路392弄","lng":121.3564004806055,"lat":31.286780988808484,"确诊日期36":"k"},{"SH_ID_36":"10frikt","区36":"7","地址":"宜昌路715弄","lng":121.43156931844963,"lat":31.242434772432112,"确诊日期36":"k"},{"SH_ID_36":"10frikj","区36":"7","地址":"长寿路295弄","lng":121.43949200634178,"lat":31.2400702777959,"确诊日期36":"k"},{"SH_ID_36":"10frikl","区36":"7","地址":"真光路798弄","lng":121.37655336178103,"lat":31.236355666719415,"确诊日期36":"k"},{"SH_ID_36":"10frikv","区36":"7","地址":"真南路1051弄","lng":121.37845108165578,"lat":31.26974267366969,"确诊日期36":"k"},{"SH_ID_36":"10frikw","区36":"7","地址":"真南路215号","lng":122.3239725876167,"lat":29.971762889330723,"确诊日期36":"k"},{"SH_ID_36":"10frikb","区36":"7","地址":"真南路822弄","lng":121.38538690237827,"lat":31.27732196979969,"确诊日期36":"k"},{"SH_ID_36":"10frikf","区36":"7","地址":"志丹路500弄","lng":121.43125374136802,"lat":31.27126470077814,"确诊日期36":"k"},{"SH_ID_36":"10frikz","区36":"7","地址":"中山北路2584弄","lng":121.42241667680834,"lat":31.24277228748267,"确诊日期36":"k"},{"SH_ID_36":"10frj0f","区36":"i","地址":"高光路666号","lng":121.30522234181223,"lat":31.158164674506594,"确诊日期36":"k"},{"SH_ID_36":"10frj0e","区36":"i","地址":"光联村","lng":121.31544954058415,"lat":31.165275723169753,"确诊日期36":"k"},{"SH_ID_36":"10frj0h","区36":"i","地址":"火星村","lng":121.25067449115029,"lat":31.216733454916884,"确诊日期36":"k"},{"SH_ID_36":"10frj0b","区36":"i","地址":"久远路1660弄","lng":121.11016486043731,"lat":31.21049738348849,"确诊日期36":"k"},{"SH_ID_36":"10frj0c","区36":"i","地址":"青龙村","lng":121.1769076805,"lat":31.239797100381146,"确诊日期36":"k"},{"SH_ID_36":"10frj0k","区36":"i","地址":"崧子浦路55弄","lng":121.08529237630216,"lat":31.143249834599782,"确诊日期36":"k"},{"SH_ID_36":"10frj0j","区36":"i","地址":"嵩山村","lng":121.2511104760424,"lat":31.20187895299969,"确诊日期36":"k"},{"SH_ID_36":"10frj0d","区36":"i","地址":"新丰村","lng":121.1754305070628,"lat":31.22748750605132,"确诊日期36":"k"},{"SH_ID_36":"10frj0g","区36":"i","地址":"徐南路288弄","lng":121.31014561374539,"lat":31.16029242335611,"确诊日期36":"k"},{"SH_ID_36":"10frj0i","区36":"i","地址":"盈港东路3188弄","lng":121.24225166741213,"lat":31.170031032372535,"确诊日期36":"k"},{"SH_ID_36":"10frj0a","区36":"i","地址":"章堰村","lng":121.15995397476351,"lat":31.218114906167017,"确诊日期36":"k"},{"SH_ID_36":"10friyz","区36":"h","地址":"场南路1弄","lng":121.3599669554499,"lat":31.089227709946716,"确诊日期36":"k"},{"SH_ID_36":"10friz0","区36":"h","地址":"车峰路199弄","lng":121.32076780005417,"lat":31.010375343099952,"确诊日期36":"k"},{"SH_ID_36":"10friz1","区36":"h","地址":"车亭公路1098号","lng":121.31427627422377,"lat":30.95579053895031,"确诊日期36":"k"},{"SH_ID_36":"10friz2","区36":"h","地址":"车亭公路1258号","lng":121.31826222782962,"lat":30.95759194215701,"确诊日期36":"k"},{"SH_ID_36":"10friz3","区36":"h","地址":"辰塔路455弄","lng":121.18548114251098,"lat":31.01037035811923,"确诊日期36":"k"},{"SH_ID_36":"10friz4","区36":"h","地址":"陈春公路799弄","lng":121.33753491606598,"lat":31.073199364692577,"确诊日期36":"k"},{"SH_ID_36":"10friz5","区36":"h","地址":"陈春公路881弄","lng":121.33037977617522,"lat":31.07052263450517,"确诊日期36":"k"},{"SH_ID_36":"10friz6","区36":"h","地址":"陈春路677弄","lng":121.34708063490093,"lat":31.07661076720786,"确诊日期36":"k"},{"SH_ID_36":"10friz7","区36":"h","地址":"陈坊村","lng":121.18373357061502,"lat":31.10538423560292,"确诊日期36":"k"},{"SH_ID_36":"10friz8","区36":"h","地址":"城隆路1258弄","lng":121.23546465143268,"lat":31.09705310129495,"确诊日期36":"k"},{"SH_ID_36":"10friz9","区36":"h","地址":"大桥村","lng":121.22780198365253,"lat":31.03223754631776,"确诊日期36":"k"},{"SH_ID_36":"10friza","区36":"h","地址":"古楼公路1198弄","lng":121.25044286855685,"lat":31.10587094411013,"确诊日期36":"k"},{"SH_ID_36":"10frizb","区36":"h","地址":"沪亭北路1001弄","lng":121.3140409690771,"lat":31.153038212021226,"确诊日期36":"k"},{"SH_ID_36":"10frizc","区36":"h","地址":"沪亭北路900弄","lng":121.3131112077398,"lat":31.153187445398032,"确诊日期36":"k"},{"SH_ID_36":"10frizd","区36":"h","地址":"沪亭路240弄","lng":121.32565115725808,"lat":31.13334638587604,"确诊日期36":"k"},{"SH_ID_36":"10frize","区36":"h","地址":"沪亭南路1059号","lng":121.33789416794875,"lat":31.114250810609303,"确诊日期36":"k"},{"SH_ID_36":"10frizf","区36":"h","地址":"沪亭南路290弄","lng":121.32985711891703,"lat":31.119763388564387,"确诊日期36":"k"},{"SH_ID_36":"10frizg","区36":"h","地址":"沪亭南路501弄","lng":121.3338759973925,"lat":31.119322704941393,"确诊日期36":"k"},{"SH_ID_36":"10frizh","区36":"h","地址":"汇桥村","lng":121.33395596392147,"lat":31.00984204905746,"确诊日期36":"k"},{"SH_ID_36":"10frizi","区36":"h","地址":"金都西路55弄","lng":121.36161939735139,"lat":31.06959143650124,"确诊日期36":"k"},{"SH_ID_36":"10frizj","区36":"h","地址":"九杜路350弄","lng":121.31152759516395,"lat":31.14209452508512,"确诊日期36":"k"},{"SH_ID_36":"10frizk","区36":"h","地址":"九亭大街1106号","lng":121.31411739380628,"lat":31.12678193067799,"确诊日期36":"k"},{"SH_ID_36":"10frizl","区36":"h","地址":"九新公路2388号","lng":121.31364959008496,"lat":31.070425017794907,"确诊日期36":"k"},{"SH_ID_36":"10frizm","区36":"h","地址":"涞坊路1399弄","lng":121.2945208236384,"lat":31.143392886037233,"确诊日期36":"k"},{"SH_ID_36":"10frizn","区36":"h","地址":"涞坊路288弄","lng":121.31606526127199,"lat":31.15538534906527,"确诊日期36":"k"},{"SH_ID_36":"10frizo","区36":"h","地址":"涞坊路333弄","lng":121.3178526147186,"lat":31.15199625572002,"确诊日期36":"k"},{"SH_ID_36":"10frizp","区36":"h","地址":"涞坊路45号","lng":121.32379407946519,"lat":31.156136293867547,"确诊日期36":"k"},{"SH_ID_36":"10frizq","区36":"h","地址":"涞泾路328弄","lng":121.33662668109515,"lat":31.11376926763621,"确诊日期36":"k"},{"SH_ID_36":"10frizr","区36":"h","地址":"涞亭北路600弄","lng":121.32684655926471,"lat":31.156037579915118,"确诊日期36":"k"},{"SH_ID_36":"10frizs","区36":"h","地址":"涞亭北路99弄","lng":121.32846683740871,"lat":31.149052067939852,"确诊日期36":"k"},{"SH_ID_36":"10frizt","区36":"h","地址":"涞亭南路599弄","lng":121.34221722251749,"lat":31.127517490752517,"确诊日期36":"k"},{"SH_ID_36":"10frizu","区36":"h","地址":"涞寅路106弄","lng":121.32447206342859,"lat":31.150222494008247,"确诊日期36":"k"},{"SH_ID_36":"10frizv","区36":"h","地址":"涞寅路658弄","lng":121.31347464461305,"lat":31.14572512935993,"确诊日期36":"k"},{"SH_ID_36":"10frizw","区36":"h","地址":"乐都西路1455弄","lng":121.19352236475284,"lat":31.011639684179407,"确诊日期36":"k"},{"SH_ID_36":"10frizx","区36":"h","地址":"龙金路180弄","lng":121.31209361282212,"lat":31.125305934306333,"确诊日期36":"k"},{"SH_ID_36":"10frizy","区36":"h","地址":"米易路45弄","lng":121.22787005715782,"lat":31.032121806546847,"确诊日期36":"k"},{"SH_ID_36":"10frizz","区36":"h","地址":"明兴路595弄","lng":121.3402875324019,"lat":31.083638204232074,"确诊日期36":"k"},{"SH_ID_36":"10frj00","区36":"h","地址":"明中路699弄","lng":121.34662310332992,"lat":31.079299024847707,"确诊日期36":"k"},{"SH_ID_36":"10frj01","区36":"h","地址":"南乐路168号","lng":121.29049222714936,"lat":31.024628146432086,"确诊日期36":"k"},{"SH_ID_36":"10frj02","区36":"h","地址":"荣乐中路30弄","lng":121.23835344041966,"lat":31.01847203406421,"确诊日期36":"k"},{"SH_ID_36":"10frj03","区36":"h","地址":"团结村","lng":121.31429892151549,"lat":30.95420000903663,"确诊日期36":"k"},{"SH_ID_36":"10frj04","区36":"h","地址":"外青松公路8211号","lng":121.17981974188201,"lat":31.105617903560326,"确诊日期36":"k"},{"SH_ID_36":"10frj05","区36":"h","地址":"新松路600号","lng":121.12582398493673,"lat":30.99452215752765,"确诊日期36":"k"},{"SH_ID_36":"10frj06","区36":"h","地址":"徐塘路500号","lng":121.27394083596646,"lat":31.046987016060008,"确诊日期36":"k"},{"SH_ID_36":"10frj07","区36":"h","地址":"影佳路333号","lng":121.31057521976886,"lat":31.007217229566454,"确诊日期36":"k"},{"SH_ID_36":"10frj08","区36":"h","地址":"长兴东路1290号","lng":121.28882270645954,"lat":31.082620728890973,"确诊日期36":"k"},{"SH_ID_36":"10frj09","区36":"h","地址":"庄家村","lng":121.11149331120649,"lat":31.05819143522003,"确诊日期36":"k"},{"SH_ID_36":"10friha","区36":"4","地址":"百色路208号","lng":121.44652867130314,"lat":31.143233102660847,"确诊日期36":"k"},{"SH_ID_36":"10frihx","区36":"4","地址":"漕宝路250号","lng":121.41455778359959,"lat":31.164526595903485,"确诊日期36":"k"},{"SH_ID_36":"10frijg","区36":"4","地址":"东兰路51弄","lng":121.40166009031928,"lat":31.15734828012406,"确诊日期36":"k"},{"SH_ID_36":"10frij3","区36":"4","地址":"东泉路12号","lng":121.44463414079634,"lat":31.156530900995932,"确诊日期36":"k"},{"SH_ID_36":"10frii4","区36":"4","地址":"东泉路50弄","lng":121.44510284385574,"lat":31.155858319694218,"确诊日期36":"k"},{"SH_ID_36":"10frih5","区36":"4","地址":"丰谷路205弄","lng":121.45580397059956,"lat":31.16940786936193,"确诊日期36":"k"},{"SH_ID_36":"10frih3","区36":"4","地址":"丰谷路285弄","lng":121.45630072272905,"lat":31.169211992017523,"确诊日期36":"k"},{"SH_ID_36":"10frij6","区36":"4","地址":"复兴西路40号","lng":121.44528167073985,"lat":31.21093029543987,"确诊日期36":"k"},{"SH_ID_36":"10friiv","区36":"4","地址":"桂林东街101弄","lng":121.42585750078187,"lat":31.155826214288883,"确诊日期36":"k"},{"SH_ID_36":"10frigx","区36":"4","地址":"桂林路303弄","lng":121.41840707399399,"lat":31.168509157249353,"确诊日期36":"k"},{"SH_ID_36":"10frij2","区36":"4","地址":"桂林路567弄","lng":121.41652147686439,"lat":31.17885614030814,"确诊日期36":"k"},{"SH_ID_36":"10frii8","区36":"4","地址":"桂林路70弄","lng":121.42072441758832,"lat":31.15977807014504,"确诊日期36":"k"},{"SH_ID_36":"10friib","区36":"4","地址":"桂林西街151弄","lng":121.4210761012506,"lat":31.151956010587803,"确诊日期36":"k"},{"SH_ID_36":"10frihr","区36":"4","地址":"桂林西街9弄","lng":121.41977326187389,"lat":31.156620293992432,"确诊日期36":"k"},{"SH_ID_36":"10friie","区36":"4","地址":"桂平路258弄","lng":121.40877201705155,"lat":31.15717144331551,"确诊日期36":"k"},{"SH_ID_36":"10frj24","区36":"4","地址":"桂平路258弄","lng":121.40893296204793,"lat":31.15708429613632,"确诊日期36":"k"},{"SH_ID_36":"10frj25","区36":"4","地址":"桂平路258弄","lng":121.40862662066569,"lat":31.15710560019498,"确诊日期36":"k"},{"SH_ID_36":"10frj26","区36":"4","地址":"桂平路258弄","lng":121.40856943665736,"lat":31.15743347765807,"确诊日期36":"k"},{"SH_ID_36":"10friii","区36":"4","地址":"桂平路260弄","lng":121.40790888006856,"lat":31.159505338017375,"确诊日期36":"k"},{"SH_ID_36":"10friic","区36":"4","地址":"桂平路67号","lng":121.41114872910697,"lat":31.148182437138345,"确诊日期36":"k"},{"SH_ID_36":"10frigz","区36":"4","地址":"虹漕南路300弄","lng":121.4129536701879,"lat":31.15745067968735,"确诊日期36":"k"},{"SH_ID_36":"10frihg","区36":"4","地址":"华发路333弄","lng":121.4500770750333,"lat":31.126833826924113,"确诊日期36":"k"},{"SH_ID_36":"10frihe","区36":"4","地址":"华发路99弄","lng":121.45376597163617,"lat":31.125502307181495,"确诊日期36":"k"},{"SH_ID_36":"10frije","区36":"4","地址":"华泾路1000弄","lng":121.4470123060409,"lat":31.119077938645415,"确诊日期36":"k"},{"SH_ID_36":"10frij5","区36":"4","地址":"华泾四村","lng":121.44778675747038,"lat":31.12019939638142,"确诊日期36":"k"},{"SH_ID_36":"10friiq","区36":"4","地址":"华展路55弄","lng":121.45458827525012,"lat":31.111878749273846,"确诊日期36":"k"},{"SH_ID_36":"10frihz","区36":"4","地址":"黄石路169弄","lng":121.45681328217444,"lat":31.157486289064398,"确诊日期36":"k"},{"SH_ID_36":"10frigy","区36":"4","地址":"汇成二村","lng":121.43517267722238,"lat":31.145765742114794,"确诊日期36":"k"},{"SH_ID_36":"10frih9","区36":"4","地址":"汇成三村","lng":121.43388828725317,"lat":31.144196438275564,"确诊日期36":"k"},{"SH_ID_36":"10frijc","区36":"4","地址":"汇成一村","lng":121.43198266494115,"lat":31.14699714886713,"确诊日期36":"k"},{"SH_ID_36":"10frih6","区36":"4","地址":"机场新村","lng":121.45041467208462,"lat":31.166688126853945,"确诊日期36":"k"},{"SH_ID_36":"10frihy","区36":"4","地址":"江安路55弄","lng":121.41505359411376,"lat":31.14908297791577,"确诊日期36":"k"},{"SH_ID_36":"10friin","区36":"4","地址":"江南新村","lng":121.46298878919833,"lat":31.19233740158893,"确诊日期36":"k"},{"SH_ID_36":"10friht","区36":"4","地址":"康健路100弄","lng":121.42695585373238,"lat":31.165314457281404,"确诊日期36":"k"},{"SH_ID_36":"10friis","区36":"4","地址":"康健路105弄","lng":121.4276264206843,"lat":31.165866993544054,"确诊日期36":"k"},{"SH_ID_36":"10frii9","区36":"4","地址":"康健路43号","lng":121.43089923780407,"lat":31.166694242642485,"确诊日期36":"k"},{"SH_ID_36":"10frij8","区36":"4","地址":"老沪闵路1039弄","lng":121.43419126969373,"lat":31.130657475720174,"确诊日期36":"k"},{"SH_ID_36":"10frii6","区36":"4","地址":"老沪闵路728弄","lng":121.43025375407414,"lat":31.142932787527776,"确诊日期36":"k"},{"SH_ID_36":"10frihw","区36":"4","地址":"凌云路250弄","lng":121.42097256475907,"lat":31.1338256149171,"确诊日期36":"k"},{"SH_ID_36":"10frijh","区36":"4","地址":"凌云路365号","lng":121.41948232146122,"lat":31.13620787786846,"确诊日期36":"k"},{"SH_ID_36":"10friip","区36":"4","地址":"柳州路181弄","lng":121.42780558063542,"lat":31.15931304613444,"确诊日期36":"k"},{"SH_ID_36":"10friit","区36":"4","地址":"龙川北路436弄","lng":121.43435365315686,"lat":31.148290944563836,"确诊日期36":"k"},{"SH_ID_36":"10friif","区36":"4","地址":"龙华路2373弄","lng":121.45227899623612,"lat":31.18163490073131,"确诊日期36":"k"},{"SH_ID_36":"10frih7","区36":"4","地址":"龙华西路21弄","lng":121.4497348773541,"lat":31.168492848506894,"确诊日期36":"k"},{"SH_ID_36":"10frih4","区36":"4","地址":"龙华西路31弄","lng":121.45036507328012,"lat":31.168870367359947,"确诊日期36":"k"},{"SH_ID_36":"10frih2","区36":"4","地址":"龙华西路47号","lng":121.44773859346849,"lat":31.16777062635632,"确诊日期36":"k"},{"SH_ID_36":"10frihk","区36":"4","地址":"龙南六村","lng":121.4522151908678,"lat":31.155792519702214,"确诊日期36":"k"},{"SH_ID_36":"10frii7","区36":"4","地址":"龙南三村","lng":121.45736938611356,"lat":31.15565314943962,"确诊日期36":"k"},{"SH_ID_36":"10friil","区36":"4","地址":"龙南四村","lng":121.45588472437974,"lat":31.154331184280224,"确诊日期36":"k"},{"SH_ID_36":"10friig","区36":"4","地址":"龙南五村","lng":121.45398691212938,"lat":31.155346769455356,"确诊日期36":"k"},{"SH_ID_36":"10friia","区36":"4","地址":"龙水北路960弄","lng":121.44712404052504,"lat":31.172104473831492,"确诊日期36":"k"},{"SH_ID_36":"10frihf","区36":"4","地址":"龙吴路1323弄","lng":121.44995982090117,"lat":31.13949526812738,"确诊日期36":"k"},