SH_ID_36,区36,地址,lng,lat
10gal0x,f,八灶村顾家宅,121.71566115409146,31.152934775565598
10gal0y,f,八灶村郭家宅,121.71583708211405,31.152986245794757
10gal0z,f,八灶村滕家宅,121.71582341607056,31.152910342589905
10gal10,f,八灶村张家宅,121.71588989703233,31.153023906860135
10gal11,f,八灶村赵家宅,121.7155207789362,31.15300037873102
10gal12,f,白萱路99弄,121.59113533083016,31.329893610550897
10gal13,f,白杨路199弄,121.55592140114194,31.207908594316482
10gal14,f,百龙新村,121.61648405514286,31.141166113930186
10gal15,f,板泉路1201弄,121.50525337662205,31.162585133501214
10gal16,f,板泉路2000弄,121.5312619285691,31.165622566124696
10gal17,f,板泉路2101弄,121.53186698556168,31.16813913736748
10gal18,f,板泉路95弄,121.48837715287821,31.156171262059928
10gal19,f,北艾路1077弄,121.53616296835892,31.181100547335294
10gal1a,f,北艾路1200弄,121.53261991756295,31.183786683677027
10gal1b,f,北艾路1660弄,121.52333228277467,31.181253222328387
10gal1c,f,北艾路1765弄,121.52337430530704,31.178176787360425
10gal1d,f,北艾路73弄,121.54501999888336,31.185162332001756
10gal1e,f,北艾路828弄,121.53859585297346,31.185920844493594
10gal1f,f,北艾路862弄,121.53719115434558,31.184227004112135
10gal1g,f,北蔡大街31弄,121.55425890340346,31.187228368615752
10gal1h,f,北新园路350弄,121.6249444475882,31.321934614864308
10gal1i,f,北新园路460弄,121.62657618014869,31.319917201052807
10gal1j,f,北窑村,121.8539008489622,30.92581860021732
10gal1k,f,北张家浜路112号,121.52349211564281,31.217003058696736
10gal1l,f,北张家浜路188弄,121.52518733959815,31.21629918304772
10gal1m,f,北张家浜路28弄,121.51986711445578,31.216025763512246
10gal1n,f,北张家浜路58号,121.52034977610866,31.215727883467334
10gal1o,f,北中路278弄,121.55640149588712,31.1833186367568
10gal1p,f,北中路280弄,121.55777141639358,31.183316593052037
10gal1q,f,北中路328弄,121.5584830179012,31.18332560204556
10gal1r,f,北中路480弄,121.56340522185201,31.184084155765408
10gal1s,f,北庄村,121.65723524155429,31.093912013586703
10gal1t,f,博华路1018弄,121.55103253299781,31.17071842462621
10gal1u,f,博华路930弄,121.55081534744868,31.1739639826659
10gal1v,f,博华路999弄,121.54986574123437,31.170009538632407
10gal1w,f,博山东路20弄,121.55983277281335,31.245545683657674
10gal1x,f,博山东路440弄,121.56839788002021,31.252184509823483
10gal1y,f,博山东路459弄,121.56772509959123,31.25354870324758
10gal1z,f,博山东路811弄,121.57560796469237,31.257473390504877
10gal20,f,博山路199弄,121.55383025307009,31.242852619901914
10gal21,f,博山路200弄,121.55276652455339,31.24464043878338
10gal22,f,博山路440弄,121.55452769551268,31.244198799888007
10gal23,f,博山路50弄,121.5559260741479,31.245895859351997
10gal24,f,博山路51弄,121.55718462727852,31.244313184347845
10gal25,f,博兴路1185弄,121.59471774317828,31.26748206667177
10gal26,f,博兴路250弄,121.57882320132954,31.26882830859088
10gal27,f,博兴路341号,121.58179996695077,31.267998063326882
10gal28,f,博兴路462弄,121.58200236663754,31.2652356220379
10gal29,f,博兴路465弄,121.58528300011152,31.26605963771267
10gal2a,f,博兴路616弄,121.58499828446267,31.2631903741352
10gal2b,f,博兴路799弄,121.5906291105192,31.26587056223526
10gal2c,f,博兴路916弄,121.59177653025388,31.26483342844277
10gal2d,f,蔡路村包家宅,121.75805567144752,31.19990593057801
10gal2e,f,蔡路村北丁家宅,121.54677085753555,31.23189631868201
10gal2f,f,蔡路村东蔡家宅,121.72864294116926,31.213158049621367
10gal2g,f,蔡路村南丁家宅,121.73029231476448,31.21397230732675
10gal2h,f,蔡路村西蔡家宅,121.73350480311433,31.214237275061244
10gal2i,f,蔡路村杨家宅,121.73030067914142,31.213946284216608
10gal2j,f,蔡路村赵家宅,121.71589858935326,31.217355774112015
10gal2k,f,蔡圈村,121.68770713913744,31.05659374673142
10gal2l,f,仓房浜,121.53360300013688,31.36489743417963
10gal2m,f,草高支路1118弄,121.56290392036264,31.351815975791627
10gal2n,f,草高支路168弄,121.5832329843053,31.352665141833278
10gal2o,f,草高支路766弄,121.57025880834465,31.351440024588243
10gal2p,f,草高支路938弄,121.56680234572461,31.351318827259202
10gal2q,f,草镇村,121.54430823226136,31.22157601013349
10gal2r,f,柴场村,121.72595522367601,31.18109896975757
10gal2s,f,长浜村,121.56184811624507,31.03987721112667
10gal2t,f,长岛路1201弄,121.59244922216914,31.26138005949176
10gal2u,f,长岛路1280弄,121.5947869032374,31.259996764949197
10gal2v,f,长岛路1398弄,121.59874897629219,31.26376302164016
10gal2w,f,长岛路259弄,121.5774713215523,31.265908204811666
10gal2x,f,长岛路588弄,121.5822021055673,31.260550243652208
10gal2y,f,长岛路625弄,121.58532391214095,31.262352640900765
10gal2z,f,长岛路638弄,121.57908201232209,31.259775567086272
10gal30,f,长岛路99号,121.57803534616171,31.267709380426272
10gal31,f,长岛路博兴路交界口工地生活区,121.54875613162697,31.20486487280166
10gal32,f,长丰村顾家宅,121.67454898293515,31.182610655119298
10gal33,f,长丰村陆家宅,121.67462985735796,31.182792687703653
10gal34,f,长桥村,121.73331086502236,31.147207298061396
10gal35,f,长清路119弄,121.4894549293821,31.169208477995106
10gal36,f,长清路177弄,121.49024853587679,31.166083859017494
10gal37,f,长清路643弄,121.49115872590069,31.159108737181803
10gal38,f,长清路693弄,121.49229498913401,31.15740761498361
10gal39,f,长清路75弄,121.48922704428837,31.172491330169436
10gal3a,f,长清路773弄,121.49219695801469,31.156040726746912
10gal3b,f,长清路807弄,121.49382360809818,31.15626501002145
10gal3c,f,长元村曹家宅,121.64529773612516,31.16665506837797
10gal3d,f,昌里东路190弄,121.50531847535977,31.176262278262655
10gal3e,f,昌里东路320弄,121.51080225702268,31.17654277059609
10gal3f,f,昌里东路395弄,121.51118574354112,31.179112442640577
10gal3g,f,昌里东路650弄,121.51789554709376,31.179065011096952
10gal3h,f,昌里东路675弄,121.51593573773337,31.180426111507273
10gal3i,f,昌里东路80弄,121.50622207145173,31.174431103889084
10gal3j,f,昌里路167弄,121.49739330731977,31.174970984915458
10gal3k,f,昌里路340弄,121.49190047785075,31.17177002764121
10gal3l,f,昌里路98弄,121.5019341666685,31.17478745623645
10gal3m,f,昌邑路1500号,121.53871856857543,31.24485102388873
10gal3n,f,昌邑路555弄,121.5198377670067,31.242063097084774
10gal3o,f,朝阳村陈家宅,121.72720420160273,31.24279352213353
10gal3p,f,朝阳村胡家宅,121.73086456798589,31.25037021540602
10gal3q,f,朝阳村沈家宅,121.72346093818656,31.25131753610256
10gal3r,f,朝阳村徐家宅,121.73490326484242,31.25007642905135
10gal3s,f,朝阳村杨家宅,121.73378123220132,31.249715476096995
10gal3t,f,潮中路10号,121.80498002540855,30.859685800320904
10gal3u,f,车站新村,121.64312345558407,31.02649161306698
10gal3v,f,沉香村,121.59670639483538,31.076150744787082
10gal3w,f,陈春东路99弄,121.56021610192897,31.175785518841035
10gal3x,f,陈胡村胡家宅,121.76895437100363,31.19433987143491
10gal3y,f,陈胡村新建宅,121.76898270807521,31.1915555585499
10gal3z,f,陈桥村,121.55668236759458,31.174659557855577
10gal40,f,陈邵路103号工地生活区,121.48372368486076,31.148164689392203
10gal41,f,陈行村张家宅,121.34246232428713,31.483411912914097
10gal42,f,晨阳路200弄,121.75071404764418,31.175901860627157
10gal43,f,晨阳西路150弄,121.73424404471511,31.1710589288659
10gal44,f,成山路1139号,121.52042648436782,31.175230904863984
10gal45,f,成山路171号,121.49198762644558,31.17308159840944
10gal46,f,成山路2388弄,121.54614611372035,31.179446051243985
10gal47,f,成山路248弄,121.49854335958283,31.17029157819637
10gal48,f,成山路24弄,121.48576944957846,31.16808217662971
10gal49,f,成山路300弄,121.50210631040785,31.1715743855057
10gal4a,f,成山路475弄,121.50673718805659,31.172635946298826
10gal4b,f,成山路544弄,121.50824207792299,31.17013477870755
10gal4c,f,成山路608弄,121.50836794886756,31.171721371597553
10gal4d,f,成山路648弄,121.51084679679529,31.170966615542618
10gal4e,f,成山路668弄,121.51168243918745,31.1703878522889
10gal4f,f,城东路282弄,121.76398562686092,31.04986058154885
10gal4g,f,城丰路130弄,121.68806623831375,31.190744789579792
10gal4h,f,城丰路212弄,121.68754835587434,31.190376742992107
10gal4i,f,城丰路245号,121.68604700939228,31.189247373834704
10gal4j,f,城丰路288弄,121.68365555994802,31.190282996126346
10gal4k,f,城南村朱家宅,121.69937399722117,31.18763106741735
10gal4l,f,城南路229弄,121.70705177601334,31.19224497372969
10gal4m,f,城南路267弄,121.70632360495608,31.191893245405442
10gal4n,f,城南路293弄,121.70647900502415,31.19227780006288
10gal4o,f,城南路341弄,121.70348906396327,31.19163359504792
10gal4p,f,城南路356弄,121.70275818009303,31.192467640814467
10gal4q,f,城南路41弄,121.74272419167384,31.040826437859685
10gal4r,f,城南路627弄,121.69446582725809,31.188806512541028
10gal4s,f,城南路747弄,121.6932528412204,31.188332436263217
10gal4t,f,城南路918弄,121.77009205674008,31.040537827708725
10gal4u,f,储店村南傅家宅,121.73584449128107,31.133189403693645
10gal4v,f,储店村瞿家宅,121.73386687058475,31.14094526382895
10gal4w,f,储楼村,121.61600544814654,31.06799362822025
10gal4x,f,川北公路3087弄,121.61311305512366,31.207112530728228
10gal4y,f,川环南路918弄,121.69543075483347,31.186547758324032
10gal4z,f,川环南路921弄,121.69533886312252,31.185687188829775
10gal50,f,川沙路1666弄,121.6790537136969,31.2540012432405
10gal51,f,川沙路2016号,121.68334354485334,31.245436594927295
10gal52,f,川沙路2278弄,121.68419043327494,31.23915771951235
10gal53,f,川沙路2301弄,121.68719606996692,31.240040842351757
10gal54,f,川沙路389弄,121.66986954814521,31.27865655567722
10gal55,f,川沙路5122弄,121.69749655672638,31.19041176869277
10gal56,f,川沙新镇太平村,121.71837159355415,31.195043900937513
10gal57,f,川周公路2828弄,121.61779080892612,31.14334461860217
10gal58,f,川周公路2866弄,121.61643693663251,31.143113149271716
10gal59,f,川周公路3010弄,121.6120772599665,31.14401114248575
10gal5a,f,川周公路3052弄,121.6111882384547,31.140313780657742
10gal5b,f,川周公路4005弄,121.58760807414286,31.125958025845765
10gal5c,f,川周公路4011弄,121.5875896033309,31.125271542919076
10gal5d,f,川周公路4293弄,121.5813544304256,31.120286621807747
10gal5e,f,川周公路4318弄,121.58002068679652,31.121967149211155
10gal5f,f,川周公路8288弄,121.709534046399,31.17850528277723
10gal5g,f,川周公路凌空路交界口工地生活区,121.72518491785311,31.183887664909054
10gal5h,f,川周路6561弄,121.67512334306934,31.1664271704383
10gal5i,f,川周路8828弄,121.7098170104862,31.187556298522924
10gal5j,f,创新西路199弄,121.65529123446235,31.20103103716783
10gal5k,f,创新西路28弄,121.65753210773065,31.20496701485786
10gal5l,f,创新西路300弄,121.65325865610458,31.20347022715013
10gal5m,f,创新西路75弄,121.65573500968914,31.202704324503337
10gal5n,f,创新中路199弄,121.66161036738477,31.207556565061658
10gal5o,f,创新中路399弄,121.66557868742595,31.211476331191086
10gal5p,f,创业路78弄,121.61112524399269,31.144342294644623
10gal5q,f,创业路798号,121.69625502475537,31.21504029718599
10gal5r,f,创业路87弄,121.61265685449736,31.142341884929348
10gal5s,f,春晖路28弄,121.58770073577091,31.343425958661168
10gal5t,f,春晖路368弄,121.58244095087969,31.339239514316755
10gal5u,f,春晖路446弄,121.58203290713547,31.33696255959892
10gal5v,f,春泉路45弄,121.64703202524645,31.216733811714306
10gal5w,f,纯新村吴家宅,121.63181107151678,31.179856238761655
10gal5x,f,达秀路151号,121.65265907342773,31.237906580164708
10gal5y,f,大丰村丁家宅,121.60978298417629,31.18121056534801
10gal5z,f,大同路1010弄,121.57264608392934,31.33559746275705
10gal60,f,大同路118号,121.57919052776094,31.34726956460668
10gal61,f,大同路868弄,121.57385379356664,31.33667070445496
10gal62,f,大同路922弄,121.5723844622642,31.33644806589504
10gal63,f,大星村顾家宅,121.71508138113289,31.20428023256708
10gal64,f,大星村凌家宅,121.72691792580139,31.216683480428973
10gal65,f,大星村杨家宅,121.72160008881002,31.221878601988543
10gal66,f,大星村尹家宅,121.8120248128422,31.046069158019147
10gal67,f,大众村沈家宅,121.64843524709606,31.22374184182961
10gal68,f,大众村王家宅,121.68000164211611,31.16608787363864
10gal69,f,大众村西沟圈,121.65144020557663,31.228883196449875
10gal6a,f,大众村中心新村,121.6483349263927,31.228636826698615
10gal6b,f,大众村朱家宅,121.60285078706804,31.200905538177004
10gal6c,f,荡湾路2号,121.76475856608381,31.04443759942885
10gal6d,f,道新村南金家宅,121.76049665815226,31.158974235771762
10gal6e,f,德淳路99弄,121.66676245937234,31.228378205039355
10gal6f,f,德平路1134弄,121.56990428683604,31.23901121884347
10gal6g,f,德平路1189弄,121.57156915250022,31.24010036553961
10gal6h,f,德平路12弄,121.55633128988158,31.25451123459785
10gal6i,f,德平路24弄,121.55682372793254,31.253453612398186
10gal6j,f,德平路764弄,121.56443639033023,31.242986104778538
10gal6k,f,德州路150弄,121.49897056901439,31.167854297670477
10gal6l,f,德州路20弄,121.50460649653222,31.168932191090516
10gal6m,f,德州路220弄,121.49544003892946,31.168496973183615
10gal6n,f,德州路246号,121.49269319567917,31.16766204418501
10gal6o,f,德州路254号,121.49258683417351,31.167833014947032
10gal6p,f,德州路255弄,121.49245637296457,31.168529033355817
10gal6q,f,德州路300弄,121.49052620171581,31.167649325874617
10gal6r,f,德州路380弄,121.48583286173034,31.164483098190804
10gal6s,f,德州路420弄,121.48348983332927,31.165098228748608
10gal6t,f,德州路421弄,121.48199919309934,31.168341622210182
10gal6u,f,灯塔村,121.66077863533336,31.314666976152097
10gal6v,f,叠桥村,121.61634946396477,31.128214511832365
10gal6w,f,丁香路1299弄,121.56417110786043,31.231710601425913
10gal6x,f,丁香路1399弄,121.56419024668783,31.229444940170318
10gal6y,f,丁香路1599弄,121.56554150295891,31.22838768256397
10gal6z,f,定水路50弄,121.54932247589576,31.24172279215315
10gal70,f,东八灶115弄,121.58162286008069,31.115754705946838
10gal71,f,东八灶63弄,121.58185997031634,31.115539153139252
10gal72,f,东波路195弄,121.58006682413904,31.28516220300073
10gal73,f,东波路49弄,121.57643754522657,31.285538415011203
10gal74,f,东波路585弄,121.58670450795071,31.285267255160775
10gal75,f,东方路1600弄,121.52530451776883,31.210006881189354
10gal76,f,东方路1663弄,121.52562643598381,31.206379720927725
10gal77,f,东方路1669弄,121.52545134441115,31.205987755968057
10gal78,f,东方路1800弄,121.52251753818166,31.202583484489093
10gal79,f,东方路1881弄,121.52169827954313,31.199069813095537
10gal7a,f,东方路2880弄,121.51887427257756,31.195814722787357
10gal7b,f,东方路3344弄,121.51379929588812,31.193236350609578
10gal7c,f,东风村曹家宅,121.69874526404391,31.22758036071681
10gal7d,f,东风村丁家宅,121.60949334341748,31.180962312216582
10gal7e,f,东风村奚家宅,121.55054691943526,31.15604822029763
10gal7f,f,东风村张家宅,121.68656591433266,31.217408035892724
10gal7g,f,东沟二村,121.57692050063156,31.29351313548401
10gal7h,f,东海村曹家宅,121.81870975612863,31.082861511132208
10gal7i,f,东海村胡家宅,121.81851644179851,31.083106193772387
10gal7j,f,东海村小梁山,121.66816785274027,31.300581057476872
10gal7k,f,东海村张家宅,121.67402164801973,31.301782422444067
10gal7l,f,东海三村,121.90646335142425,30.95320863154966
10gal7m,f,东建路228弄,121.53224496438227,31.20084791046381
10gal7n,f,东建路670弄,121.54039766419436,31.20019450129304
10gal7o,f,东建新村,121.53351175132894,31.201835883032164
10gal7p,f,东靖路2250弄,121.6113158105871,31.28908389180649
10gal7q,f,东靖路247弄,121.5765680026573,31.29185183850705
10gal7r,f,东靖路299弄,121.57902137021226,31.29271451113227
10gal7s,f,东靖路393弄,121.57980776768754,31.293420809661676
10gal7t,f,东陆路1018弄,121.59257380356624,31.272835497094537
10gal7u,f,东陆路1221号,121.59766459614407,31.271194378640793
10gal7v,f,东陆路1268弄,121.59619487289656,31.268363488642674
10gal7w,f,东陆路1350弄,121.60161405954064,31.26727540340804
10gal7x,f,东陆路1456弄,121.60156375175599,31.267109533891535
10gal7y,f,东陆路1528弄,121.59980719555259,31.266203195135827
10gal7z,f,东陆路2000弄,121.6095432113032,31.26232724260066
10gal80,f,东陆路898弄,121.5917273979418,31.273271288753765
10gal81,f,东明路355弄,121.51102944946214,31.184409362398284
10gal82,f,东明路560弄,121.50914598396987,31.17966955853707
10gal83,f,东明路660弄,121.50901034814436,31.177953359008114
10gal84,f,东三里桥路245弄,121.51575015650988,31.19958756193924
10gal85,f,东书房路390弄,121.53504536786268,31.16489618103041
10gal86,f,东书房路560弄,121.53474279129006,31.16145744442831
10gal87,f,东塘路222弄,121.56698891894094,31.300236507285202
10gal88,f,东亭路836弄,121.75311577846918,31.171692656125067
10gal89,f,东绣路1085弄,121.5369103135619,31.19846538850832
10gal8a,f,东绣路1086弄,121.53625303756137,31.19935426233862
10gal8b,f,东绣路1155弄,121.53499255439463,31.198782391802144
10gal8c,f,东煦路90弄,121.58084493861695,31.29508485218763
10gal8d,f,东窑新村,121.6411568076028,31.19732774581721
10gal8e,f,东园四村,121.51298305099117,31.23001309645384
10gal8f,f,冬融路240弄,121.58966806822454,31.33404916165901
10gal8g,f,杜尹村东杨家宅,121.56926133603507,31.06722423460377
10gal8h,f,渡桥路78弄,121.54693327457636,31.118084846865965
10gal8i,f,峨山路180弄,121.52824099607498,31.214159155275617
10gal8j,f,峨山路187弄,121.52749683415162,31.214904123696666
10gal8k,f,峨山路280弄,121.52621491071638,31.213944437322485
10gal8l,f,峨山路420弄,121.5257866424272,31.213793116485768
10gal8m,f,峨山路500弄,121.52417445865173,31.214114437012295
10gal8n,f,峨山路679弄,121.52029095454331,31.21407138053153
10gal8o,f,繁荣东路150弄,121.58773970942997,31.10595151448769
10gal8p,f,繁荣路128弄,121.57824059971583,31.10608276933354
10gal8q,f,范桥村,121.63419135962805,31.055188647594505
10gal8r,f,芳草路258号,121.55643132933821,31.19304305369252
10gal8s,f,芳草路352弄,121.55765309950903,31.1927738378081
10gal8t,f,芳草路36弄,121.55198893552098,31.19124328579293
10gal8u,f,芳华路371弄,121.5578187776834,31.19616627751563
10gal8v,f,芳华路411弄,121.55842404318048,31.196107598223705
10gal8w,f,芳华路478弄,121.55998731380747,31.19487953879407
10gal8x,f,芳华路580弄,121.56222610332135,31.19614539652616
10gal8y,f,芳华路630弄,121.56415723325632,31.196291587902895
10gal8z,f,芳华路713弄,121.56368174237947,31.197019342603376
10gal90,f,芳华路739弄,121.5689742416401,31.197119190373325
10gal91,f,芳华路788弄,121.56552965473324,31.195449926992854
10gal92,f,芳华路916弄,121.56797960988456,31.196302325377484
10gal93,f,芳华路933弄,121.5688262566779,31.197849555470178
10gal94,f,芳芯路210弄,121.55743400717579,31.190511071973898
10gal95,f,飞桥村,121.61290262874589,31.043129200204486
10gal96,f,丰产村,121.84942949061663,30.975684372395754
10gal97,f,奉新路132号,121.64506285387306,31.021149483743418
10gal98,f,福山路100弄,121.52709299868799,31.23269699573605
10gal99,f,福山路102弄,121.52651066890134,31.231289599040636
10gal9a,f,福山路40弄,121.52368755456483,31.236552317857964
10gal9b,f,福善村,121.61170446863945,31.026206351724575
10gal9c,f,富强村,121.77304721195871,31.031891610012693
10gal9d,f,高宝路229弄,121.61923997353509,31.2922762568452
10gal9e,f,高宝路300弄,121.62205905885159,31.28965446397441
10gal9f,f,高宝路528弄,121.62818652039138,31.292977127877577
10gal9g,f,高宝路68弄,121.61819898528618,31.289472678120035
10gal9h,f,高博路210弄,121.58065002674061,31.296680236338606
10gal9i,f,高东二路118弄,121.62728607946794,31.32299954210719
10gal9j,f,高科东路500弄,121.65347074294976,31.210852026435123
10gal9k,f,高科西路2111弄,121.53571575057252,31.18806715037978
10gal9l,f,高科西路2763弄,121.55324232090291,31.19099140530005
10gal9m,f,高科西路2907弄,121.55862126897469,31.189561310632183
10gal9n,f,高科西路3000弄,121.56179845603585,31.189226419111467
10gal9o,f,高科西路3050弄,121.56373815726798,31.189411391830863
10gal9p,f,高科西路3060弄,121.56432968699843,31.18944516483274
10gal9q,f,高桥村项家宅,121.7701995394631,30.891982295339282
10gal9r,f,高青路4567弄,121.56187826676597,31.170921479823196
10gal9s,f,工农南路201弄,121.75719198911867,31.046667266504958
10gal9t,f,龚华路35弄,121.68582380848805,31.270356823932538
10gal9u,f,龚华路425弄,121.68636452026367,31.261409710599747
10gal9v,f,龚华路479弄,121.68837128178242,31.259314497685413
10gal9w,f,龚华路50弄,121.68383884417173,31.26707747273873
10gal9x,f,龚路支路473弄,121.68784639133692,31.264148780646018
10gal9y,f,龚新路502号,121.68252192109645,31.2573322607541
10gal9z,f,拱川路411弄,121.74365577763353,31.06461638301747
10gala0,f,拱川路561弄,121.74709528553294,31.064521787461157
10gala1,f,拱海路240弄,121.7401749630837,31.06918691150612
10gala2,f,拱海路79弄,121.73643909513497,31.069511913826787
10gala3,f,拱极路3058弄,121.7589877626871,31.054578401514085
10gala4,f,拱乐路2400弄,121.76832565032822,31.063056177583295
10gala5,f,拱乐路698弄,121.77145727686259,31.064635592452436
10gala6,f,拱为路2600弄,121.73998138878281,31.058008811753623
10gala7,f,拱优路79弄,121.75102775731105,31.070534570506425
10gala8,f,共和村,121.73345179233623,31.170954228080546
10gala9,f,共一村包家宅,121.70917966796176,31.250639435164814
10galaa,f,共一村顾家宅,121.70779191756203,31.25257380446308
10galab,f,共一村杨家宅,121.72882563705893,31.211473642794672
10galac,f,共一村张家宅,121.70788348268931,31.252796092760022
10galad,f,顾东村苍龙桥,121.66141702413174,31.297285586227687
10galae,f,顾东村船板桥,121.66175170708414,31.295567937233145
10galaf,f,顾东村花厅,121.66256019486939,31.292389372733656
10galag,f,顾东村水洞港,121.66700009291222,31.29320377100371
10galah,f,顾家圩村杨家宅,121.54655217804559,31.364525376106126
10galai,f,顾三村东蔡家宅,121.7289502184621,31.213369125647944
10galaj,f,顾三村外金家宅,121.68731640376166,31.294742020334642
10galak,f,顾三村卫家宅,121.67628399780328,31.29486733842137
10galal,f,顾三村吴家宅,121.63156551411863,31.18000940190622
10galam,f,顾三村西蔡家宅,121.6688059322824,31.16068608400351
10galan,f,顾唐路138弄,121.65650861146688,31.263545202888128
10galao,f,崮山路157号,121.55243125271576,31.2468741666724
10galap,f,崮山路322弄,121.55469060996448,31.24458215938622
10galaq,f,崮山路717号,121.56072995170513,31.238977007784758
10galar,f,关岳路181弄,121.58669711491126,31.120198118258486
10galas,f,光辉村,121.71202188767501,31.063990083146173
10galat,f,光明村计家宅,121.65807281637206,31.291621930545027
10galau,f,光明村凌家圈,121.65904022546262,31.28973140256483
10galav,f,光明村沙桥宅,121.65146579439299,31.28741482163172
10galaw,f,光明村施家宅,121.81893456666376,31.026826780001766
10galax,f,光耀村姚湾宅,121.65709351735926,31.275384539467737
10galay,f,光泽路428弄,121.6184485527634,31.328229664148008
10galaz,f,海春路150弄,121.5849449600985,31.347684621787
10galb0,f,海基三路海洋四路交界口工地生活区,121.54869662331525,31.2047306526604
10galb1,f,海纳路129弄,121.67113755275547,31.292540368581196
10galb2,f,海纳路490弄,121.67074971267147,31.29152500178195
10galb3,f,海鹏路218号,121.67198394394475,31.288126539838924
10galb4,f,海鹏路301弄,121.67410768121675,31.289359647747453
10galb5,f,海鹏路380弄,121.67805859257344,31.288342548398504
10galb6,f,海鹏路529弄,121.67232918642459,31.288162439168374
10galb7,f,海桥村,121.61034392219771,31.010188510659066
10galb8,f,海容路399弄,121.67917203586384,31.282017855346623
10galb9,f,海沈村,121.796333474053,31.02584048676657
10galba,f,海顺路359弄,121.68221543939477,31.27642219819141
10galbb,f,海松路398弄,121.68012844755268,31.276810006461847
10galbc,f,海松路52弄,121.67609039355575,31.27487500837767
10galbd,f,海塘村顾家宅,121.75676321118357,31.212093161931424
10galbe,f,海燕路98号,121.7625293916328,31.039079547041517
10galbf,f,海阳路1000弄,121.50545155428193,31.157744157611074
10galbg,f,海阳路1065弄,121.5055084598773,31.159294601434283
10galbh,f,海阳路1080弄,121.50643214189277,31.157434017880338
10galbi,f,海阳路1125弄,121.50707242613895,31.159080645951065
10galbj,f,海阳路215弄,121.48924467731665,31.153549977135125
10galbk,f,海阳路612弄,121.49732831551398,31.156052646246838
10galbl,f,海阳路841号,121.50236359470615,31.157743828950938
10galbm,f,海阳路860弄,121.50189440337337,31.1569992375224
10galbn,f,海阳路云台路交界口工地生活区,121.54850413972324,31.204799351011886
10galbo,f,海阳西路500弄,121.48113690635645,31.150309605752984
10galbp,f,航昌路199弄,121.6089057041851,31.078513453939447
10galbq,f,航昌路376弄,121.60941349992581,31.075100850827106
10galbr,f,航昌路489弄,121.6097388743627,31.075222158453364
10galbs,f,航城三路518弄,121.75118429004543,31.151359653999474
10galbt,f,航城五路151弄,121.74796950771372,31.14444967445375
10galbu,f,航春路169弄,121.60549956105194,31.081086897446497
10galbv,f,航定路568弄,121.58977847758695,31.026733183541477
10galbw,f,航东村,121.59955401406437,31.02847876998267
10galbx,f,航都南路29弄,121.61253719850282,31.025542099573702
10galby,f,航鹤路1699弄,121.58358805928452,31.04455513625388
10galbz,f,航鹤路1700弄,121.58673852272425,31.04825189793009
10galc0,f,航鹤路1858弄,121.58457449131997,31.04983195999237
10galc1,f,航梅路525弄,121.57425141545058,31.024453292258762
10galc2,f,航梅路526弄,121.58200208411569,31.02398114506484
10galc3,f,航瑞路175弄,121.59244013785867,31.0712084541205
10galc4,f,航瑞路388弄,121.59461429291807,31.073653018830928
10galc5,f,航亭环路158号工地生活区,121.76619813173964,31.101404514400677
10galc6,f,航头路1027弄,121.59375478601713,31.032499869650593
10galc7,f,航头路1257弄,121.58998462344512,31.032459856813702
10galc8,f,航头镇果园村,121.63583059758025,31.01963452091496
10galc9,f,航西村,121.58843570146314,31.01856780122737
10galca,f,航兴北路95弄,121.59532674914179,31.027174676133534
10galcb,f,航绣路50弄,121.59667626538325,31.07099276798136
10galcc,f,航绣路51弄,121.59838304750838,31.070733433257583
10galcd,f,和佳路105弄,121.51286648363688,31.12835715809978
10galce,f,和炯路501弄,121.5078756605449,31.123396388596465
10galcf,f,和炯路601弄,121.50934771956447,31.125173973732025
10galcg,f,和炯路77弄,121.50164696938086,31.120657505987776
10galch,f,和龙路371弄,121.57001614011858,31.344795382776727
10galci,f,和龙路619弄,121.56724750194954,31.349309491961794
10galcj,f,和融路55弄,121.50004219761855,31.125237337319753
10galck,f,菏泽路25弄,121.59043732992954,31.27422941819612
10galcl,f,菏泽路287弄,121.59368471180473,31.269009594172353
10galcm,f,菏泽路418弄,121.59293320769875,31.266762136545726
10galcn,f,菏泽路567弄,121.59515206110018,31.26547423875779
10galco,f,菏泽路58弄,121.58967565625593,31.273026648916204
10galcp,f,鹤驰路88弄,121.59453683733925,31.080452083582163
10galcq,f,鹤东村,121.60199672828128,31.054762996334105
10galcr,f,鹤立西路183号,121.58671469234963,31.054787189807715
10galcs,f,鹤沙路201弄,121.6003593136206,31.07993252783092
10galct,f,鹤沙路226弄,121.5988942410276,31.082731164648916
10galcu,f,鹤沙路588弄,121.59339380146636,31.081706517994984
10galcv,f,鹤沙路688弄,121.58943112676893,31.081749720680172
10galcw,f,鹤沙路699弄,121.5910288406395,31.08128271631303
10galcx,f,鹤永路600弄,121.60266755580278,31.074482394910348
10galcy,f,横桥村,121.58207201547856,31.09812942378318
10galcz,f,横桥路136弄,121.576855574455,31.107964773818424
10gald0,f,横桥路69弄,121.57937647024268,31.10796299324884
10gald1,f,红二村,121.78223083021959,31.090133152617252
10gald2,f,红旗村东桥队毛家塘,121.50295152340169,31.129008557910673
10gald3,f,红旗村姜胡宅队江湖宅,121.49360836150225,31.12143859135471
10gald4,f,红旗村李家队李家油车,121.49163091741448,31.12503588954518
10gald5,f,红旗村沈家宅,121.75419089911544,31.167783214051703
10gald6,f,红旗村俞家宅,121.75411619709266,31.167714744908377
10gald7,f,红旗村镇南队江湖宅,121.49430782310188,31.12115990465832
10gald8,f,红桥村,121.63323621094221,31.10229818217193
10gald9,f,红星村范家新村,121.7147927486042,31.238780736914926
10galda,f,红星村姚家宅,121.57618893926315,31.1845241973252
10galdb,f,红星村张家宅,121.77160395323438,31.08927035569616
10galdc,f,宏雅路151弄,121.67550503784199,31.239822060909983
10galdd,f,虹二村盛家宅,121.69732677652169,31.161773796337947
10galde,f,虹桥村,121.71037540008778,31.175726117874312
10galdf,f,虹三村陈家宅,121.56533859388077,31.176620094833503
10galdg,f,虹三村龚家宅,121.67019569236052,31.25527631450413
10galdh,f,虹三村沈家宅,121.67304977507453,31.25381241623691
10galdi,f,虹盛路160弄,121.68108940038093,31.238093601351498
10galdj,f,虹四村,121.65522231690255,31.240475124004323
10galdk,f,虹四村吴张家宅,121.6535227376878,31.24079536842504
10galdl,f,洪山路121弄,121.4991879266551,31.178846590336963
10galdm,f,洪山路1889弄,121.51120720138225,31.151310979252468
10galdn,f,洪山路237弄,121.50185055956375,31.173211543694155
10galdo,f,洪山路301弄,121.50287790353842,31.170613673366116
10galdp,f,胡桥村,121.69052299543945,31.039708418406715
10galdq,f,胡巷村荡沟,121.52091013455767,31.16045371362753
10galdr,f,胡巷村东马家宅,121.51844911146136,31.153065709614808
10galds,f,胡巷村东朱家宅,121.516115414666,31.16047189939717
10galdt,f,胡巷村胡巷宅,121.51470794851963,31.16189938310204
10galdu,f,胡巷村金家宅,121.58681668260552,31.124908495638632
10galdv,f,胡巷村张家宅,121.51471094931365,31.163351277265487
10galdw,f,沪二小区,121.58248807339808,31.268501278154023
10galdx,f,沪南公路2688弄,121.56673723307401,31.138136722751923
10galdy,f,沪南公路5192号,121.58879326756288,31.052233350626558
10galdz,f,沪南公路7518号,121.65385103056346,31.028438600832573
10gale0,f,沪南公路9399弄,121.71924745987614,31.03811577152671
10gale1,f,沪南路1168弄,121.55516562371565,31.178396432054615
10gale2,f,沪南路1391弄,121.5580374897299,31.173781923707885
10gale3,f,沪南路2000号,121.56096551268661,31.164729998286276
10gale4,f,沪南路2729弄,121.57429253597832,31.1432729636889
10gale5,f,沪南路3150弄,121.56537532820234,31.122082598798993
10gale6,f,沪南路3161弄,121.56794075585682,31.1279134153263
10gale7,f,沪南路3219弄,121.5684818437166,31.123508215944724
10gale8,f,沪南路3633弄,121.56954804782981,31.10793305823645
10gale9,f,沪一小区,121.58382670624312,31.269756290987846
10galea,f,花木路1983弄,121.56890872032528,31.21807262604183
10galeb,f,花木路718弄,121.54814812140671,31.209469608676134
10galec,f,花墙村,121.54915409646149,31.148461101062313
10galed,f,花山路1001弄,121.58164842761282,31.350564444124988
10galee,f,花山路300弄,121.57434717659002,31.34671301335735
10galef,f,花山路609弄,121.57536022209719,31.34785566250187
10galeg,f,花山路618弄,121.57541465729524,31.345601658656015
10galeh,f,华安路24弄,121.51613028932145,31.211836692112772
10galei,f,华东路998号,121.65728929567696,31.28616852724011
10galej,f,华东路齐友路交界口工地生活区,121.68071084396942,31.203916221891955
10galek,f,华丰路50弄,121.5079205273355,31.190842059422742
10galel,f,华丰路51弄,121.50823198162487,31.192300517501383
10galem,f,华夏东路1260弄,121.67316347865456,31.196180377532716
10galen,f,华夏东路2110弄,121.69309771652487,31.198375093476965
10galeo,f,华夏东路2139弄,121.6918173235664,31.200779675115747
10galep,f,华夏东路2170弄,121.69393297732915,31.19914991867929
10galeq,f,华夏东路2345弄,121.69800210261837,31.201035722960984
10galer,f,华夏东路3038弄,121.71291356397474,31.202194009556464
10gales,f,华夏东路860弄,121.66554065174246,31.194576983697786
10galet,f,华夏二路1255弄,121.69124047820269,31.17597173107407
10galeu,f,华夏二路1455弄,121.69245028976009,31.173524024578757
10galev,f,华夏二路1500弄,121.69164975092544,31.173056314756767
10galew,f,华夏二路200弄,121.68391007998522,31.1941833004753
10galex,f,华夏二路728弄,121.68597341112648,31.186839891669802
10galey,f,华夏二路90弄,121.68345815525954,31.196533376212184
10galez,f,华夏一路325弄,121.68844695585106,31.193684339152103
10galf0,f,华夏一路55弄,121.68606008839554,31.197806692091408
10galf1,f,华星村西宋家宅,121.68159019068648,31.245832663323338
10galf2,f,华绣路179弄,121.52729160722151,31.18666522221329
10galf3,f,华绣路255弄,121.52925030034869,31.184990662284346
10galf4,f,华治村,121.78929141379768,31.01307711878874
10galf5,f,环东中心村桥弄付家宅,121.65663473793423,31.184408404822264
10galf6,f,环林东路270弄,121.52451965481548,31.148233173141165
10galf7,f,环林东路271弄,121.52667738203544,31.149117309940642
10galf8,f,环林东路875弄,121.53028972790311,31.14041284067171
10galf9,f,环林西路579弄,121.5229484237073,31.141151557944482
10galfa,f,环林西路608弄,121.52174976715672,31.13984734179237
10galfb,f,环林西路613弄,121.52462015033967,31.140619452649055
10galfc,f,环林西路777弄,121.52601214814592,31.14043252399371
10galfd,f,环桥路1137弄,121.6023557098694,31.136164388500067
10galfe,f,环桥路1481弄,121.60101389115647,31.14091271901348
10galff,f,环桥路1488弄,121.60361660002894,31.141796082185447
10galfg,f,环庆东路820弄,121.72679449792905,31.23698797911174
10galfh,f,环庆南路239弄,121.72464919971985,31.228855988531347
10galfi,f,环庆南路336弄,121.72826735486798,31.227066935738087
10galfj,f,环庆中路168弄,121.72144688285192,31.233379007250637
10galfk,f,环庆中路323弄,121.72380838460562,31.23463341968946
10galfl,f,环庆中路57弄,121.72122125541532,31.233920916894494
10galfm,f,环镇东路200弄,121.60238664877104,31.021232028245407
10galfn,f,黄华村,121.8794024761803,30.974326018899127
10galfo,f,黄楼村王家宅,121.6802663904805,31.16610891322456
10galfp,f,黄楼村奚家宅,121.66628998595675,31.172074688898434
10galfq,f,黄杨路69弄,121.5895867747958,31.241589835809577
10galfr,f,汇成路1245弄,121.70492829703583,31.033534743557183
10galfs,f,汇华路2弄,121.75311421728267,31.047000601656578
10galft,f,汇南村,121.7358887332419,31.04032822122087
10galfu,f,惠东村,121.77674844491445,31.04016638881603
10galfv,f,火箭村,121.60877342301119,31.139290884504216
10galfw,f,机口村北费家宅,121.66136157588214,31.214821423769095
10galfx,f,季景北路185弄,121.58604614045676,31.34293332728437
10galfy,f,季景路333弄,121.59120857821677,31.333963210608676
10galfz,f,季桥村,121.69945767768989,31.061326694632164
10galg0,f,济阳路333弄,121.48338222484395,31.161395434404646
10galg1,f,济阳路65弄,121.48231567429171,31.167121361459685
10galg2,f,建光村高家宅,121.65928907679636,31.168118852790407
10galg3,f,建光村倪家宅,121.74690718023491,31.212801887677124
10galg4,f,建新村东金家宅,121.67630284353864,31.2946823857179
10galg5,f,建中路126弄,121.61331482195656,31.203327308337315
10galg6,f,建中路285弄,121.83943556734447,31.035707805502764
10galg7,f,江东路1217弄,121.5400878894182,31.36683623769167
10galg8,f,江东路1380弄,121.54278045791722,31.36416296840973
10galg9,f,江东路238号,121.61582677934686,31.206234646666196
10galga,f,江东路25号,121.61587367183381,31.20596236493064
10galgb,f,江绣路300弄,121.73359024782549,31.173136042502684
10galgc,f,江绣路59弄,121.7365955680257,31.16975997637546
10galgd,f,蒋桥村,121.66117118788985,31.047273218784113
10galge,f,胶东路818弄,121.60159888365949,31.260057187566044
10galgf,f,胶东路855弄,121.60222534194202,31.262048005720242
10galgg,f,界浜村,121.64886615004698,31.113016002192992
10galgh,f,界龙村大顾家宅,121.65850974311316,31.169948901764098
10galgi,f,界龙村孙家宅,121.85143130649551,30.999075039624085
10galgj,f,界龙村吴陆家宅,121.67865097502586,31.178000082184102
10galgk,f,金浜村,121.56378520179986,31.258006972032074
10galgl,f,金港路199弄,121.61040207575893,31.257297709092832
10galgm,f,金港路2528弄,121.614713677468,31.227211639153143
10galgn,f,金港路龙东大道交界口工地生活区,121.6264974232425,31.293459488597342
10galgo,f,金高路1058弄,121.60894295442387,31.282969863816632
10galgp,f,金高路2131弄,121.60949660563006,31.26131170373037
10galgq,f,金高路436弄,121.60906725164463,31.29144062527361
10galgr,f,金工路172弄,121.59037216083674,31.256009065387754
10galgs,f,金光村陆家湾队陆家湾,121.51663793541968,31.1360425852914
10galgt,f,金海路3333号,121.66494965472481,31.271005397588137
10galgu,f,金沪路1218弄,121.60215137840753,31.24077084193637
10galgv,f,金家浜,121.56219439404765,31.256500514702097
10galgw,f,金葵路1115弄,121.63080515500492,31.240217279696083
10galgx,f,金葵路945弄,121.62734155065064,31.240153499122094
10galgy,f,金路村,121.80980967873461,30.979355869731492
10galgz,f,金睦路353弄,121.67472542352021,31.28692454953889
10galh0,f,金桥路1490弄,121.58851948469498,31.25018824713396
10galh1,f,金桥路1498弄,121.58941356658897,31.25067025621036
10galh2,f,金桥路1500弄,121.58808516267592,31.249074817872103
10galh3,f,金桥路1502弄,121.58782621436248,31.24877675111021
10galh4,f,金桥路1504弄,121.58984386895818,31.249859613872648
10galh5,f,金桥路1510弄,121.58888720487975,31.24790167037764
10galh6,f,金桥路1520弄,121.60831293918054,31.21995064486513
10galh7,f,金桥路3379弄,121.6086544686238,31.22128705761428
10galh8,f,金桥路351弄,121.57278143170404,31.266006417464006
10galh9,f,金桥路835弄,121.57837140137785,31.259286735347665
10galha,f,金台路115弄,121.58325179670622,31.250166562906937
10galhb,f,金台路161弄,121.58624097094345,31.250963900475323
10galhc,f,金台路200弄,121.58807893011947,31.250908526520526
10galhd,f,金皖路501号,121.62146462598906,31.254547585677933
10galhe,f,金湘路201弄,121.61274177515324,31.25578734902356
10galhf,f,金湘路225弄,121.61298424273049,31.256330019337934
10galhg,f,金晓路289弄,121.68015240818494,31.275345322137966
10galhh,f,金晓路96弄,121.67479541436606,31.277541363778926
10galhi,f,金星村,121.7703836034436,31.112607031369834
10galhj,f,金杨路1105弄,121.58809669134935,31.256356318861467
10galhk,f,金杨路1155弄,121.5894776069843,31.25792472880567
10galhl,f,金杨路220弄,121.57516915485361,31.246902542019647
10galhm,f,金杨路660弄,121.5821016785599,31.251009652976094
10galhn,f,金杨路685弄,121.5815341845018,31.25331093819759
10galho,f,金杨路757弄,121.5811910272679,31.253102393157775
10galhp,f,金业路58弄,121.58916794006034,31.254766648562224
10galhq,f,金业路72号,121.59039476158755,31.25377929385452
10galhr,f,金银花路凌霄花路交界口工地生活区,121.6245790086285,31.09867367288577
10galhs,f,金钻路398弄,121.67025742400202,31.285460478006154
10galht,f,金钻路669弄,121.67678566933432,31.283964451107448
10galhu,f,锦安东路270弄,121.54196914476411,31.200020230561545
10galhv,f,锦和路289弄,121.53723808589874,31.20447483568744
10galhw,f,锦绣路300弄,121.56437685654156,31.2259799759597
10galhx,f,锦绣路3841弄,121.54661238779049,31.16776244167525
10galhy,f,锦绣路4899弄,121.54834631538174,31.150280526318326
10galhz,f,锦绣路666弄,121.55691131173621,31.222429625155264
10gali0,f,锦绣路800弄,121.55485575899215,31.222536687654127
10gali1,f,进贤路250弄,121.69203665357163,31.19397532045179
10gali2,f,京浦路160弄,121.56797447840285,31.153157460719278
10gali3,f,京浦路82弄,121.56544800966657,31.152896242985342
10gali4,f,竞赛村龙稍宅,121.6530078662463,31.300685629417078
10gali5,f,竞赛村小顾家宅,121.65379677410118,31.29794805287243
10gali6,f,靖海路239弄,121.76763397136536,31.047587503983934
10gali7,f,靖海路547弄,121.76699882457883,31.057898387149912
10gali8,f,靖海南路567弄,121.76977337507977,31.03318955202791
10gali9,f,居家桥路1030弄,121.57124821136512,31.24403293189035
10galia,f,居家桥路955弄,121.57242875233204,31.244398848711498
10galib,f,巨峰路176弄,121.59707696043372,31.27908189190823
10galic,f,巨峰路399弄,121.59519793403507,31.282253432885746
10galid,f,巨峰路667弄,121.60115075978652,31.28243171750671
10galie,f,巨峰路716弄,121.60137121889855,31.278950401191125
10galif,f,巨峰路90弄,121.59466356132214,31.277747945227027
10galig,f,巨峰路997弄,121.61223934059299,31.282798846744317
10galih,f,巨野路109弄,121.54500278101932,31.242266674552067
10galii,f,巨野路197弄,121.54586874773759,31.24223245296134
10galij,f,巨野路469弄,121.55059855987315,31.23653710783452
10galik,f,巨野路60弄,121.5429999756896,31.24387340593347
10galil,f,巨野路大陆家宅,121.54297002914018,31.243929091361082
10galim,f,俱进路505弄,121.61329253398183,31.301726843039667
10galin,f,军民村周家宅,121.74575597335419,31.168826676668424
10galio,f,康安路御桥路交界口工地生活区,121.56707071984755,31.156883719519033
10galip,f,康达路688弄,121.59690624289975,31.12452081343681
10galiq,f,康弘路515弄,121.59923645835646,31.12246963740697
10galir,f,康弘路580弄,121.59891144501812,31.127335274685574
10galis,f,康佳路38弄,121.59596296862655,31.12672373187255
10galit,f,康桥路1001弄,121.56355485088052,31.147662509509694
10galiu,f,康桥路1558弄,121.57287700739018,31.150642812355578
10galiv,f,康桥路90弄,121.58233742057699,31.15076507684756
10galiw,f,康桥镇太平村,121.55354412040136,31.121788732293446
10galix,f,康杉路151号,121.55979307026824,31.15042423289366
10galiy,f,康沈公路389弄,121.57616956349338,31.117062849139412
10galiz,f,康沈路1199弄,121.57493818543686,31.12537805590299
10galj0,f,康沈路1238弄,121.58148729939091,31.096196749504234
10galj1,f,康沈路1365弄,121.58155122951054,31.096014260275197
10galj2,f,康沈路1491号,121.58152208968238,31.09621505711244
10galj3,f,康沈路1527弄,121.57659640339139,31.11817940587951
10galj4,f,康沈路1870弄,121.57879813178776,31.111294328854093
10galj5,f,康沈路1929弄,121.58066921243496,31.109938386247112
10galj6,f,康沈路2262弄,121.58087950421664,31.100790530533747
10galj7,f,康沈路3001弄,121.58317532243548,31.090401841360983
10galj8,f,康沈路400弄,121.57091133002392,31.140058818567134
10galj9,f,康沈路465弄,121.57131854465123,31.139596523057538
10galja,f,康士路15弄,121.56330622127368,31.14905280236655
10galjb,f,康梧路189号工地生活区,121.55131331477537,31.13545308543466
10galjc,f,康新公路2333号,121.62906499377098,31.08335075955817
10galjd,f,康悦路133弄,121.53498158792823,31.36108794470036
10galje,f,康悦路325弄,121.53428871026635,31.358649410560833
10galjf,f,莱阳路111弄,121.57803914604092,31.27324930281507
10galjg,f,莱阳路1443弄,121.58382468589691,31.295061068591977
10galjh,f,莱阳路2328弄,121.58451569040156,31.309608088603028
10galji,f,莱阳路301弄,121.57960993196245,31.27484190541042
10galjj,f,莱阳路350弄,121.58276992285883,31.27383857177879
10galjk,f,莱阳路3766弄,121.58080081072904,31.2735896605736
10galjl,f,莱阳路451弄,121.58238560014892,31.275635156985146
10galjm,f,莱阳路880弄,121.58410557977358,31.282172404987424
10galjn,f,莱阳路881弄,121.58288700754164,31.283695743023532
10galjo,f,兰城路108弄,121.58043806880343,31.263823335967952
10galjp,f,兰谷路2955弄,121.59613607700541,31.288787158090464
10galjq,f,兰陵路23弄,121.51701735852683,31.195146813426234
10galjr,f,兰嵩路360弄,121.59183022043905,31.323186182178752
10galjs,f,兰亭路孙浦路交界口工地生活区,121.54852514423987,31.20490796383241
10galjt,f,栏杆村高周家宅,121.65799309948746,31.16628423420502
10galju,f,栏杆村潘家宅,121.57633403397308,31.20436914297008
10galjv,f,蓝村路31弄,121.53260751612993,31.21257152185858
10galjw,f,蓝村路471弄,121.52724956566637,31.21231095468318
10galjx,f,蓝村路501弄,121.52486326553608,31.21224691909404
10galjy,f,蓝村路502弄,121.5238628888438,31.210421620332358
10galjz,f,蓝村路55弄,121.53153717151352,31.214250311847458
10galk0,f,蓝村路60弄,121.5295459087838,31.2100650324422
10galk1,f,蓝靛路1688弄,121.64180321266934,31.098467676167022
10galk2,f,劳动村沈家宅,121.62953429980665,31.179819075814233
10galk3,f,劳动村郑家宅,121.57842924558459,31.190048292052712
10galk4,f,崂山路551弄,121.52240877793976,31.226685711650603
10galk5,f,崂山路600号,121.52421965410588,31.225568351473953
10galk6,f,崂山路644弄,121.52600845722587,31.221784306262006
10galk7,f,崂山路645弄,121.52376166805142,31.223144216802705
10galk8,f,崂山四村,121.51832584788272,31.234825241315
10galk9,f,乐城路3弄,121.59710361586556,31.03014049481743
10galka,f,里仁村,121.56866185893709,31.10740253568084
10galkb,f,里灶村,121.86897732446498,30.952450830972083
10galkc,f,历城路100弄,121.49234168811552,31.174646368050784
10galkd,f,历城路22弄,121.49257691472445,31.174573679933122
10galke,f,历城路83弄,121.4942015203848,31.175455676318137
10galkf,f,立新村李家宅,121.55000135605293,31.161652526582813
10galkg,f,丽雅路122号,121.68325166906651,31.235017864057966
10galkh,f,利川路421弄,121.68354345980372,31.20436474334435
10galki,f,利川路501弄,121.68280445905523,31.20276546705146
10galkj,f,利川路王桥路交界口工地生活区,121.54860368973212,31.204538923293697
10galkk,f,利津路1111弄,121.59368085508085,31.27882315038874
10galkl,f,利津路1313弄,121.59258980721252,31.280923417986003
10galkm,f,利津路158弄,121.58066859650116,31.27855205529407
10galkn,f,利津路185弄,121.58036044978799,31.279761912071827
10galko,f,利津路215弄,121.58236775991912,31.27872633542004
10galkp,f,利津路385弄,121.58623409018568,31.277605665115885
10galkq,f,利津路51弄,121.57936528416664,31.281389517729078
10galkr,f,利津路53弄,121.57862983234885,31.279186884900266
10galks,f,利津路555弄,121.58690791132557,31.275280717552505
10galkt,f,利民村,121.6969396089752,31.03241664189362
10galku,f,连波路228弄,121.55292543243007,31.192178926861924
10galkv,f,莲安东路243弄,121.559935692503,31.18109176985833
10galkw,f,莲安东路80弄,121.55746093058703,31.18054713875024
10galkx,f,莲安西路125弄,121.55355349705007,31.17924351675093
10galky,f,莲安西路185弄,121.55201536238071,31.179838696997823
10galkz,f,莲溪路1099弄,121.56606660914855,31.173214413884264
10gall0,f,莲溪路126弄,121.56000000544108,31.18663683466608
10gall1,f,莲溪路550弄,121.56164462711524,31.180753133851862
10gall2,f,莲溪路780弄,121.56148674306289,31.176689587281796
10gall3,f,莲园路100弄,121.54803725115636,31.18336962639866
10gall4,f,莲园路180弄,121.55139225850594,31.184755958656165
10gall5,f,莲园路18弄,121.54195949765835,31.183724554054216
10gall6,f,莲园路468弄,121.55693196266672,31.18546652576104
10gall7,f,莲园路508号,121.55808699492576,31.18539107287768
10gall8,f,莲园路555弄,121.55920887227789,31.18616136887765
10gall9,f,莲园路560弄,121.55944740583729,31.185713146247636
10galla,f,莲园路8弄,121.54229554862559,31.184417544786115
10gallb,f,莲振路269号,121.56772709162523,31.167876799387255
10gallc,f,莲中路318弄,121.55827322005779,31.17973241621391
10galld,f,莲中路337弄,121.55954873602464,31.180169174438625
10galle,f,莲中路356弄,121.55811578941795,31.179339690600774
10gallf,f,联丰村八字队东八字桥,121.51299762574227,31.152397738510704
10gallg,f,联丰村北沈队沈家墙,121.5127550866993,31.15350935395732
10gallh,f,联丰村顾家队顾家宅,121.58262063668967,31.166776969274647
10galli,f,联丰村南沈队沈家墙,121.5125846793132,31.15343452092562
10gallj,f,联合村南浜宅,121.67551664962572,31.29705208369373
10gallk,f,联合村西柴场,121.67304865804414,31.296851019554893
10galll,f,联勤村冯桥队冯家宅,121.55094074816883,31.16470578558332
10gallm,f,联勤村冯桥队张家宅,121.55156749537842,31.1682235184418
10galln,f,联勤村李家队李家宅,121.55111096216616,31.16177187633614
10gallo,f,联勤村麦家队麦家宅,121.54716452012597,31.163859381239828
10gallp,f,联勤村太平队北王家宅,121.5854763376326,31.156603281624477
10gallq,f,联勤村张家队陈家宅,121.567989080347,31.19186796771203
10gallr,f,联勤村张家队沈家宅,121.52140568674847,31.189266447415047
10galls,f,联勤村张家队张家宅,121.54749418575265,31.16815240260638
10gallt,f,林德路718弄,121.50994748443273,31.129305718645472
10gallu,f,林培路红临路交界口工地生活区,121.48525783146519,31.117477742922073
10gallv,f,林浦路1240号,121.4763932414742,31.12657330296005
10gallw,f,林浦路1789号,121.47779136731755,31.119556346063494
10gallx,f,林展路267弄,121.50792474449815,31.1276844013861
10gally,f,林展路278弄,121.50597031998242,31.12736819954415
10gallz,f,林展路411弄,121.51011958454727,31.122778509924476
10galm0,f,林展路422弄,121.50855917073245,31.122299336000488
10galm1,f,临江村丁家队丁家宅,121.60982459729951,31.181139897011544
10galm2,f,临江村临江队王家渡,121.47595758606525,31.127101615571096
10galm3,f,临江村庞家队庞家宅,121.4750404628307,31.115783592990105
10galm4,f,临江村泰保队泰保堂,121.47881209476365,31.118708990539105
10galm5,f,临江村王家渡队王家渡,121.47579086161383,31.12695468965901
10galm6,f,临江村王家宅队王家宅,121.68031368018735,31.16610663956614
10galm7,f,临江村西新队小金家宅,121.4819962626374,31.1242962017952
10galm8,f,临江村益民队罗汉松,121.4816354494006,31.12594776406408
10galm9,f,临江村益民队小金家宅,121.48203489388392,31.12409057194461
10galma,f,临江村筠西队庞家宅,121.47570075165501,31.11627273720211
10galmb,f,临江村张塘队塘湾宅,121.48753840510454,31.12510436347885
10galmc,f,临江村张塘队张家宅,121.48746530207553,31.126088595709746
10galmd,f,临江村周北队周家宅,121.47390171548828,31.117891512241382
10galme,f,临江村周南队周家宅,121.47451673714805,31.11725167183402
10galmf,f,临沂北路100弄,121.52024488786539,31.207434261913964
10galmg,f,临沂北路150弄,121.5167590944808,31.206001476342163
10galmh,f,临沂北路210弄,121.51815876397448,31.20432711052068
10galmi,f,临沂北路255弄,121.51891902818447,31.20310411615997
10galmj,f,临沂路101弄,121.51395994799313,31.195377466177128
10galmk,f,临沂路151弄,121.51243811794711,31.19436293105701
10galml,f,临沂路280弄,121.50868530600881,31.19308962051119
10galmm,f,临沂路301弄,121.51043322328908,31.19095524257027
10galmn,f,灵山路1390弄,121.5636725287634,31.236779053941437
10galmo,f,灵山路1396弄,121.56456327789402,31.23664294832349
10galmp,f,灵山路1415弄,121.56257940762778,31.238826237263
10galmq,f,灵山路1671弄,121.5669030563717,31.239773394563162
10galmr,f,灵山路1724弄,121.56809694457314,31.23990158883306
10galms,f,灵山路1799弄,121.57197796557897,31.243042413831894
10galmt,f,灵山路701弄,121.54525956407913,31.22989819360064
10galmu,f,灵山路729弄,121.54899265481515,31.231266343176728
10galmv,f,灵山路785弄,121.55037223665158,31.231833962714667
10galmw,f,灵山路866弄,121.55293357566069,31.231282247399157
10galmx,f,灵岩路56弄,121.49342893375487,31.166850819712565
10galmy,f,灵岩南路1065号,121.49971424631971,31.14313215552459
10galmz,f,灵岩南路156弄,121.49420633850188,31.159095124583747
10galn0,f,灵岩南路380弄,121.49657214274983,31.153988555402695
10galn1,f,灵岩南路499弄,121.49836767581483,31.151434838599553
10galn2,f,灵岩南路769弄,121.49855325676266,31.149608293927624
10galn3,f,灵岩南路801弄,121.4988325125179,31.147615735899134
10galn4,f,铃兰路508弄,121.91824954718763,30.919695139969058
10galn5,f,凌高路67弄,121.5455174949796,31.36727868633935
10galn6,f,凌河路188弄,121.59672279219548,31.27503539999865
10galn7,f,凌河路354弄,121.59927306646242,31.273728219989994
10galn8,f,凌河路38弄,121.59421877773978,31.277177299602148
10galn9,f,凌河路420弄,121.59954158615054,31.27302444145111
10galna,f,凌河路618弄,121.60306233749566,31.27179382553746
10galnb,f,凌环路179弄,121.54369843010726,31.368078072495415
10galnc,f,凌空路55弄,121.71725618107851,31.202636233578023
10galnd,f,凌桥村仓房浜,121.53356372522966,31.365012415931723
10galne,f,凌兆路127弄,121.49291261631686,31.142466484048843
10galnf,f,凌兆路285弄,121.49541173893476,31.1430765686539
10galng,f,凌兆路379弄,121.49741714502568,31.143791880235007
10galnh,f,凌兆路586弄,121.50219107096652,31.142829939915934
10galni,f,凌兆路88弄,121.49224758816294,31.14039907575742
10galnj,f,柳埠路135弄,121.58390111081907,31.261599639013767
10galnk,f,柳埠路142弄,121.58101905379011,31.263462249608583
10galnl,f,柳埠路196弄,121.58303180353457,31.264117137739387
10galnm,f,六灶镇果园村,121.63607910972132,31.019532125717102
10galnn,f,龙东大道4288弄,121.65960172232298,31.22228345187376
10galno,f,龙东大道6459号,121.7051290059945,31.238634761121105
10galnp,f,龙居路180弄,121.56268011240877,31.251299402623335
10galnq,f,龙居路191弄,121.56440273935519,31.2522220684889
10galnr,f,龙居路29弄,121.55901017568416,31.255967279700382
10galns,f,龙居路30弄,121.55911409993746,31.25487761401074
10galnt,f,龙树村,121.77126868541507,30.98657533094118
10galnu,f,龙王庙村南杨家堂,121.55001070523659,31.194557744478896
10galnv,f,龙新路57号,121.6538902816504,31.233765320714973
10galnw,f,龙阳路1211弄,121.53286020789834,31.198681797106616
10galnx,f,龙阳路158号工地生活区,121.51150105168722,31.202751673708825
10galny,f,龙叶村叶家角,121.52286770558729,31.36700858517129
10galnz,f,陆凌村瞿家宅,121.56290038078785,31.345708831165812
10galo0,f,陆凌村宋家宅,121.86036833902277,31.026295651152243
10galo1,f,陆凌村西凌家宅,121.56490841345807,31.34702044961821
10galo2,f,陆楼村,121.7651585336768,31.074716577188518
10galo3,f,陆弄村,121.64236483448526,31.096195909109667
10galo4,f,陆万村,121.69835523811547,31.261416305880214
10galo5,f,鹿溪村,121.70974975539171,31.117942340423465
10galo6,f,路庄村,121.82046030042207,31.09531900570287
10galo7,f,罗山路108弄,121.55242487673755,31.248474162248442
10galo8,f,罗山路1502弄,121.56940351598783,31.22845821957609
10galo9,f,罗山路1507弄,121.57097312389283,31.227943143314246
10galoa,f,罗山路1700弄,121.5682225174008,31.225537233097427
10galob,f,罗山路4088弄,121.57862537367672,31.179104393055212
10galoc,f,罗山路665弄,121.56290321293191,31.242373603818624
10galod,f,吕三村南蒋家宅,121.50643833732984,31.155091634684595
10galoe,f,绿林路320弄,121.54741530245735,31.169898041087137
10galof,f,梅花路168弄,121.76072678967228,31.051762474618318
10galog,f,梅花路230弄,121.54254623105429,31.207798180428657
10galoh,f,梅花路768弄,121.5548582234089,31.20873858573025
10galoi,f,梅林村,121.56063230467437,31.085042259829628
10galoj,f,棉场村,121.84659135557153,30.967432358774634
10galok,f,沔青村,121.63704430445937,31.150707810312486
10galol,f,苗圃路112弄,121.54647529509178,31.24428613446779
10galom,f,苗圃路266号,121.54949680729986,31.24147075688504
10galon,f,苗圃路400弄,121.55033459399513,31.239013575714043
10galoo,f,苗圃路463弄,121.55020945016574,31.236912753975357
10galop,f,苗圃路60弄,121.54563841485583,31.245298010796542
10galoq,f,苗桥路935弄,121.62264400164251,31.141268710991838
10galor,f,妙川路1000弄,121.71481148315696,31.179889606898595
10galos,f,妙川路1111弄,121.71410573300247,31.182449029768712
10galot,f,妙境北路116弄,121.688295300352,31.201198491284742
10galou,f,妙境北路451号,121.68609280155563,31.207330673493626
10galov,f,妙境路162弄,121.68788239794604,31.196648223083063
10galow,f,妙境路600弄,121.69106546716007,31.189192319748052
10galox,f,妙境路623弄,121.69250598583099,31.189740232976817
10galoy,f,妙境路99弄,121.68986618148287,31.198181608532256
10galoz,f,妙栏路200弄,121.68816630443145,31.183839016668937
10galp0,f,民春路361号,121.66378487942299,31.274619414879083
10galp1,f,民春路399弄,121.66557187308679,31.275246387904133
10galp2,f,民春路516弄,121.66761520699313,31.275530178571262
10galp3,f,民丰村顾家宅,121.64057786208443,31.213693772095418
10galp4,f,民丰村西龚家宅,121.6421817732977,31.20819827339802
10galp5,f,民建村北曹家宅,121.64978660463484,31.272873163304787
10galp6,f,民建村北邵家宅,121.64897049731653,31.2748082830985
10galp7,f,民建村梅家宅,121.64971971206026,31.272874365371425
10galp8,f,民建村南邵家宅,121.64878105118363,31.274239413219195
10galp9,f,民建村宋家圈,121.64486437856715,31.269838350790117
10galpa,f,民建村徐家宅,121.65059085469693,31.27104705274908
10galpb,f,民民路8号,121.65077934103573,31.27080703368091
10galpc,f,民区路260弄,121.65596835914467,31.273740582541638
10galpd,f,民区路265弄,121.65462891951098,31.275472621394155
10galpe,f,民生路423弄,121.54259938778479,31.23995068363333
10galpf,f,民生路818弄,121.54610219565379,31.23160742432665
10galpg,f,民唐路秦家港路交界口工地生活区,121.66540861387347,31.261199079150952
10galph,f,民同路290弄,121.65274311586772,31.270623998785847
10galpi,f,民同路40弄,121.65105684057936,31.272671112423996
10galpj,f,民耀路268弄,121.65271593635777,31.272731180363646
10galpk,f,民耀路358弄,121.65404745769725,31.268470659875085
10galpl,f,民耀路97弄,121.6532188157209,31.274459721633775
10galpm,f,民耀路98弄,121.65131399733778,31.27396853104768
10galpn,f,民义村,121.6986518401965,31.12770311029415
10galpo,f,民治村,121.63174302865816,31.112097401917783
10galpp,f,民众村运河西,121.67092997777233,31.276160254769575
10galpq,f,闵家浜路60弄,121.72187070905802,31.074840134287605
10galpr,f,明星村,121.7675910453674,31.126946347639965
10galps,f,牟平路384弄,121.60008465825258,31.261325797910246
10galpt,f,牟平路56弄,121.59631230983508,31.267042546885087
10galpu,f,牡丹路186弄,121.54663773450561,31.20600608030646
10galpv,f,暮二村北费家宅,121.67622570383817,31.218334250489
10galpw,f,暮二村梅家宅,121.67635230154582,31.218110706889405
10galpx,f,暮二村小丁家宅,121.67599351115214,31.218222275215716
10galpy,f,南曹路901弄,121.66246157139726,31.204657467172517
10galpz,f,南阜村东汤队东汤家宅,121.5111357175615,31.14297668310793
10galq0,f,南阜村东汤队周家宅,121.69845815515062,31.226165734599647
10galq1,f,南阜村高树队西汤家宅,121.5189216020677,31.132535970082074
10galq2,f,南阜村红光队顾家宅,121.51756197961683,31.130665334573813
10galq3,f,南阜村红光队南孙家宅,121.52105249562698,31.13051859467816
10galq4,f,南阜村九思队九思堂,121.515273406174,31.127574696697135
10galq5,f,南港大道1121弄,121.94085331190053,30.87187423170135
10galq6,f,南粮新村,121.76145885526344,31.048078878357916
10galq7,f,南林路734弄,121.5250954496337,31.138522184178175
10galq8,f,南六公路399弄,121.71307669850681,31.061422702782814
10galq9,f,南芦公路1831号,121.82918255589966,30.89982658125252
10galqa,f,南码头路1136弄,121.5141206073674,31.183613705089332
10galqb,f,南码头路1288弄,121.51395426035593,31.18209764764119
10galqc,f,南码头路1316弄,121.51285160486805,31.180575656707397
10galqd,f,南码头路1453弄,121.51649309189968,31.178643012688294
10galqe,f,南码头路1675弄,121.51410499029357,31.174758828942434
10galqf,f,南码头路1696弄,121.51457064451378,31.17583106854925
10galqg,f,南码头路193弄,121.50937416806218,31.19950894193612
10galqh,f,南码头路451弄,121.51109453732322,31.19542836898108
10galqi,f,南桥路237弄,121.70884713896537,31.19164113550521
10galqj,f,南桥路297弄,121.70733881449289,31.191542068684107
10galqk,f,南泉北路101弄,121.51482390015991,31.237404180875508
10galql,f,南泉北路1040弄,121.52017992469911,31.226059375332245
10galqm,f,南泉路1111弄,121.52337550295383,31.214452212499666
10galqn,f,南泉路1241弄,121.5229089205054,31.212714363130925
10galqo,f,南泉路1300弄,121.51999871227949,31.21085487802621
10galqp,f,南泉路1320弄,121.52044971734091,31.210511768276657
10galqq,f,南塘村龚家宅,121.56831780366618,31.33819836377438
10galqr,f,南塘村顾家宅,121.56824405419769,31.339181456981354
10galqs,f,南团公路858弄,121.7622155678886,31.026811671591375
10galqt,f,南新村东钟家宅,121.54220383091968,31.166400815359015
10galqu,f,南新村吴家宅,121.78878069026747,30.871621669400618
10galqv,f,南新村西钟家宅,121.78854310467983,30.871891356338626
10galqw,f,南新村徐家宅,121.68374372730679,31.257433773467355
10galqx,f,南新村杨家湾,121.54344275180065,31.16595305133713
10galqy,f,南新村赵家厍,121.54313190443088,31.166051874307982
10galqz,f,南行街88号,121.5444779021987,31.221372369738333
10galr0,f,南园路287弄,121.74687883860437,31.027848749378308
10galr1,f,倪桥村,121.61128041560478,31.01947168638829
10galr2,f,年家浜东路129弄,121.59365356218183,31.11525917059542
10galr3,f,年家浜路28弄,121.58568203229278,31.11504941190524
10galr4,f,年家浜路339弄,121.5764180080312,31.114198174868985
10galr5,f,年家浜路366弄,121.5765661413156,31.115310224723085
10galr6,f,年家浜路371弄,121.57419028024763,31.113917801921854
10galr7,f,宁德路718弄,121.53467077833498,31.029864924772887
10galr8,f,宁阳路7弄,121.51788849463027,31.21290071777392
10galr9,f,牛肚村,121.82352553029033,31.041810413331397
10galra,f,牛桥村,121.59911681455557,31.101378648129607
10galrb,f,农科路21弄,121.44842626609568,31.16781579685208
10galrc,f,牌楼村北祝家宅,121.55849395561154,31.052776357718788
10galrd,f,牌楼东路33号,121.64863337876169,31.024628153495094
10galre,f,牌楼东路528弄,121.65572861892653,31.02557306471026
10galrf,f,鹏岳路152弄,121.55361338066837,31.17059058744323
10galrg,f,鹏岳路70弄,121.55296500624455,31.174214386913967
10galrh,f,平桥村,121.67606510177758,31.11092770339243
10galri,f,浦城路366弄,121.5128621625886,31.22793578483417
10galrj,f,浦城路580弄,121.51489350586996,31.22446549619085
10galrk,f,浦电路138弄,121.52209316753739,31.219293196688685
10galrl,f,浦电路149弄,121.52123638959809,31.21797830185124
10galrm,f,浦电路218号,121.52334367320462,31.219897135118636
10galrn,f,浦电路221号,121.52371377205942,31.21853202858399
10galro,f,浦电路29弄,121.51468226340258,31.2163821984127
10galrp,f,浦电路328号,121.52620820350747,31.221175604650657
10galrq,f,浦电路330弄,121.52658669277481,31.221218888412295
10galrr,f,浦电路489号工地生活区,121.533024129244,31.22683770787282
10galrs,f,浦电路48弄,121.5173497777274,31.218302921469697
10galrt,f,浦东北路4588弄,121.56288976066877,31.347333866494075
10galru,f,浦东北路4646弄,121.56111270327011,31.34797855357825
10galrv,f,浦东大道1000弄,121.53356879654405,31.24159397128061
10galrw,f,浦东大道1097弄,121.53188735722411,31.24346158465595
10galrx,f,浦东大道136弄,121.51352934101013,31.237909724767455
10galry,f,浦东大道1460弄,121.53634334245362,31.24226729858753
10galrz,f,浦东大道1476号,121.5361560761972,31.242415442458896
10gals0,f,浦东大道1615弄,121.54157739325926,31.246080095389264
10gals1,f,浦东大道1623弄,121.54214361024735,31.2459635163217
10gals2,f,浦东大道1695弄,121.54419376220712,31.246100526247496
10gals3,f,浦东大道1700弄,121.54377680395577,31.245058095570617
10gals4,f,浦东大道1819弄,121.54553978203705,31.247254429725764
10gals5,f,浦东大道1851弄,121.54495140379929,31.24759672777611
10gals6,f,浦东大道2406弄,121.55676537460117,31.255394947574977
10gals7,f,浦东大道2511弄,121.55946242845982,31.25969159816671
10gals8,f,浦东大道2554号,121.56303437305513,31.258990990098344
10gals9,f,浦东大道2639弄,121.5674904580567,31.26387210282668
10galsa,f,浦东大道2641弄,121.5664441639849,31.263702242374364
10galsb,f,浦东大道2748弄,121.57286941143575,31.267908161413764
10galsc,f,浦东大道2894号,121.5765607169689,31.272676161544542
10galsd,f,浦东大道290弄,121.51714068980209,31.23910534661592
10galse,f,浦东大道2920弄,121.57831875759666,31.273665567781904
10galsf,f,浦东大道2970弄,121.58114734206946,31.276799201224335
10galsg,f,浦东南路1036号,121.5151739151402,31.229056813825366
10galsh,f,浦东南路1288号,121.5166203892735,31.22541773265698
10galsi,f,浦东南路1349号,121.51759727818826,31.225295831944784
10galsj,f,浦东南路1475弄,121.51856491729117,31.22222992009615
10galsk,f,浦东南路1533号,121.52082133214434,31.22064084789867
10galsl,f,浦东南路1700弄,121.51812383114219,31.217827470249237
10galsm,f,浦东南路1862弄,121.5175988753793,31.215767731898975
10galsn,f,浦东南路2169号,121.51668065505615,31.207043434272027
10galso,f,浦东南路2192弄,121.51342467348819,31.20680904158209
10galsp,f,浦东南路2351弄,121.51211720354051,31.197353185823047
10galsq,f,浦东南路3405弄,121.50887526719897,31.193853742731456
10galsr,f,浦东南路3606弄,121.50454340931614,31.190525166099793
10galss,f,浦东南路3885弄,121.50466827637688,31.183175822564042
10galst,f,浦东南路575弄,121.51238053219231,31.2365190611364
10galsu,f,浦东南路978号,121.51459294604909,31.230485768771807
10galsv,f,浦建路1569号,121.54701531945112,31.201065073671167
10galsw,f,浦建路60弄,121.51819615377028,31.207290138454855
10galsx,f,浦建路725弄,121.53083521263645,31.20954827819176
10galsy,f,浦建路83弄,121.52042236193026,31.21070878604957
10galsz,f,浦明路1199弄,121.5167575471173,31.214000737221905
10galt0,f,浦瑞路509弄,121.48982981308978,31.077530015786593
10galt1,f,浦三路12弄,121.51059784231374,31.196756054927388
10galt2,f,浦三路277弄,121.51455051886163,31.193917225576605
10galt3,f,浦三路2801弄,121.53820344741705,31.15499847311238
10galt4,f,浦三路288弄,121.51370546175501,31.192679465302295
10galt5,f,浦三路635弄,121.51791375823682,31.18911820838067
10galt6,f,浦三路657号,121.51687461984386,31.187672267034216
10galt7,f,浦三路775弄,121.5194272993689,31.18429051176382
10galt8,f,浦三路786弄,121.518659585105,31.183421363921873
10galt9,f,浦三路817弄,121.52056147975681,31.186177100459176
10galta,f,浦三路秀浦路交界口工地生活区,121.60305599094515,31.12956892568739
10galtb,f,普庆路301弄,121.7238691585588,31.156565400346157
10galtc,f,栖山路100弄,121.5437946257879,31.241738247677322
10galtd,f,栖山路1088弄,121.55874098695172,31.252923074990264
10galte,f,栖山路1299弄,121.56049482676238,31.255586046695285
10galtf,f,栖山路1300弄,121.5612569615338,31.254439312851694
10galtg,f,栖山路130弄,121.54482360186186,31.242931347272457
10galth,f,栖山路1555弄,121.5649996691709,31.257532865332713
10galti,f,栖山路1636弄,121.5683168100254,31.25763514449996
10galtj,f,栖山路1689弄,121.56788089137609,31.259475078365142
10galtk,f,栖山路1861弄,121.57049830604176,31.262096874014524
10galtl,f,栖山路1899弄,121.57247645472447,31.262026526942336
10galtm,f,栖山路400弄,121.5507264987202,31.246105334061095
10galtn,f,栖山路401弄,121.54962633178583,31.246763095394186
10galto,f,栖山路友林路交界口工地生活区,121.56897748514625,31.259522892110002
10galtp,f,栖霞路190弄,121.51879898354616,31.23706730832936
10galtq,f,栖霞路268号,121.52215259847547,31.237794178313948
10galtr,f,栖霞路286号,121.5220228270672,31.238254153965077
10galts,f,栖霞路86号,121.51769130546664,31.23611116548617
10galtt,f,齐河路10弄,121.499737772497,31.1774295252152
10galtu,f,齐河路257弄,121.50343314347099,31.180911128715163
10galtv,f,齐河路259弄,121.5039238714752,31.18086373318073
10galtw,f,齐河路28弄,121.50217326992882,31.17851199458174
10galtx,f,齐恒路159号,121.5210521207435,31.18670312357807
10galty,f,其成村,121.68785228998162,31.11236512577622
10galtz,f,棋杆村,121.66650931632816,31.113226743476876
10galu0,f,启明村陈家宅,121.69625839198783,31.25977124301139
10galu1,f,启明村毛家弄,121.69283426453998,31.276774348787608
10galu2,f,启明村杨家宅,121.6948155407696,31.276910168364473
10galu3,f,启明村庄家宅,121.69505093263258,31.27697062683213
10galu4,f,千汇路1000弄,121.55769142041734,31.203097166339504
10galu5,f,千汇路1280弄,121.7622812006127,31.127348642874967
10galu6,f,前锋村夹路村宅,121.69520444109926,31.27191711756091
10galu7,f,前锋村陆家宅,121.65729818170952,31.258142654049067
10galu8,f,前进村顾家宅,121.65084475477909,31.19752796668892
10galu9,f,前进村唐家新村,121.63858097852277,31.2031611571268
10galua,f,前哨村包家宅,121.75784321631998,31.199798445478017
10galub,f,前哨村马家宅,121.73398476770795,31.240871216885623
10galuc,f,前哨路198弄,121.7208590771609,31.239438960962488
10galud,f,前哨路288弄,121.72286210343533,31.239450804056272
10galue,f,钱仓路402弄,121.52101147040055,31.238885101381626
10galuf,f,钱堂村长浜宅,121.59118511764711,31.155371367996338
10galug,f,乔家浜路81弄,121.70237462447969,31.195520957289848
10galuh,f,桥弄村顾家宅,121.65468225175832,31.176631766819092
10galui,f,桥弄村金家宅,121.58656385654798,31.124856904180554
10galuj,f,桥弄村开源宅,121.65138728850843,31.182801698484163
10galuk,f,桥西村计家宅,121.65797263840524,31.291523081641497
10galul,f,勤奋村陈家宅,121.72741681572718,31.24286960551971
10galum,f,勤奋村黄家宅,121.57093936953434,31.18213734291239
10galun,f,勤奋村卫家宅,121.72175313002296,31.260756066243474
10galuo,f,勤奋村徐家宅,121.7069988912684,31.208191483606477
10galup,f,勤奋村颜家宅,121.78957530874075,30.996069946932163
10galuq,f,勤奋村张家宅,121.72206222725809,31.255255645029127
10galur,f,勤俭村秦家宅,121.72399000397837,31.20393702193327
10galus,f,勤星村,121.76043502922904,31.095478970339368
10galut,f,勤益村北顾家宅,121.54533613703263,31.177608997434255
10galuu,f,勤益村东周家宅,121.71020263737358,31.22047161872837
10galuv,f,勤益村陆家宅,121.71044766762128,31.20922592641138
10galuw,f,勤益村徐家宅,121.70712087935127,31.208529175354997
10galux,f,勤政路88弄,121.62453412679244,31.17323522111545
10galuy,f,青三村孙家宅,121.85140830753527,30.999219241489897
10galuz,f,青厦路200弄,121.6848381872915,31.196814767976633
10galv0,f,青四村蔡家宅,121.79847881680935,31.07788583610327
10galv1,f,青四村南沈家宅,121.74454479055615,31.22991946854916
10galv2,f,青桐路18弄,121.61921126297545,31.217712018473534
10galv3,f,青艺路181弄,121.6798678852504,31.196578466053783
10galv4,f,清溪路260弄,121.57216454096327,31.343730251532126
10galv5,f,清溪路430号,121.57066777080428,31.340648572884934
10galv6,f,情谊路38号,121.69165361625664,31.197054229962728
10galv7,f,庆滨路155弄,121.72396615867964,31.232052146598495
10galv8,f,庆丰村东新宅,121.72063511371297,31.241101194568728
10galv9,f,庆丰村顾家宅,121.71717236420753,31.24109724004301
10galva,f,庆丰村唐家宅,121.58307164173746,31.161266270846475
10galvb,f,庆丰村吴家宅,121.63154270332289,31.179797908935363
10galvc,f,庆丰村姚家宅,121.57641682665684,31.184687542089844
10galvd,f,庆丰村朱家宅,121.70621683134847,31.224258923062468
10galve,f,庆利路185弄,121.72558504760362,31.23578982904872
10galvf,f,庆利路425弄,121.7273358646356,31.232377235770468
10galvg,f,庆星村丁家码头,121.71916858505988,31.232737563682885
10galvh,f,庆星村费家宅,121.74336994869653,31.157445190700912
10galvi,f,庆星村高家宅,121.65923703506297,31.168236597654264
10galvj,f,庆星村顾家宅,121.71531774720918,31.204404302729188
10galvk,f,庆星村凌家码头,121.72130310398197,31.231641313446573
10galvl,f,庆星村夏家宅,121.85710097409094,30.950460368581286
10galvm,f,庆星村薛家宅,121.50706646851606,31.14252679755539
10galvn,f,庆星村张家宅,121.6863538546863,31.217434017339123
10galvo,f,秋岚路251弄,121.59360326863013,31.328556787595065
10galvp,f,秋岚路58弄,121.59108780283948,31.32581452970455
10galvq,f,秋亭路88弄,121.76207901477171,31.097519957605392
10galvr,f,秋霞路300弄,121.58604753105443,31.33530174707052
10galvs,f,群乐村付家圈,121.68223630082682,31.281727807592976
10galvt,f,群乐村张家宅,121.68088656882036,31.283673819373142
10galvu,f,人民东路2437弄,121.77802382989584,31.04834079444955
10galvv,f,人民东路3185号,121.75810528993397,31.048747707057178
10galvw,f,人民西路128号,121.75166532737711,31.049707108309693
10galvx,f,人民西路87号,121.75295272145088,31.048400777485455
10galvy,f,仁义村,121.64077919051911,31.058544564606848
10galvz,f,日新村北万家宅,121.66853123500218,31.258367606789644
10galw0,f,日新村南房宅,121.6683584560654,31.258547921084826
10galw1,f,日新村南万家宅,121.66823878268171,31.25828635868218
10galw2,f,日新村杨薛家宅,121.66839271874494,31.258574939645246
10galw3,f,荣成路85弄,121.51801540697865,31.24080172241994
10galw4,f,乳山路114弄,121.52159811315192,31.23431644906323
10galw5,f,乳山路160弄,121.52510682540806,31.235576572242664
10galw6,f,乳山路161弄,121.52081018089441,31.23640597299488
10galw7,f,乳山路200弄,121.52902587958765,31.237843012754098
10galw8,f,乳山路313弄,121.52122476509022,31.240119229414827
10galw9,f,瑞安路211弄,121.59027727818061,31.09121026253149
10galwa,f,瑞安路700弄,121.6014642569746,31.091644083686695
10galwb,f,瑞安路80弄,121.58796256578799,31.08910395477779
10galwc,f,瑞福路196弄,121.60324374513742,31.096040714277517
10galwd,f,瑞和路269弄,121.5885557278342,31.087264663864367
10galwe,f,瑞和路555弄,121.59541199758598,31.09063636907114
10galwf,f,瑞和路900弄,121.60316826992987,31.08845089906176
10galwg,f,瑞和路935弄,121.6034656287736,31.089212903348233
10galwh,f,瑞浦路77弄,121.58742907166831,31.097772990545305
10galwi,f,瑞浦路8弄,121.58544326419302,31.09863987612225
10galwj,f,瑞阳路351弄,121.59010723303756,31.094872883961802
10galwk,f,瑞阳路693弄,121.59048641842195,31.089285930598056
10galwl,f,瑞阳路81弄,121.5883261572964,31.09906560123432
10galwm,f,瑞意路399弄,121.5873779276905,31.095980149650075
10galwn,f,三八村,121.77214298331792,31.097060359124338
10galwo,f,三八路94弄,121.75918596433706,31.047905270444637
10galwp,f,三彩路166弄,121.49787722054089,31.12369948732097
10galwq,f,三彩路52弄,121.49734083718917,31.126108046651545
10galwr,f,三彩路59弄,121.49897001885884,31.126464850063005
10galws,f,三林村南行队金家宅,121.58665386723658,31.125230873782545
10galwt,f,三林路1300弄,121.518174681438,31.14393946833902
10galwu,f,三林路168号,121.49603738378973,31.13557539325181
10galwv,f,三林路184号,121.49609135125183,31.136210079110676
10galww,f,三林路200号,121.49628874888505,31.136782397375125
10galwx,f,三林路235号,121.49635960755707,31.138069243542986
10galwy,f,三林路380号,121.49931403736922,31.138802033301126
10galwz,f,三林路430弄,121.50086100327583,31.138430357779317
10galx0,f,三林路788弄,121.50800033408841,31.141577494949484
10galx1,f,三三公路5020弄,121.90756958898879,30.953036067392496
10galx2,f,三舒路181弄,121.50517958012779,31.1228145751472
10galx3,f,三舒路33弄,121.50412158721937,31.125880998186584
10galx4,f,三舒路62弄,121.50287139064886,31.124784053953526
10galx5,f,三新路5弄,121.5066497650544,31.139174192746136
10galx6,f,三旋路506弄,121.50267327792557,31.119363836233585
10galx7,f,三灶村诸家宅,121.7118344143501,31.07008838418881
10galx8,f,三灶路451弄,121.6405443986928,31.179400130547076
10galx9,f,沙北村,121.59254019425683,31.051142844498006
10galxa,f,沙东村,121.61421190287112,31.05678061950441
10galxb,f,商城路1028弄,121.52662502721138,31.231095150946157
10galxc,f,商城路1288号工地生活区,121.53313211978904,31.22710560732157
10galxd,f,商城路48弄,121.59537262179448,31.028594060624773
10galxe,f,商城路918弄,121.52334186266016,31.232075997159342
10galxf,f,商城路991弄,121.52412091058447,31.23449614317755
10galxg,f,上川路538号,121.64649377947538,31.27280215428203
10galxh,f,上川路620号,121.64812165363719,31.273676935442314
10galxi,f,上丰路1483弄,121.6724859289733,31.242998808663145
10galxj,f,上南路1000弄,121.49408475644087,31.174565340473446
10galxk,f,上南路1251弄,121.49707252224528,31.173546629743168
10galxl,f,上南路1500弄,121.49499313659601,31.17000462723977
10galxm,f,上南路1551弄,121.49716581085292,31.170060737343057
10galxn,f,上南路3848弄,121.50255961996297,31.15080751003581
10galxo,f,上南路3880弄,121.5037284237897,31.149717707482814
10galxp,f,上南路3881弄,121.50645489820343,31.150302527298678
10galxq,f,上南路3899弄,121.50338282180333,31.153028932770134
10galxr,f,上南路4939号,121.51744650472375,31.133572690952377
10galxs,f,上南路5588号,121.52705943351712,31.124723947751296
10galxt,f,上南路6333弄,121.54924064854181,31.11919881682417
10galxu,f,上南路6500弄,121.54765600071696,31.11730421475798
10galxv,f,上南路6733弄,121.56269915136298,31.12028985752218
10galxw,f,上南路6932弄,121.56824073012801,31.116731451743945
10galxx,f,上南路7718弄,121.5702970544762,31.116897611577354
10galxy,f,上南路7992弄,121.57501630425779,31.117592910665397
10galxz,f,上南路929弄,121.49602599550057,31.176756159493024
10galy0,f,上南路东明路交界口工地生活区,121.54871942500009,31.204561569446923
10galy1,f,上浦路505弄,121.49910553538389,31.147399476662397
10galy2,f,上浦路510弄,121.49957731157114,31.145947818185057
10galy3,f,尚博路129弄,121.51027049566723,31.146542920696717
10galy4,f,少年路40弄,121.75692219133077,31.04608671209316
10galy5,f,邵村村,121.73702891121837,31.004790083859145
10galy6,f,申波路83弄,121.56742468428413,31.19224816452789
10galy7,f,申江路轲桥路交界口工地生活区,121.62968908982673,31.285335714099453
10galy8,f,申江南路7677弄,121.65606250951555,31.034323931555893
10galy9,f,沈家弄路900弄,121.54603001242907,31.2388168323342
10galya,f,沈家弄路901弄,121.54696705700553,31.239052080436302
10galyb,f,沈家弄路936号,121.54703379074309,31.24004715791206
10galyc,f,沈西村,121.56553262142613,31.090151089545614
10galyd,f,沈庄村,121.58449026203515,31.086000309606508
10galye,f,胜利路167弄,121.68807356320558,31.244764359479724
10galyf,f,胜利路169弄,121.68780235213853,31.245098781157665
10galyg,f,胜利路171弄,121.68926324753983,31.24447035756307
10galyh,f,胜利路30弄,121.6860611359905,31.243124216360176
10galyi,f,盛夏路1107弄,121.63489726998245,31.197943565058672
10galyj,f,盛苑路777弄,121.53042868464291,31.1580272122394
10galyk,f,施湾二路766弄,121.74659569463095,31.14635823026204
10galyl,f,施湾三路1106弄,121.75049610822587,31.13927447403008
10galym,f,施镇路385弄,121.75795555732681,31.143735307992127
10galyn,f,石门村,121.63477182349979,31.13106892986371
10galyo,f,石皮路75弄,121.70297511760063,31.196097414036267
10galyp,f,石油新村翟家宅,121.56253388310148,31.348585567006374
10galyq,f,世博家园大道站路94弄,121.53513445562277,31.163234968488474
10galyr,f,世纪大道杨高南路交界口工地生活区,121.53317098574885,31.22672984906201
10galys,f,寿光路161弄,121.58402102807449,31.274369676984517
10galyt,f,寿光路31弄,121.5832296256216,31.273513930251713
10galyu,f,寿光路75弄,121.58428098468715,31.273176602193466
10galyv,f,寿光路78弄,121.5858401456083,31.272586261799894
10galyw,f,双桥路1139弄,121.61420700097484,31.285183104365156
10galyx,f,双桥路180弄,121.59464943841617,31.284511512438815
10galyy,f,水洞港路69弄,121.66567728614689,31.294670801363996
10galyz,f,水闸南路330号,121.76320661465137,31.15125357706259
10galz0,f,顺和路126弄,121.62614833805657,31.185819490327688
10galz1,f,思浦路13弄,121.49320159142172,31.159362267026808
10galz2,f,思浦路17弄,121.49340459090503,31.15852871562207
10galz3,f,思浦路6弄,121.49426362261339,31.15882184725048
10galz4,f,四墩村,121.7771096271671,31.01451786949243
10galz5,f,松林路88弄,121.52850306242391,31.23261761539877
10galz6,f,孙环路377弄,121.6402777218375,31.181448901665973
10galz7,f,孙建路111弄,121.62614313860799,31.181565818034443
10galz8,f,孙农路397弄,121.62702869398687,31.176709888560136
10galz9,f,孙农路398弄,121.62574219743651,31.17660520454074
10galza,f,孙桥路306弄,121.62992458813508,31.180163318318463
10galzb,f,孙耀路111弄,121.63727656962723,31.183747746960073
10galzc,f,孙耀路128弄,121.63357975323098,31.18514851317954
10galzd,f,台儿庄路363弄,121.59654252227769,31.25952071828225
10galze,f,台儿庄路663弄,121.59803683109462,31.255421875818787
10galzf,f,谈弄村,121.55287523518675,31.061463388860325
10galzg,f,坦北村,121.6455664702594,31.083845885506697
10galzh,f,坦南新村,121.65428161465583,31.076250841892342
10galzi,f,坦西村,121.63375712490647,31.074311220933247
10galzj,f,汤巷村,121.60396956181759,31.147356366459583
10galzk,f,唐港路1059弄,121.86403974826518,30.977135247804974
10galzl,f,唐四村孙家老宅,121.66281850267221,31.219134365569722
10galzm,f,唐镇路127弄,121.64962297897216,31.207280787608976
10galzn,f,唐镇路366弄,121.65501779152008,31.208966191988843
10galzo,f,塘北村,121.88010346877579,30.909389352698366
10galzp,f,塘桥二村,121.52136472909362,31.211635336179608
10galzq,f,塘桥路551号,121.5206258610625,31.212045202051176
10galzr,f,桃林路299弄,121.5380736178431,31.239492117749208
10galzs,f,腾波路沛丰路交界口工地生活区,121.51661668181293,31.22262988057473
10galzt,f,天花庵村北陈队大陈家宅,121.5207272500562,31.12453814345215
10galzu,f,天花庵村东瞿队大瞿家宅,121.53448378858624,31.12287982680159
10galzv,f,天花庵村乐耕队,121.52188613078455,31.126950332801986
10galzw,f,天花庵村闵北队闵家宅,121.53314650582507,31.122827853372552
10galzx,f,天花庵村闵家队闵家宅,121.53264579544121,31.12340183135817
10galzy,f,天花庵村闵西队闵家宅,121.53214151418443,31.121686033772306
10galzz,f,天花庵村南陈队大陈家宅,121.52386448593828,31.12263035106735
10gam00,f,天花庵村南周家队大周家宅,121.53418115968049,31.122671070518397
10gam01,f,天花庵村卫家队卫家宅,121.52587715877847,31.12712387515599
10gam02,f,听潮路69弄,121.74184742719959,31.04553891411097
10gam03,f,听康路190弄,121.74632208916537,31.06752281742634
10gam04,f,听康路79弄,121.7377844100586,31.069583838637048
10gam05,f,听民路242弄,121.75951885609085,31.068269297620564
10gam06,f,听悦路1101弄,121.73704642884177,31.063208691058094
10gam07,f,听悦路686弄,121.73859749588131,31.054745881208543
10gam08,f,听悦路960弄,121.73963849058724,31.060232762710164
10gam09,f,亭中村,121.77213069778831,31.097213364731452
10gam0a,f,庭安路825弄,121.5952192576678,31.325943627047383
10gam0b,f,通济路328弄,121.74729461752815,31.052075199939065
10gam0c,f,通济路365弄,121.74573715848815,31.05205437042339
10gam0d,f,通源东路66号,121.8922261537255,31.005030347176433
10gam0e,f,团结村,121.77814681803453,31.021737601544906
10gam0f,f,外灶村,121.86954184965106,30.95024446469677
10gam0g,f,万德路52弄,121.55720778708317,31.248746521221896
10gam0h,f,万德路67弄,121.55992502216563,31.249727625087658
10gam0i,f,万六村,121.81976748626542,30.968304443596065
10gam0j,f,王楼村,121.61791385460525,31.068515366743682
10gam0k,f,王厅村,121.72073206585634,30.987242161866565
10gam0l,f,微山二村,121.5136281153863,31.208216602152024
10gam0m,f,微山新村,121.51547001590706,31.209522546549284
10gam0n,f,潍坊路122号,121.52318135314943,31.22481600304499
10gam0o,f,潍坊路126弄,121.52387959501647,31.22174800559812
10gam0p,f,潍坊路140弄,121.5250494343573,31.22546231900836
10gam0q,f,潍坊路154弄,121.52547709587608,31.224146387852755
10gam0r,f,潍坊路158号,121.5261079760035,31.2256219390845
10gam0s,f,潍坊路168弄,121.52748247620457,31.2255652160504
10gam0t,f,潍坊路262号,121.53305632796274,31.22768138498781
10gam0u,f,潍坊路270弄,121.53389864749204,31.227786375452165
10gam0v,f,潍坊路333弄,121.52745295503671,31.22624758715516
10gam0w,f,潍坊路606号,121.52223250909886,31.222792261684667
10gam0x,f,潍坊路716号,121.52101277718677,31.22357324047529
10gam0y,f,潍坊路89弄,121.51897201604477,31.225333727329463
10gam0z,f,潍坊西路100弄,121.5165010086421,31.222432386767355
10gam10,f,潍坊西路1弄,121.51276782892093,31.222837458493963
10gam11,f,潍坊新村,121.5242656181724,31.220960276462666
10gam12,f,卫行村顾家队顾家宅,121.58268531813042,31.166978898205794
10gam13,f,卫行村张浜队曹家宅,121.58238245888774,31.165691642985525
10gam14,f,卫行村张浜队南顾家宅,121.58134536983917,31.165519113952918
10gam15,f,卫行村张浜队王家宅,121.67873816893118,31.165722044538533
10gam16,f,卫行村张浜队杨家宅,121.57986443150347,31.165843909930228
10gam17,f,卫行村朱家队朱家宅,121.58286420744342,31.16142396243421
10gam18,f,吴店村孙家宅,121.8513934893398,30.99919772364392
10gam19,f,吴店村西乔家宅,121.72863227954082,31.136561928073622
10gam1a,f,五莲路100弄,121.57925009642462,31.275515896602855
10gam1b,f,五莲路108弄,121.59991758380153,31.281846445094477
10gam1c,f,五莲路1168号,121.59631666267286,31.272202724477893
10gam1d,f,五莲路1186号,121.59605655024536,31.272981612359548
10gam1e,f,五莲路1424弄,121.59941543401916,31.27693410718705
10gam1f,f,五莲路201弄,121.58162764825485,31.27465166353241
10gam1g,f,五莲路30弄,121.57783552073663,31.275421173160165
10gam1h,f,五莲路759弄,121.5903943842379,31.270633020829425
10gam1i,f,五莲路780弄,121.5908691354141,31.268814199372255
10gam1j,f,五莲路959弄,121.59220145122946,31.271655546285103
10gam1k,f,五四村沈孙家宅,121.65146038668976,31.25434356850063
10gam1l,f,五四村唐朱家宅,121.65756691865992,31.251354856416338
10gam1m,f,五星村陈家队陈家宅,121.56745227713343,31.19193070281804
10gam1n,f,五星村陈家队奚家宅,121.55046220922296,31.15612486720795
10gam1o,f,五星村东平队秦家宅,121.5695413739865,31.190205575431573
10gam1p,f,五星村家务队顾家宅,121.56996153112235,31.169290014831976
10gam1q,f,五星村三联队黄家宅,121.57075737554469,31.182158528706413
10gam1r,f,五星村吴家队吴家宅,121.63150334438747,31.179987596981075
10gam1s,f,五星村徐家队顾家宅,121.57118120381126,31.16522334478699
10gam1t,f,五星路151弄,121.5625585552387,31.174069420074172
10gam1u,f,西林村任桥队奚家宅,121.69689424562615,31.220372115587626
10gam1v,f,西林村西林队金家宅,121.58682889901118,31.12509302027965
10gam1w,f,西门村,121.74163986380177,31.05469774055545
10gam1x,f,西门路121弄,121.74488451541382,31.0464379241057
10gam1y,f,西门路369号,121.74748784544731,31.049979528457378
10gam1z,f,西门路7号,121.74379706623802,31.04740010258559
10gam20,f,西南弄35弄,121.65141120109548,31.108003322676932
10gam21,f,西三里桥路9弄,121.50651301683837,31.199703040697447
10gam22,f,西沙村,121.8216985120757,31.05497949564217
10gam23,f,西泰林路158弄,121.53142061397861,31.152519632498205
10gam24,f,西泰林路750弄,121.53817619843282,31.142679384516075
10gam25,f,西泰林路901弄,121.53935063137065,31.144305572201432
10gam26,f,西营路170弄,121.48492313367865,31.16515579934616
10gam27,f,西营路33弄,121.48506973639059,31.1711897966602
10gam28,f,西营路44弄,121.48210472501081,31.17055565527205
10gam29,f,西营南路11弄,121.48496006410889,31.161583663921014
10gam2a,f,西营南路6弄,121.48617285203473,31.16212878167796
10gam2b,f,奚家村奚家宅,121.55064460989138,31.15603769835372
10gam2c,f,下南路161弄,121.54428105286004,31.16721348826655
10gam2d,f,下南路225弄,121.54291448109097,31.168283103864063
10gam2e,f,下南路276弄,121.54195758876706,31.168319493395362
10gam2f,f,下南路320弄,121.54060999123904,31.16860785024404
10gam2g,f,下南路339弄,121.54251331962233,31.169529398951674
10gam2h,f,下南路398号,121.54033557058288,31.17080805679817
10gam2i,f,下南路500弄,121.53899027839739,31.17226625891163
10gam2j,f,下南路501弄,121.54104407906037,31.172206152782667
10gam2k,f,下南路518弄,121.53946686898738,31.172573913674295
10gam2l,f,下南路526弄,121.53858487407575,31.17119840123154
10gam2m,f,下南路551弄,121.54191764127258,31.173131349869838
10gam2n,f,下盐路2800弄,121.67419016087456,31.06640834476852
10gam2o,f,夏栎路333弄,121.91382585325458,30.912363419118577
10gam2p,f,先锋村卢家宅,121.63161255606339,31.30820655047038
10gam2q,f,先锋村王朱家宅,121.62975643396138,31.30523042799599
10gam2r,f,先锋村西周家宅,121.63339380601315,31.304528758180464
10gam2s,f,先进村,121.80375784845877,31.096576116193273
10gam2t,f,祥安路228弄,121.81083209875251,30.962151491399652
10gam2u,f,向东村顾家宅,121.74399534037451,31.23337936417739
10gam2v,f,向东村宋家宅,121.86030492232571,31.0262816705631
10gam2w,f,向东村唐家宅,121.58268900826808,31.161443409831545
10gam2x,f,项文路333弄,121.70590578113664,31.047467962804966
10gam2y,f,小包新村,121.64717628272247,31.232057499324142
10gam2z,f,小南码头路4弄,121.51083708825773,31.208093346511212
10gam30,f,小湾村北张家宅,121.70548639651442,31.140300597839577
10gam31,f,小湾村第二新村,121.68916424205828,31.23149754687839
10gam32,f,小湾村东张家宅,121.72049515540846,31.215009286049845
10gam33,f,小湾村奚家宅,121.55026180963002,31.156394233906298
10gam34,f,小湾新村,121.68859185868796,31.232897918727
10gam35,f,小园浜路88弄,121.57955450688793,31.3522711173421
10gam36,f,新浜村陈家宅,121.56533087140753,31.176915605636196
10gam37,f,新场村姚家宅,121.57620655541965,31.184425946947513
10gam38,f,新陈路150弄,121.56052591346838,31.178728973050863
10gam39,f,新川路190弄,121.70601286937526,31.19538406824584
10gam3a,f,新川路640弄,121.69406559945561,31.19184104919984
10gam3b,f,新川路709弄,121.69214085540418,31.19052044233382
10gam3c,f,新川路742弄,121.69197969619482,31.190846779877862
10gam3d,f,新川路995弄,121.68686467245342,31.18864921761887
10gam3e,f,新春村方家队许家宅,121.48773797437838,31.13015189687213
10gam3f,f,新春村黄家宅,121.57081651634272,31.181935764261745
10gam3g,f,新春村南王家宅,121.52805376834907,31.13309786042144
10gam3h,f,新春村赵孟家宅,121.69341822063238,31.15884440498936
10gam3i,f,新德路330弄,121.69846253314931,31.19771030091697
10gam3j,f,新德路365弄,121.6977906694231,31.197062868710432
10gam3k,f,新德路440弄,121.69430494685254,31.197551054610404
10gam3l,f,新德路506弄,121.69343620736399,31.196950040222514
10gam3m,f,新德路558弄,121.69246601165354,31.197138228218762
10gam3n,f,新德路602弄,121.69115038506497,31.197890149418274
10gam3o,f,新德路835弄,121.68808597307108,31.195515353738852
10gam3p,f,新德西路207弄,121.67384344855529,31.191075511654347
10gam3q,f,新德西路508弄,121.6675292007412,31.190857954588637
10gam3r,f,新德西路511弄,121.67151213418444,31.192256908446023
10gam3s,f,新德西路99弄,121.67591821262414,31.193366790799598
10gam3t,f,新二村,121.83592668665138,30.948605353846094
10gam3u,f,新丰村万翔宅,121.65077155885787,31.159102578118382
10gam3v,f,新光村姜薛家宅,121.6620154912994,31.26148073800497
10gam3w,f,新光村陆家宅,121.65741524705433,31.25789674753191
10gam3x,f,新虹村东包家宅,121.64957500553722,31.238925661417746
10gam3y,f,新虹村刘家宅,121.64774177269547,31.244135825741868
10gam3z,f,新虹村陆家宅,121.65755707297959,31.258118766387042
10gam40,f,新虹村缪家宅,121.77754281666556,30.89972850724631
10gam41,f,新虹村赵家宅,121.64849914623,31.242659556146627
10gam42,f,新华村强顾家宅,121.66083131795585,31.264658690917077
10gam43,f,新华村薛家行,121.66504808107328,31.263181677482326
10gam44,f,新环西路35弄,121.63825971339199,31.015911977696344
10gam45,f,新环西路58弄,121.64134781148041,31.016462909525753
10gam46,f,新环西路777弄,121.63904773068481,31.025364496438872
10gam47,f,新龙路203弄,121.6296116526606,31.31493933686792
10gam48,f,新龙路289弄,121.63080719655154,31.314822197482822
10gam49,f,新龙路69弄,121.62804400389855,31.31778234204564
10gam4a,f,新龙路83弄,121.62856657238164,31.31744295400918
10gam4b,f,新路村,121.8320689192857,30.97394883592561
10gam4c,f,新苗村,121.63751492740377,31.12201181803179
10gam4d,f,新农村南项湾,121.55509760840981,31.35934479100796
10gam4e,f,新农村沈家宅,121.72601647406253,31.251774214451242
10gam4f,f,新浦路199弄,121.53771485357096,31.16544732871047
10gam4g,f,新浦路477弄,121.53323358902297,31.17057834615495
10gam4h,f,新浦路587弄,121.52990750747205,31.16795746158035
10gam4i,f,新浦路629弄,121.53070954688324,31.16992009800177
10gam4j,f,新浦路91弄,121.53969948091694,31.16423220990794
10gam4k,f,新生村徐唐家宅,121.74192446915733,31.182207381340735
10gam4l,f,新四村,121.825331135045,30.962794422652397
10gam4m,f,新星村东新港,121.70791829803642,31.253575903374664
10gam4n,f,新星村黄家圈,121.70417282414392,31.257183392174024
10gam4o,f,新益村严家港,121.53932618780209,31.369059350013163
10gam4p,f,新园路206弄,121.6306321593822,31.316454775645305
10gam4q,f,新园路251弄,121.63287523294181,31.317044981314638
10gam4r,f,新园路436弄,121.63366168096731,31.31284159585731
10gam4s,f,新跃路64弄,121.6316527102046,31.3204610144068
10gam4t,f,新镇村谢家宅,121.75996999247576,31.14025305157925
10gam4u,f,星光村,121.74076716672835,31.113321749057928
10gam4v,f,星火村陆家宅,121.76838294342636,31.080726459587662
10gam4w,f,行南路1150弄,121.58230170815241,31.32782749014651
10gam4x,f,行南路561号,121.58898189985185,31.325280011718935
10gam4y,f,兴东村南叶家宅,121.68386336567636,31.287807824371853
10gam4z,f,幸福村工地生活区,121.51641758941861,31.222596184637954
10gam50,f,秀康路958弄,121.57060347163512,31.14219165455204
10gam51,f,秀浦路886弄,121.5721234816669,31.1264217802104
10gam52,f,秀沿路1028弄,121.5795477394156,31.130518292402307
10gam53,f,秀沿路2585弄,121.60573087018196,31.13881073211587
10gam54,f,秀沿路2875弄,121.61283852778587,31.138254557733053
10gam55,f,秀沿路3668号,121.61687446830982,31.136255396649226
10gam56,f,秀沿西路218弄,121.53483991366802,31.129808670619067
10gam57,f,徐路村,121.64888073911634,31.313223254002505
10gam58,f,徐庙村,121.71459762520094,31.030309026750786
10gam59,f,宣黄公路2585弄,121.73800419963864,31.026675413204078
10gam5a,f,宣黄公路2878弄,121.74311730794193,31.024376694118867
10gam5b,f,宣桥村,121.69966467236557,31.0184482838518
10gam5c,f,宣桥镇光明村,121.71847185840191,31.079549564816567
10gam5d,f,宣镇东路628弄,121.70257295316911,31.020574814513534
10gam5e,f,宣镇东路788弄,121.70237364789001,31.023875825371007
10gam5f,f,宣中路621弄,121.70546907914654,31.024120742041212
10gam5g,f,学前二村,121.58416118185897,31.346285087401405
10gam5h,f,雪绒花路369弄,121.92436623649536,30.914716537274
10gam5i,f,雪野二路296号工地生活区,121.49338055103793,31.180224556623934
10gam5j,f,迅建村蔡家宅,121.79820603623142,31.078148384092874
10gam5k,f,迅建村冯家宅,121.55054270643934,31.164696005313292
10gam5l,f,迅建村黄家宅,121.68932152884398,31.279985147819808
10gam5m,f,迅建村季家厅,121.68751198050882,31.27955831988609
10gam5n,f,严楼村,121.74455793694473,31.020655752379085
10gam5o,f,严民路280弄,121.53070735836401,31.18787795849661
10gam5p,f,严民路40弄,121.52761002093358,31.192658161324534
10gam5q,f,严桥路141弄,121.52847499705437,31.19001115031035
10gam5r,f,严桥路58弄,121.52627064067678,31.189239300135224
10gam5s,f,严杨路30弄,121.52698765608002,31.19299207911826
10gam5t,f,严杨路60弄,121.52819789234614,31.19371650160143
10gam5u,f,严中路300弄,121.53209405623619,31.1907462814275
10gam5v,f,沿北村,121.58995832442385,31.144126540499503
10gam5w,f,沿江村,121.60224624819207,31.056168433196795
10gam5x,f,沿南村,121.59837720617811,31.13275838914526
10gam5y,f,盐朝公路67号,121.7636170773545,31.089988174171825
10gam5z,f,杨高北路446弄,121.58541163759104,31.346454089235426
10gam60,f,杨高南路1126号,121.53018407618818,31.206566172684486
10gam61,f,杨高南路2030弄,121.52126480803868,31.191810811781945
10gam62,f,杨高南路2140弄,121.52279088851542,31.189869716720764
10gam63,f,杨高南路2326弄,121.51962511317011,31.18403235716204
10gam64,f,杨高南路2451弄,121.5237681722745,31.183114234300856
10gam65,f,杨高南路3288弄,121.51587456307985,31.16802800899198
10gam66,f,杨高南路5055弄,121.53136121710139,31.149918013668167
10gam67,f,杨高南路5135弄,121.53416512382103,31.14892519379834
10gam68,f,杨高中路10弄,121.59834662094953,31.257848925644513
10gam69,f,杨高中路750弄,121.5883253601881,31.24821638731764
10gam6a,f,杨辉村,121.6535954803812,31.004204562446205
10gam6b,f,杨莲路160弄,121.5500939803207,31.164958582455082
10gam6c,f,杨莲路310弄,121.54980739583257,31.165030804916956
10gam6d,f,杨南路1015弄,121.50701097152594,31.15316719783828
10gam6e,f,杨南路1899弄,121.51798906981905,31.15780630803284
10gam6f,f,杨南路689弄,121.50090518516613,31.152942750976024
10gam6g,f,杨南路694弄,121.50070681208528,31.15076607572487
10gam6h,f,杨桥村西计队西计家宅,121.57800236704192,31.19012982176416
10gam6i,f,杨桥村郑家队郑家宅,121.57840959117627,31.190367212676836
10gam6j,f,杨思路1121弄,121.50587182234158,31.165020808582344
10gam6k,f,杨思路430弄,121.49418650109435,31.159496052999927
10gam6l,f,杨思路436弄,121.49382393090377,31.160302319720248
10gam6m,f,杨思路502弄,121.49503503494701,31.16061228680409
10gam6n,f,杨思路855弄,121.49856225709975,31.16474744076416
10gam6o,f,杨思新村,121.49523010096262,31.16353330333256
10gam6p,f,杨新路197弄,121.49219065832006,31.162837659316875
10gam6q,f,杨新路198弄,121.49203495068532,31.163704472994567
10gam6r,f,杨新路281弄,121.4881319848087,31.161103790896384
10gam6s,f,杨新路77弄,121.49411806137797,31.163466480013444
10gam6t,f,洋泾镇路61号工地生活区,121.55026971505193,31.241538688626914
10gam6u,f,洋泾镇路89弄,121.55043839342598,31.241915632556715
10gam6v,f,腰路村,121.7037497446686,31.071953078997556
10gam6w,f,姚桥村,121.59832652865317,31.114277983322353
10gam6x,f,窑墩村,121.64665150273503,31.113361661252807
10gam6y,f,窑港村,121.66605824076798,31.10264042231317
10gam6z,f,药师村曹家宅,121.6829089281171,31.202731935148417
10gam70,f,药师村周家宅,121.6828239698218,31.202551123223554
10gam71,f,耀华路200弄,121.49071621198044,31.176228956912965
10gam72,f,耀华路30弄,121.49261857648781,31.173632708504705
10gam73,f,耀华路331弄,121.48565690935034,31.17616008309587
10gam74,f,耀华路400弄,121.4843384098034,31.17230709628659
10gam75,f,耀华路414弄,121.4856498208309,31.17309412803845
10gam76,f,耀华路421弄,121.48285955251737,31.1735601058434
10gam77,f,耀华路550弄,121.48155460397517,31.17117187744627
10gam78,f,耀华路579弄,121.4806668765419,31.17213138694039
10gam79,f,耀华路87弄,121.49159755398298,31.17859920633471
10gam7a,f,叶桥村,121.73768309150435,31.081060998625706
10gam7b,f,一六村唐家宅,121.58294217808218,31.161517858416676
10gam7c,f,一六村王家队西王家宅,121.68686087778086,31.1610250398981
10gam7d,f,一六村赵家队北赵家宅,121.58917740075097,31.160329674880728
10gam7e,f,一心村宋家宅,121.86036703524272,31.02627695526394
10gam7f,f,一心村卫家宅,121.65716643773762,31.240604296575732
10gam7g,f,一心村徐家宅,121.68759817056404,31.251571059664997
10gam7h,f,怡园村,121.61769219987302,31.118060431483613
10gam7i,f,义泓村,121.82956418060597,31.074082387242637
10gam7j,f,益丰路55弄,121.62283862264215,31.20094522878672
10gam7k,f,益江路126弄,121.6332682127209,31.201402881254637
10gam7l,f,益江路299号,121.63062344554626,31.19861435799538
10gam7m,f,益江路396弄,121.62678843755883,31.198930146364024
10gam7n,f,益江路516弄,121.62640089890319,31.195701128408903
10gam7o,f,益民村曹家宅,121.70581632971104,31.21791836096643
10gam7p,f,益民村老周家宅,121.70592732604703,31.21575571317122
10gam7q,f,益民村三村宅,121.70428957353303,31.217348396490355
10gam7r,f,益民村张家宅,121.68655962805155,31.21759474140603
10gam7s,f,懿德村吴家队吴家宅,121.63162569475845,31.180148492148806
10gam7t,f,懿行路971弄,121.51466491972413,31.1253008440242
10gam7u,f,银峰路549弄,121.68971557502039,31.26613341066659
10gam7v,f,银峰路676弄,121.69095095266204,31.26513647942182
10gam7w,f,银峰路龚华路交界口工地生活区,121.54878390497254,31.20486033402344
10gam7x,f,银融路88弄,121.53401886846706,31.20891414415868
10gam7y,f,银山路115弄,121.5780330593532,31.245078494530212
10gam7z,f,银霄路100弄,121.55734849148418,31.21099371063223
10gam80,f,银霄路39弄,121.55930666067485,31.212630756382403
10gam81,f,银樽路58弄,121.64789497497122,31.21257271921532
10gam82,f,英雄村,121.75356767119311,31.02904141443553
10gam83,f,英雄路35弄,121.75939294257653,31.037471725813564
10gam84,f,樱花路89弄,121.54487026799232,31.20535029743813
10gam85,f,迎春街75弄,121.6707458918196,31.166820814603284
10gam86,f,迎春路1355弄,121.56312302581166,31.22890635201284
10gam87,f,迎熏路1018弄,121.73800578664147,31.035220509173413
10gam88,f,营房村青晏一宅,121.73757687009683,31.210590464422314
10gam89,f,营房村云镇宅,121.7309186970023,31.20751020508779
10gam8a,f,营洪路1258弄,121.7266950069284,31.184043687568945
10gam8b,f,营前村西王家宅,121.68685042603055,31.161127483379783
10gam8c,f,永安村,121.74276141292633,31.06882384230697
10gam8d,f,永安新村,121.55084172232343,31.248250521393103
10gam8e,f,永晨路258弄,121.75259915450233,30.97435438317391
10gam8f,f,永丰村陈家宅,121.56522251245573,31.176867608868534
10gam8g,f,永丰村孙家宅,121.85122573337533,30.99899748525384
10gam8h,f,永丰村徐家宅,121.68739251618875,31.251720199397834
10gam8i,f,永红村顾家宅,121.7053380944903,31.234245855956697
10gam8j,f,永红村南丁家宅,121.70549376844961,31.234218631780745
10gam8k,f,永红村秦家宅,121.70534275388526,31.234336111469005
10gam8l,f,永红村唐家宅,121.58287102006454,31.161211369387807
10gam8m,f,永红村薛家宅,121.50704023705451,31.14270464628062
10gam8n,f,永建路86弄,121.61635540777117,31.26320629210521
10gam8o,f,永乐村曹家油车,121.64205646859428,31.27745468900749
10gam8p,f,永乐村东邵家弄,121.64059673834166,31.273234205226462
10gam8q,f,永乐村钱家宅,121.63900500766461,31.26937220479421
10gam8r,f,永乐村西邵家弄,121.63961168779066,31.2722724732869
10gam8s,f,永利村冯家宅,121.55020920490935,31.16487959491651
10gam8t,f,永利村顾家宅,121.69527375865964,31.266306745704643
10gam8u,f,永利村徐家宅,121.68735182915687,31.251465713120904
10gam8v,f,永利村朱家宅,121.70069131328464,31.26673792924965
10gam8w,f,永宁路33弄,121.61370189724035,31.271683617125746
10gam8x,f,永泰路1129弄,121.52415585813124,31.144224064323765
10gam8y,f,永泰路133弄,121.50464027526577,31.136739781667877
10gam8z,f,永泰路182号,121.50743214299924,31.13593854285335
10gam90,f,永泰路1960弄,121.54315783557433,31.144720286439167
10gam91,f,永泰路2079弄,121.54200540408814,31.149058273594704
10gam92,f,永泰路2080弄,121.5446577671464,31.145538477043967
10gam93,f,永泰路468弄,121.51236828277581,31.136129272053434
10gam94,f,永泰路630弄,121.51765953883738,31.137609275414647
10gam95,f,永泰路775弄,121.5195989004072,31.142223250983392
10gam96,f,永新村海家宅,121.66278962557192,31.306248489521966
10gam97,f,永新村金王家宅,121.6617296577073,31.311659027641547
10gam98,f,永业路218弄,121.61564978652238,31.26745615121862
10gam99,f,永业路42弄,121.6137913001238,31.265841195697224
10gam9a,f,永业路94弄,121.61370888798852,31.264469968905175
10gam9b,f,友爱村,121.76537516239478,31.018543173650453
10gam9c,f,友谊村钱家宅,121.77620210353601,31.031019064073796
10gam9d,f,友谊村西钱家宅,121.77598639126863,31.030868908297602
10gam9e,f,渔民新村,121.65197530238096,31.215113261016086
10gam9f,f,羽山路1000弄,121.55766751807533,31.237789826938037
10gam9g,f,羽山路1445弄,121.56162446121262,31.242089118099706
10gam9h,f,羽山路1446弄,121.56176822940004,31.2395892548807
10gam9i,f,羽山路383弄,121.54377045606805,31.232760596804937
10gam9j,f,羽山路801弄,121.55064074800222,31.235467549171148
10gam9k,f,羽山路998弄,121.55680789964026,31.236973598276382
10gam9l,f,玉盘北路281弄,121.67372975040949,31.225320292758965
10gam9m,f,玉盘北路288弄,121.67236814885547,31.22574329971788
10gam9n,f,御衡路68弄,121.58173895208341,31.15387244838102
10gam9o,f,御桥村龙桥队张家宅,121.55019676594692,31.166704144738272
10gam9p,f,御桥村姚家队姚家宅,121.55447852422768,31.167150343428233
10gam9q,f,御桥村印家队东印家圈,121.55857033740806,31.16717866088651
10gam9r,f,御桥路1679弄,121.56754470279171,31.158170653925175
10gam9s,f,御桥路1978弄,121.5730701254517,31.15834514262486
10gam9t,f,御桥路2066弄,121.57543895516686,31.15820436218771
10gam9u,f,御桥路288弄,121.53884882097817,31.145781644694864
10gam9v,f,御青路1051弄,121.57475439749834,31.151401846872457
10gam9w,f,御青路56弄,121.56988055501463,31.161645129690147
10gam9x,f,御山路347弄,121.56975420863878,31.155967112935105
10gam9y,f,御山路360弄,121.5673738462467,31.155373374720565
10gam9z,f,御水路150弄,121.57239794439784,31.161043101885298
10gama0,f,御水路199弄,121.57472665097532,31.159951982375453
10gama1,f,园二路299弄,121.63431328757113,31.31732102124879
10gama2,f,园一路41弄,121.62910324387296,31.316086253548548
10gama3,f,园洲路189弄,121.63632222856619,31.315102177533213
10gama4,f,源深路600弄,121.53446020337027,31.23120362398201
10gama5,f,跃丰村费家宅,121.74339956310396,31.15762845582015
10gama6,f,跃丰村顾家宅,121.71510684597102,31.20426901988646
10gama7,f,跃丰村胡家宅,121.70861174477905,31.224787176502158
10gama8,f,跃丰村王家宅,121.68009844164793,31.16620273107759
10gama9,f,跃丰村徐华家宅,121.70882382833528,31.224634374629396
10gamaa,f,跃丰村朱家宅,121.70593822490765,31.224231645098186
10gamab,f,跃进村陶家宅,121.68360191272741,31.123224542218068
10gamac,f,跃进新村,121.70493417522421,31.207916735659822
10gamad,f,云端路1388弄,121.81737523495396,30.8876107974253
10gamae,f,云汉路1288弄,121.8009953093154,30.913539311974926
10gamaf,f,云汉路977弄,121.80673091893748,30.910094335742034
10gamag,f,云汉路978弄,121.80742406241622,30.91055480458203
10gamah,f,云台路1000弄,121.50971147445033,31.15486115756393
10gamai,f,云台路104号,121.50111653858013,31.181500468643794
10gamaj,f,云台路529弄,121.50752179157303,31.16889485382944
10gamak,f,云雅路395弄,121.67854400992846,31.24217030800837
10gamal,f,运通路6号,121.69702143712206,31.214424480042936
10gamam,f,运通路728弄,121.70218572615114,31.203021831080783
10gaman,f,运通路919号,121.7044544678948,31.201016117820984
10gamao,f,运盐河路1255弄,121.71752135075798,31.18183231216117
10gamap,f,枣庄路1029弄,121.58683595151213,31.246535656402656
10gamaq,f,枣庄路567号,121.57762427688222,31.25316658073672
10gamar,f,枣庄路658弄,121.57805909701844,31.250475740235693
10gamas,f,展凌路236号,121.53491868104835,31.35876405648119
10gamat,f,展凌路58弄,121.53066359997857,31.35991312026501
10gamau,f,张东路2281弄,121.63735238843832,31.201395005088177
10gamav,f,张杨北路4555弄,121.58397442267673,31.33394247087962
10gamaw,f,张杨北路512弄,121.58780750239191,31.264837361058895
10gamax,f,张杨北路558弄,121.58811977416497,31.26808660321382
10gamay,f,张杨北路5848弄,121.57374090068994,31.347930200140777
10gamaz,f,张杨北路588弄,121.59073970804899,31.267242050280895
10gamb0,f,张杨北路5911弄,121.57215601971787,31.348878978147255
10gamb1,f,张杨路1050弄,121.5314685965239,31.229806990388436
10gamb2,f,张杨路1515弄,121.53591238869241,31.23544876335284
10gamb3,f,张杨路1647弄,121.54083652056461,31.236079445692987
10gamb4,f,张杨路1662弄,121.54472824719896,31.235570776627416
10gamb5,f,张杨路1811弄,121.54831381093791,31.239430011889223
10gamb6,f,张杨路2228弄,121.55695156274368,31.240658266041503
10gamb7,f,张杨路2999弄,121.56803240231775,31.248682143398042
10gamb8,f,张杨路310弄,121.51322369594666,31.224944654099748
10gamb9,f,张杨路370弄,121.51452670063739,31.22563755875633
10gamba,f,张杨路628弄,121.52062224076298,31.228235706476813
10gambb,f,张杨路951弄,121.52574876467197,31.230815529740667
10gambc,f,招远路19弄,121.51527439235353,31.236422043680207
10gambd,f,赵高公路1606号,121.63889060882315,31.29885110770601
10gambe,f,赵高公路968号,121.63116649396457,31.31001174043203
10gambf,f,赵桥村小陆家宅,121.72993680718312,30.995425930132523
10gambg,f,正茂路1682弄工地生活区,121.5329499853127,31.22685673847104
10gambh,f,直属村凌北宅,121.74924745090502,31.228220001470913
10gambi,f,直属村凌南宅,121.75157833164936,31.22176015594803
10gambj,f,直属村太平宅,121.76143039600991,31.21913124440965
10gambk,f,中界村陈家队陈家宅,121.5662132529532,31.192611676371484
10gambl,f,中界村复兴队陈家宅,121.57184814794581,31.187642731106326
10gambm,f,中界村复兴队顾家宅,121.5717942353913,31.187765544088716
10gambn,f,中界村复兴队苏家宅,121.57081228304855,31.184892491642852
10gambo,f,中界村黄家队黄家宅,121.57317156883532,31.185448623236496
10gambp,f,中界村黄家队孔家圈,121.57429444808182,31.18341822032702
10gambq,f,中界村季家队季家宅,121.5708522525319,31.18986882498989
10gambr,f,中界村林家队苏家宅,121.57076305988902,31.184931931659968
10gambs,f,中界村陆家队陆家宅,121.70854867550564,31.20900295138348
10gambt,f,中界村秦家宅,121.56811029342761,31.189269525034625
10gambu,f,中界村沈家队姚家宅,121.57644874616737,31.184170699956997
10gambv,f,中界村苏家队苏家宅,121.57055170630692,31.18542202081268
10gambw,f,中界村苏家队周家宅,121.57142898024753,31.18500321979607
10gambx,f,中界村庄家队蔡家宅,121.79811392593736,31.077844683391504
10gamby,f,中科路2500弄,121.63390151807384,31.188604408760007
10gambz,f,中圩村费家宅,121.74032773862116,31.15642291017305
10gamc0,f,中圩村唐家宅,121.58286448209343,31.16137934995712
10gamc1,f,中圩村中圩家宅,121.75264231584066,31.1563614366013
10gamc2,f,中心村蔡家圈宅,121.64005644156636,31.171856753420833
10gamc3,f,中心村吴家宅,121.6317920674102,31.17994259571798
10gamc4,f,中心村西胡家宅,121.64335931524943,31.17420605047889
10gamc5,f,中新村,121.54208276605551,31.35166558291883
10gamc6,f,众三村顾家宅,121.66905528899015,31.279437140853407
10gamc7,f,众三村南俞家圈,121.66573646467934,31.281850723730184
10gamc8,f,周邓公路6600弄,121.60316719525689,31.116133967251162
10gamc9,f,周东路191弄,121.58676729150724,31.112985629267556
10gamca,f,周东路243弄,121.58596995650579,31.116356162391323
10gamcb,f,周东路418弄,121.58743707098378,31.11665200446909
10gamcc,f,周东路458弄,121.58627871554633,31.117889291297963
10gamcd,f,周东南路599弄,121.59222644583598,31.09858949256973
10gamce,f,周汇路158弄,121.58495066432404,31.102992553151214
10gamcf,f,周康路118弄,121.5720534408684,31.110616195858366
10gamcg,f,周康新村,121.56858696567755,31.135776957831908
10gamch,f,周南村,121.58400735818846,31.10906124426033
10gamci,f,周市路1321号,121.58316668751453,31.11323099118424
10gamcj,f,周市路148号,121.58352721483749,31.111807451395617
10gamck,f,周市路39弄,121.58191974207715,31.11031085774966
10gamcl,f,周市路66号,121.583717392735,31.110501879498827
10gamcm,f,周泰路32弄,121.60148538167905,31.101090110869695
10gamcn,f,周星路500弄,121.57881217773009,31.103708566345155
10gamco,f,周秀路118弄,121.60531924279351,31.099960428501202
10gamcp,f,周秀路26弄,121.60539128169862,31.10147512294314
10gamcq,f,周秀路398弄,121.60626761463791,31.093730573941336
10gamcr,f,周秀路516弄,121.60708557761653,31.09054804995516
10gamcs,f,周阳路258弄,121.60132405755856,31.094142023088914
10gamct,f,周祝公路1218号工地生活区,121.63932631552198,31.106329966036487
10gamcu,f,朱店村,121.70977572616663,31.09166400253607
10gamcv,f,祝城路77弄,121.76141557231765,31.109103677539707
10gamcw,f,祝东村,121.77407056364346,31.126667616571144
10gamcx,f,祝家港路155弄,121.5856123179029,31.11130976103287
10gamcy,f,祝家港路255弄,121.59244740911481,31.111442694893462
10gamcz,f,祝家港路399弄,121.59192805805245,31.111415220161522
10gamd0,f,祝桥村,121.76022094027252,31.102740360541343
10gamd1,f,祝西村,121.75584198546878,31.107133213597074
10gamd2,f,砖桥村,121.71199848858359,31.118642517909763
10gamd3,f,梓康路188弄,121.56866941086288,31.12258167905265
10gamd4,f,梓康路333弄,121.56409939089762,31.121372873936906
10gamd5,f,梓康路51弄,121.57266054623756,31.12243960198526
10gamd6,f,梓康路580弄,121.5612420610573,31.121668982750514
10gamd7,f,梓康路678弄,121.55779519678228,31.122611864268094
10gamd8,f,紫薇路193弄,121.61591943488995,31.203430782534866
10gamd9,f,紫薇路198弄,121.61763829828877,31.202273166119074
10gamda,f,紫薇路667弄,121.62283273331813,31.209228834637667
10gamdb,f,紫叶路116弄,121.55036584072653,31.18257315457103
10gamdc,f,紫叶路192弄,121.55039938550945,31.181838797228295
10gamdd,f,紫叶路81弄,121.5511021343983,31.183386980394253
10gamde,f,邹平路191号工地生活区,121.51684743416783,31.171795800759956
10gamdf,1,白渡路258弄,121.50103067847724,31.21982280639944
10gamdg,1,半淞园路585弄,121.49398247577437,31.200239358105403
10gamdh,1,半淞园路628号,121.49446024730837,31.20001010106263
10gamdi,1,半淞园路650号,121.49455402382047,31.19861148935515
10gamdj,1,保屯路211弄,121.49159061079864,31.20403877165929
10gamdk,1,保屯路221弄,121.49175920144845,31.203262320053987
10gamdl,1,保屯路50弄,121.48972570973119,31.206220513892923
10gamdm,1,北京东路288弄,121.48400192311328,31.24110029721951
10gamdn,1,北京东路813号,121.4746975808717,31.237839071677563
10gamdo,1,北京西路239弄,121.46962922987103,31.235094475314327
10gamdp,1,北京西路247号,121.46904992261842,31.235527873740843
10gamdq,1,北京西路267号,121.46860397203027,31.235376433250835
10gamdr,1,北京西路355弄,121.46730263902217,31.234726897620675
10gamds,1,长乐路119号,121.46711418404182,31.22154672560431
10gamdt,1,长乐路215号,121.45845132260487,31.220319200396723
10gamdu,1,长乐路236弄,121.46547959340286,31.22205857533716
10gamdv,1,成都北路262弄,121.46797155910158,31.22845728232496
10gamdw,1,成都南路108弄,121.46707533324513,31.22174312499511
10gamdx,1,成都南路110号,121.46765453695124,31.221467778561607
10gamdy,1,成都南路132弄,121.46787699288247,31.22120772601355
10gamdz,1,成都南路134号,121.46795055514184,31.22122652416494
10game0,1,成都南路142弄,121.4677021582303,31.22120774190444
10game1,1,成都南路85弄,121.46777815889108,31.22158370023735
10game2,1,重庆北路212号,121.46997578601261,31.227062699326684
10game3,1,重庆北路216弄,121.47064596463409,31.22729673009371
10game4,1,重庆北路318号,121.46920965144064,31.228849181907037
10game5,1,重庆南路169弄,121.47229776331965,31.216706522635956
10game6,1,重庆南路18号,121.47148394282112,31.220505699154273
10game7,1,重庆南路229弄,121.47232317225087,31.211766222850468
10game8,1,重庆南路26弄,121.47129419752928,31.219947593217885
10game9,1,重庆南路283号,121.4732699862179,31.20940606133131
10gamea,1,重庆南路298弄,121.4708708848855,31.2108775285423
10gameb,1,重庆南路30弄,121.47116679837113,31.219786018310327
10gamec,1,重庆南路39弄,121.47208157685841,31.221324303683954
10gamed,1,打浦路210弄,121.47069484208424,31.20082803429506
10gamee,1,打浦路299弄,121.47255207251574,31.20160589359925
10gamef,1,打浦路303弄,121.47154631146982,31.200084463980453
10gameg,1,打浦路316弄,121.4713855837044,31.200089400565286
10gameh,1,打浦路339弄,121.47209218433353,31.199726516365796
10gamei,1,打浦路399号,121.47204927072207,31.199057785197798
10gamej,1,打浦路500弄,121.47306014599285,31.196470516180362
10gamek,1,打浦路80弄,121.4697843616981,31.203453400101356
10gamel,1,打浦路92号,121.47060525308686,31.202603867954636
10gamem,1,大夫坊35号,121.49625327254874,31.220994868922215
10gamen,1,大夫坊39号,121.49627130803106,31.22080655083494
10gameo,1,大沽路141号,121.47158238099334,31.226539742054058
10gamep,1,大沽路147号,121.47143370862514,31.22616489101049
10gameq,1,大沽路163号,121.4710288152587,31.22600354321575
10gamer,1,大吉路173弄,121.48392386215625,31.214234458951363
10games,1,大吉路44弄,121.48175978656903,31.212970926644914
10gamet,1,大林路338号,121.48400258914263,31.212084264076466
10gameu,1,大林路43弄,121.48750760273983,31.21374805618029
10gamev,1,淡水路184号,121.4732959141584,31.218102415774247
10gamew,1,淡水路197号,121.47316150463219,31.217871080394364
10gamex,1,淡水路214弄,121.4728261265876,31.2172261587303
10gamey,1,淡水路217号,121.47350462223025,31.21710845564049
