SH_ID_36,区36,地址,lng,lat
10gddc1,f,板泉路2000弄,121.53131089410005,31.16576088688467
10gddc2,f,板泉路2101弄,121.53196137534518,31.168075833252736
10gddc3,f,板泉路50号,121.49472059898177,31.157851205398483
10gddc4,f,北艾路155弄,121.54289330677449,31.185701402618456
10gddc5,f,北艾路1765弄,121.52335199899252,31.17795264991329
10gddc6,f,北艾路73弄,121.54493443177154,31.18500567601039
10gddc7,f,北艾路862弄,121.53722879862065,31.184346027814282
10gddc8,f,北蔡镇联勤村李家队李家宅,121.55119397131567,31.161796503494475
10gddc9,f,北蔡镇联勤村麦家宅,121.54773687276489,31.16431493931183
10gddca,f,北蔡镇南新村东钟家宅,121.54239220849438,31.16649290534608
10gddcb,f,北蔡镇南新村西钟家宅,121.54117730995928,31.166082388013454
10gddcc,f,北蔡镇南新村赵家厍,121.53835797038043,31.169857137801223
10gddcd,f,北蔡镇卫行村顾家队张家宅,121.58310673756662,31.166767820470906
10gddce,f,北蔡镇卫行村张浜队南顾家宅,121.58206860445452,31.16579344390968
10gddcf,f,北蔡镇卫行村张浜队王家宅,121.67868279930106,31.165610621769563
10gddcg,f,北蔡镇卫行村朱家队朱家宅,121.58289208433254,31.161325842066184
10gddch,f,北蔡镇五星村陈家队奚家宅,121.55036442928467,31.156264772413067
10gddci,f,北蔡镇五星村吴家队吴家宅,121.57159005771018,31.173910425652316
10gddcj,f,北蔡镇五星村徐家队顾家宅,121.57123855302363,31.16511636389663
10gddck,f,北蔡镇杨桥村西计队西计家宅,121.5781603706651,31.19015297948891
10gddcl,f,北蔡镇中界村陈家队陈家宅,121.56629568686144,31.192550841143806
10gddcm,f,北蔡镇中界村复兴队陈家宅,121.5715831035385,31.18782242981094
10gddcn,f,北蔡镇中界村黄家队黄家宅,121.573012688032,31.18512658759949
10gddco,f,北蔡镇中界村陆家队陆家宅,121.70846678413037,31.208990481209177
10gddcp,f,北蔡镇中界村苏家队苏家宅,121.57043976662058,31.18537414742266
10gddcq,f,北蔡镇中界村苏家队周家宅,121.57138901076151,31.18495695061279
10gddcr,f,北蔡镇中界村庄家队蔡家宅,121.56783094550592,31.18917031294511
10gddcs,f,北张家浜路112号,121.52337100076734,31.216665568051077
10gddct,f,北张家浜路168弄,121.52470407106962,31.216679740057877
10gddcu,f,北张家浜路172号,121.52571801657913,31.216344456877962
10gddcv,f,北张家浜路58号,121.5205641867113,31.21593626140608
10gddcw,f,北中路10弄,121.5524704032183,31.182573828128948
10gddcx,f,北中路247弄,121.55732181706554,31.184165825952466
10gddcy,f,北中路480弄,121.56316556019388,31.18404683162339
10gddcz,f,博华路1018弄,121.55138264800132,31.170686128452083
10gddd0,f,博华路380弄,121.54903174124411,31.180602136017534
10gddd1,f,博华路989号,121.55009202384542,31.171751668853283
10gddd2,f,博华路999弄,121.5500298927515,31.170167966827684
10gddd3,f,博山东路112弄,121.56337978420373,31.249299750684433
10gddd4,f,博山东路20弄,121.55987443595798,31.245545340831928
10gddd5,f,博山东路553弄,121.56887221213833,31.255309918546043
10gddd6,f,博山东路811弄,121.57567139594254,31.257360423930276
10gddd7,f,博山东路81弄,121.56121272670666,31.248516071372705
10gddd8,f,博兴路465弄,121.58552603328111,31.266149803638967
10gddd9,f,博兴路616弄,121.58514946319414,31.263222022378827
10gddda,f,博兴路986弄,121.59342760890902,31.265573616209167
10gdddb,f,曹路镇东海村曹家宅,121.67167561547505,31.300712278588563
10gdddc,f,曹路镇顾东村田度宅,121.65951315302348,31.29736536149777
10gdddd,f,曹路镇顾东村新屋宅,121.66130767536421,31.29308968946697
10gddde,f,曹路镇光明村沙桥宅,121.65125365348567,31.287275446292856
10gdddf,f,曹路镇光明村双盘宅,121.65553728370386,31.291344809056024
10gdddg,f,曹路镇联合村北浜宅,121.67669546712288,31.298158364821038
10gdddh,f,曹路镇联合村路南宅,121.66710663333834,31.278452182879747
10gdddi,f,曹路镇民建村北邵家宅,121.64902993559852,31.27465277609929
10gdddj,f,曹路镇民建村徐家宅,121.6506296435768,31.271307864001404
10gdddk,f,曹路镇民众村运河西,121.67066802536968,31.276141421679878
10gdddl,f,曹路镇前锋村杨张村宅,121.69491685047201,31.27172987004565
10gdddm,f,曹路镇群乐村付家圈,121.68211470269551,31.281914964128656
10gdddn,f,曹路镇日新村北万家宅,121.66848220250986,31.26305905612622
10gdddo,f,曹路镇日新村南房宅,121.67139605833052,31.26493742424038
10gdddp,f,曹路镇日新村杨薛家宅,121.66940239989731,31.258998986282908
10gdddq,f,曹路镇五四村沈孙家宅,121.65159195400248,31.254238166307296
10gdddr,f,曹路镇五四村紫石桥,121.65175130589117,31.25128359189314
10gddds,f,曹路镇新星村东新港,121.70785516521319,31.253642586260565
10gdddt,f,曹路镇新星村黄家圈,121.70429006433262,31.257270165197568
10gdddu,f,曹路镇迅建村黄家宅南,121.68925170388866,31.280011198103885
10gdddv,f,曹路镇永乐村曹家油车,121.64200212228083,31.277705741044457
10gdddw,f,曹路镇永乐村新宅,121.63965180916406,31.273678795525353
10gdddx,f,曹路镇永利村冯家宅,121.69586313585641,31.264115349689725
10gdddy,f,长岛路1203弄,121.59292091498587,31.26199663638863
10gdddz,f,长岛路99号,121.57779921682739,31.267546049991232
10gdde0,f,长清路693弄,121.49210639304263,31.157196353959588
10gdde1,f,长清路773弄,121.4919850301658,31.155889935458763
10gdde2,f,长清路807弄,121.49375489369616,31.155991061431532
10gdde3,f,昌里东路395弄,121.51111355282737,31.179093829848473
10gdde4,f,昌里东路411弄,121.51286161260023,31.179799929260053
10gdde5,f,昌里东路500弄,121.51388529336282,31.178222888755073
10gdde6,f,昌里东路650弄,121.51767457336062,31.178885091453257
10gdde7,f,昌里东路675弄,121.5157397218637,31.180487751192597
10gdde8,f,昌里东路71弄,121.5063361584267,31.17646666957535
10gdde9,f,昌里路340弄,121.49177181548063,31.171915275817167
10gddea,f,昌邑路55弄,121.5127361495469,31.240399210922504
10gddeb,f,陈春路620弄,121.54562551519298,31.172773938194563
10gddec,f,陈邵路103号工地生活区,121.48383738121532,31.14799405074797
10gdded,f,成山路1728弄,121.53189555690632,31.17689784364824
10gddee,f,成山路24弄,121.48562431327208,31.16815678954523
10gddef,f,成山路544弄,121.50849152364285,31.17021806800221
10gddeg,f,成山路608弄,121.50841727972298,31.171411551562354
10gddeh,f,成山路648弄,121.511072010956,31.171264485255733
10gddei,f,成山路963弄,121.51548013065735,31.17555306326973
10gddej,f,城丰路212弄,121.68732901249034,31.19048523162682
10gddek,f,城丰路245弄,121.68616417392668,31.1888275898215
10gddel,f,川北公路3046号,121.61311107929751,31.20541757750004
10gddem,f,川北公路3056号,121.613157690356,31.2059471774789
10gdden,f,川北公路3078-3080号,121.61351863881109,31.206190770209087
10gddeo,f,川北公路3087弄,121.61317836195796,31.207032957420477
10gddep,f,川沙路1666弄,121.67906036983943,31.254037108430012
10gddeq,f,川沙路2301弄,121.68706239345833,31.239816416651923
10gdder,f,川沙路2373号,121.68673139557569,31.2382808121428
10gddes,f,川沙路389弄,121.66994515000286,31.278918594191282
10gddet,f,川沙路4586弄,121.69615318229589,31.199289858042548
10gddeu,f,川沙新镇八灶村郭家宅,121.71573477622917,31.1530278053735
10gddev,f,川沙新镇八灶村张家宅,121.71564909339213,31.152905451226946
10gddew,f,川沙新镇陈行村东陈家宅,121.71323466965771,31.16608256619992
10gddex,f,川沙新镇陈行村张家宅,121.71429660079836,31.16783194592375
10gddey,f,川沙新镇果园村,121.64867197201306,31.11300004906255
10gddez,f,川沙新镇会龙村新兴,121.72699703486387,31.092221844837326
10gddf0,f,川沙新镇界龙村华家宅,121.65945877164168,31.161633958754436
10gddf1,f,川沙新镇栏杆村王高家宅,121.66104321570975,31.169244208557778
10gddf2,f,川沙新镇其成村,121.6876244392061,31.112380736279192
10gddf3,f,川沙新镇太平村高家宅,121.71826286015443,31.195226931721052
10gddf4,f,川沙新镇新春村赵孟家宅,121.69356312065261,31.159049332269785
10gddf5,f,川沙新镇药师村,121.68286711291019,31.20260146323975
10gddf6,f,川沙新镇长丰村北唐家宅,121.67451163236974,31.18285019843015
10gddf7,f,川沙新镇长桥村龚家宅,121.73305836962712,31.14741334564231
10gddf8,f,川沙新镇长桥村潘家宅,121.73334094888428,31.14744858647327
10gddf9,f,川周公路2828弄,121.61771644833999,31.143615174436064
10gddfa,f,川周公路2991号,121.61099730292572,31.139928480323793
10gddfb,f,川周公路4058弄,121.58539932865669,31.12593008540417
10gddfc,f,创新中路199弄,121.66163799913619,31.207369564925216
10gddfd,f,大同路1010弄,121.57238958547951,31.335642888601505
10gddfe,f,大团镇海潮村沙庙,121.76517661774805,30.963340706176734
10gddff,f,大团镇园艺村林艺,121.75652319578624,30.985971827445283
10gddfg,f,德淳路99弄,121.66685117046327,31.228411010394566
10gddfh,f,德平路100弄,121.56176074078718,31.247929058290868
10gddfi,f,德平路1125弄,121.56964948481878,31.241937284003924
10gddfj,f,德平路155弄,121.56167103240197,31.25032999249038
10gddfk,f,德平路25弄,121.55780025983105,31.253905729269864
10gddfl,f,德州路220弄,121.49555323218746,31.168487014629147
10gddfm,f,德州路223弄,121.49530745510529,31.168332390083513
10gddfn,f,德州路255弄,121.49220463640745,31.168490435536178
10gddfo,f,东八灶63弄,121.58172037925831,31.11544152503414
10gddfp,f,东波路585弄,121.5866884607701,31.285029798930804
10gddfq,f,东方路1800弄,121.5225169339231,31.20248448342297
10gddfr,f,东建新村,121.53333360916304,31.20178124873906
10gddfs,f,东陆路1018弄,121.59270504750408,31.272824005745658
10gddft,f,东陆路1268弄,121.59611541717257,31.26830161311684
10gddfu,f,东陆路1350弄,121.60151063532882,31.266973694403447
10gddfv,f,东陆路898弄,121.59156849185695,31.2733250764738
10gddfw,f,东三街102弄,121.50986979026135,31.201466510306773
10gddfx,f,东三里桥路160弄,121.5103737960024,31.1990941184611
10gddfy,f,东三里桥路170弄,121.51105307245471,31.20056468568227
10gddfz,f,东书房路390弄,121.53507381104806,31.164911751463972
10gddg0,f,东绣路1086弄,121.53614589542944,31.199445121033133
10gddg1,f,东绣路1155弄,121.53492332098303,31.198814221441985
10gddg2,f,东育路95弄,121.48088680039156,31.162061201137732
10gddg3,f,东园四村,121.51308071073021,31.230214525660163
10gddg4,f,杜鹃路58弄,121.54743170572853,31.201423830745053
10gddg5,f,繁荣东路159弄,121.5858506922211,31.107719424114784
10gddg6,f,芳草路352弄,121.5578859420304,31.19259623822998
10gddg7,f,芳华路229弄,121.55480620633853,31.195536733275315
10gddg8,f,芳华路310弄,121.55753528419099,31.194890275089374
10gddg9,f,芳华路329弄,121.55723884590952,31.196087705719044
10gddga,f,芳华路455弄,121.55951983496509,31.19672240403289
10gddgb,f,芳华路630弄,121.56393034923295,31.196218949125576
10gddgc,f,芳华路713弄,121.56374919733145,31.19703292039115
10gddgd,f,芳华路788弄,121.56579895743742,31.195516928353996
10gddge,f,芳华路9弄,121.5506800454951,31.194038985563257
10gddgf,f,高东二路118弄,121.62727244016648,31.322860789884388
10gddgg,f,高东镇珊黄村苍头宅,121.63996180448056,31.330849686924985
10gddgh,f,高东镇先锋村卢家宅,121.63149309763327,31.3082598402713
10gddgi,f,高东镇踊跃村东孙家沟,121.6572578359573,31.306406659647234
10gddgj,f,高科东路500弄,121.65327795325521,31.21088617250362
10gddgk,f,高桥镇陆凌村宋家宅,121.56296492995612,31.34576488089367
10gddgl,f,高桥镇陆凌村西凌家宅,121.56289659380076,31.34554466617508
10gddgm,f,高桥镇南塘村龚家宅,121.56867046670003,31.337888401992497
10gddgn,f,高桥镇南塘村顾家宅,121.568117074868,31.33890242641122
10gddgo,f,高桥镇南塘村姚家宅,121.56834679334344,31.33923332592028
10gddgp,f,高桥镇三岔港村三岔港,121.50828859051062,31.370582135551004
10gddgq,f,高桥镇西浜头,121.58242213200091,31.341792123977115
10gddgr,f,高桥镇新农村沈家宅,121.55810930090963,31.356943450109913
10gddgs,f,高青路4567弄,121.56195417968391,31.171012156535532
10gddgt,f,高斯路965弄,121.61137332306981,31.20182087789526
10gddgu,f,工农北路1号,121.75670596736765,31.050197230936593
10gddgv,f,龚华路479弄,121.68844490176036,31.259170115639044
10gddgw,f,拱北路289弄,121.77475600106484,31.055776221248998
10gddgx,f,拱海路78弄,121.73668184917167,31.068615743205513
10gddgy,f,拱极路2289弄,121.77425987621618,31.053328573968226
10gddgz,f,拱极路3058弄,121.75883522164773,31.05442557488773
10gddh0,f,古棕路168弄,121.91748196426165,30.88386228985171
10gddh1,f,古棕路438弄,121.91422757548898,30.881244220357853
10gddh2,f,崮山路157号,121.55228772560278,31.246904539271632
10gddh3,f,崮山路17号,121.55135895316207,31.24846485924706
10gddh4,f,崮山路788号,121.5608626879868,31.237537196324634
10gddh5,f,崮山路95号,121.55092144444407,31.247344713001404
10gddh6,f,光明路222弄,121.6162209261992,31.332103020232005
10gddh7,f,海基三路海洋四路交界口工地生活区,121.54857287199228,31.20490997273853
10gddh8,f,海鹏路凌空路交界口工地生活区,121.68858305686354,31.269419615242192
10gddh9,f,海容路399弄,121.67918730137923,31.282025141204972
10gddha,f,海容路99弄,121.67387011711602,31.27987991895337
10gddhb,f,海阳路1065弄,121.50546244041192,31.159065221710215
10gddhc,f,海阳路1080弄,121.5066770904623,31.15734349897618
10gddhd,f,海阳路1125弄,121.50731750355492,31.15891099689064
10gddhe,f,海阳路860弄,121.50177552653106,31.15731009912342
10gddhf,f,航梅路525弄,121.57411550940714,31.024619126071
10gddhg,f,航头路988弄,121.60060286144248,31.037017321843173
10gddhh,f,航头镇果园村航西,121.58491246801383,31.018391624876074
10gddhi,f,航头镇果园村倪桥,121.61130563604168,31.019433804875092
10gddhj,f,航头镇航东村,121.5992666343703,31.02850988253031
10gddhk,f,航头镇鹤鸣村方窑,121.59247262286435,31.03749978493706
10gddhl,f,航头镇梅园村沙北,121.58639782074698,31.059409753881546
10gddhm,f,合庆镇东风村潘家宅,121.69883524348478,31.227525725919044
10gddhn,f,合庆镇前哨村,121.73385995937113,31.241179727872563
10gddho,f,合庆镇勤奋村九队新村,121.72290622317823,31.2614910192373
10gddhp,f,合庆镇勤奋村张家宅,121.72189362798693,31.25541270780242
10gddhq,f,合庆镇勤俭村北杨家宅,121.7274032990865,31.20680616691599
10gddhr,f,合庆镇勤益村陆家宅,121.71052361015789,31.209166555621376
10gddhs,f,合庆镇勤益村西张家宅,121.71049964263209,31.209308622073923
10gddht,f,合庆镇庆丰村龚家宅,121.71656143442198,31.226100070488346
10gddhu,f,合庆镇庆丰村吴家宅,121.71700835684055,31.24111282304925
10gddhv,f,合庆镇庆星村,121.71912525214174,31.234322342737215
10gddhw,f,合庆镇营房村青晏二宅,121.7343643038283,31.20840487051934
10gddhx,f,合庆镇永红村丁家宅,121.70565317792344,31.23418495800401
10gddhy,f,合庆镇永红村薛家宅,121.70554963498093,31.234093119302283
10gddhz,f,合庆镇友谊村东钱家宅,121.73683252086894,31.22571757023825
10gddi0,f,和炯路77弄,121.50164934733534,31.120908031677526
10gddi1,f,和龙路295弄,121.57084638610814,31.341993286801394
10gddi2,f,和融路55弄,121.50012544861639,31.125191414318767
10gddi3,f,菏泽路567弄,121.59501859233465,31.265399821850018
10gddi4,f,鹤驰路88弄,121.59427866856127,31.08029258058113
10gddi5,f,鹤洁路625弄,121.6057924297784,31.070039515297122
10gddi6,f,鹤沙路588弄,121.59345375495495,31.081884682624445
10gddi7,f,虹盛路250弄,121.6812990853603,31.241553436115215
10gddi8,f,洪山路121弄,121.49928714120998,31.178798550162615
10gddi9,f,洪山路1889弄,121.51119317599922,31.151337374337015
10gddia,f,洪山路237弄,121.50182547625283,31.172880072634484
10gddib,f,洪山路851弄,121.50512528923538,31.160838412713346
10gddic,f,后长街91弄,121.49668609589271,31.163351913465398
10gddid,f,沪南路2688弄,121.56364780375628,31.137720589026166
10gddie,f,沪南路2727弄,121.57666589327215,31.141593031494075
10gddif,f,沪南路3219弄,121.5682634429546,31.123390854545214
10gddig,f,花木街道龙王庙村南杨家堂,121.55022913802108,31.194392128788603
10gddih,f,花木路500弄,121.54357009932482,31.21065357962142
10gddii,f,花山路609弄,121.5752010966364,31.347679967177733
10gddij,f,华春路成山路交界口工地生活区,121.52743527328217,31.180669008745987
10gddik,f,华丰路50弄,121.50792931068455,31.19100554338645
10gddil,f,华丰路51弄,121.5081152389596,31.192309681827737
10gddim,f,华夏东路1260弄,121.67316846342571,31.196011529690015
10gddin,f,华夏东路860弄,121.66576081772477,31.194427878143358
10gddio,f,华夏一路325弄,121.68833551800617,31.193820604722944
10gddip,f,华绣路179弄,121.52723012566058,31.18659049153724
10gddiq,f,华中路88号,121.5700274708857,31.187484926164103
10gddir,f,环林东路875弄,121.5301376467985,31.140567980271644
10gddis,f,环林西路618弄,121.52224239890555,31.13977793498828
10gddit,f,环林西路777弄,121.52594954654151,31.140548827264826
10gddiu,f,环龙路439弄,121.52501509224217,31.201484885570792
10gddiv,f,环桥路1481弄,121.60088033468477,31.140893242512426
10gddiw,f,环桥路1488弄,121.60367887918943,31.14184923180316
10gddix,f,惠南镇黄路村富强,121.71019913022631,31.030275114542967
10gddiy,f,惠南镇惠东村,121.7768117228119,31.040110831346563
10gddiz,f,惠南镇幸福村,121.77719986885222,31.025635695486738
10gddj0,f,惠南镇徐庙村,121.71470919923112,31.030158256816243
10gddj1,f,济阳路333弄,121.48334645122983,31.161268853206092
10gddj2,f,建中路126弄,121.61334459484203,31.20318856569876
10gddj3,f,建中路171弄,121.61452799812625,31.202682417010312
10gddj4,f,江东路25号,121.61598583141111,31.20614305066328
10gddj5,f,江心沙路300号工地生活区,121.53895662908235,31.34482979277051
10gddj6,f,江绣路300弄,121.73328236269388,31.173134217585023
10gddj7,f,金高路1058弄,121.60906194548267,31.283026081695642
10gddj8,f,金沪路1218弄,121.60218457637276,31.240742996367334
10gddj9,f,金闽路539号,121.62693409447586,31.255976935649336
10gddja,f,金桥路1506弄,121.58943429413726,31.249165932413778
10gddjb,f,金桥路226弄,121.56991471368808,31.266309456956844
10gddjc,f,金桥路2552弄,121.60234586138111,31.23437757218164
10gddjd,f,金桥路2618号,121.60323972112224,31.233234632130024
10gddje,f,金桥路989弄,121.57784623072865,31.259168444708852
10gddjf,f,金台路115弄,121.58328950608387,31.250272534497476
10gddjg,f,金晓路289弄,121.6801975513684,31.27538148990135
10gddjh,f,金晓路96弄,121.67466699818658,31.277375407621225
10gddji,f,金杨路1105弄,121.58789429179252,31.256396603741965
10gddjj,f,金杨路785弄,121.5827969682832,31.253938952795885
10gddjk,f,金豫路100号,121.61429297654864,31.255346136219902
10gddjl,f,锦绣路1650弄,121.53959788619089,31.210990408026973
10gddjm,f,靖海路547弄,121.76708533062657,31.057993589709902
10gddjn,f,靖海南路567弄,121.76948594246969,31.03295644378668
10gddjo,f,居家桥路151弄,121.56192332196885,31.260667937442673
10gddjp,f,巨峰路176弄,121.59708962320653,31.279059547325467
10gddjq,f,巨峰路667弄,121.60112570677687,31.282505145111895
10gddjr,f,巨野路61弄,121.5449808753593,31.24415402500773
10gddjs,f,俱进路505弄,121.6132997855743,31.301502678797398
10gddjt,f,康安路康花路交界口工地生活区,121.54859108574047,31.204886642168695
10gddju,f,康佳路38弄,121.59608826464041,31.126814655591538
10gddjv,f,康桥路90弄,121.58234792926235,31.150744430688935
10gddjw,f,康桥镇花墙村,121.54896982804145,31.14824571163673
10gddjx,f,康桥镇火箭村,121.608668459357,31.139199323083677
10gddjy,f,康桥镇人南村,121.62428264852113,31.13840573542063
10gddjz,f,康桥镇太平村,121.55333064635188,31.121760578512948
10gddk0,f,康桥镇沿北村,121.5897165029964,31.14436724839412
10gddk1,f,康杉路118号,121.55836637973184,31.15653385799189
10gddk2,f,康沈路1527弄,121.57657064039006,31.118282550988102
10gddk3,f,康沈路400弄,121.57096298390724,31.140132735641014
10gddk4,f,康士路15弄,121.56310587323551,31.148996591315573
10gddk5,f,康梧路189号工地生活区,121.55129734499184,31.135549139124326
10gddk6,f,康新公路79号,121.64061209513645,31.02888920557884
10gddk7,f,莱阳路17号,121.57719508412421,31.27169277888593
10gddk8,f,莱阳路301弄,121.57979864232762,31.274945086009172
10gddk9,f,莱阳路451弄,121.58273650079192,31.27562053524086
10gddka,f,莱阳路880弄,121.58422965696339,31.28220171071185
10gddkb,f,兰城路108弄,121.58032490955783,31.26377164139301
10gddkc,f,兰城路115弄,121.579973933267,31.266509041968916
10gddkd,f,兰谷路2777弄,121.59627656587375,31.292727472366458
10gddke,f,兰陵路24弄,121.51717965127366,31.194514978051533
10gddkf,f,蓝村路31弄,121.53236543464305,31.21226441609724
10gddkg,f,蓝村路470弄,121.52516326300847,31.211449238585388
10gddkh,f,蓝村路471弄,121.52741972158418,31.212461290219714
10gddki,f,崂山路571弄,121.5230840699863,31.22627244122022
10gddkj,f,崂山路645弄,121.52358172058592,31.22289597912303
10gddkk,f,崂山三村,121.51857540136407,31.23480249384317
10gddkl,f,历城路22弄,121.4926038755648,31.174483362077577
10gddkm,f,丽正路99弄,121.88359585329192,30.97564830994721
10gddkn,f,利津路185弄,121.58053205187665,31.279471184925725
10gddko,f,连波路228弄,121.55302180363813,31.19206044550697
10gddkp,f,莲安东路80弄,121.55742869529115,31.18036391035619
10gddkq,f,莲安西路125弄,121.55381752947011,31.17930838181177
10gddkr,f,莲溪路550弄,121.56194316236089,31.180831315659564
10gddks,f,莲溪路780弄,121.56123989143961,31.176909099713864
10gddkt,f,莲中路250弄,121.55822714058799,31.181600305740314
10gddku,f,林培路红临路交界口工地生活区,121.48535717648672,31.117527795613793
10gddkv,f,林悦路125弄,121.49344373105141,31.13951805505231
10gddkw,f,临沂路151弄,121.51243235767257,31.194233052655466
10gddkx,f,临沂路181弄,121.51283294175451,31.193386078506474
10gddky,f,临沂路280弄,121.50894758765561,31.192973472969694
10gddkz,f,临沂路301弄,121.51021045360838,31.190862204026992
10gddl0,f,灵山路1390弄,121.563711190614,31.236611219720654
10gddl1,f,灵山路1415弄,121.56233139797519,31.23889383960941
10gddl2,f,灵山路1671弄,121.56675626273608,31.23978818963774
10gddl3,f,灵山路701弄,121.54553880397454,31.230171564719214
10gddl4,f,灵岩路56弄,121.49380198298304,31.166618857856236
10gddl5,f,灵岩南路1180弄,121.49949569830623,31.140234124944154
10gddl6,f,灵岩南路156弄,121.4944841058619,31.159387105409962
10gddl7,f,凌河路354弄,121.5991518428363,31.27355218538186
10gddl8,f,凌河路38弄,121.5942035911926,31.277093684374783
10gddl9,f,凌河路420弄,121.59959819121545,31.27286303057396
10gddla,f,凌空北路东靖路交界口工地生活区,121.63331449767519,31.29177213836132
10gddlb,f,凌兆路127弄,121.49266028257004,31.142565908729907
10gddlc,f,凌兆路256弄,121.49629102858762,31.14079325557555
10gddld,f,凌兆路285弄,121.49522115194357,31.14335384549866
10gddle,f,凌兆路379弄,121.49724383281881,31.14363015044192
10gddlf,f,凌兆路428弄,121.49919205154528,31.142944158874755
10gddlg,f,凌兆路521弄,121.49977208140595,31.14460425224004
10gddlh,f,凌兆路555弄,121.5016395951903,31.14436167827566
10gddli,f,凌兆路586弄,121.50228032703437,31.14297513052513
10gddlj,f,凌兆路711弄,121.50494308679691,31.145593534445904
10gddlk,f,柳埠路135弄,121.58423232479561,31.261610426596494
10gddll,f,柳埠路196弄,121.58295963456726,31.26411719808226
10gddlm,f,龙东大道云山路交界口工地生活区,121.4572905231601,31.15788535142266
10gddln,f,龙汇路168号工地生活区,121.55134678585323,31.198881634011638
10gddlo,f,龙居路111弄,121.5629606615794,31.25304952071151
10gddlp,f,龙阳路158号工地生活区,121.51161260110308,31.202816120359152
10gddlq,f,罗山路108弄,121.55221084443953,31.24836701489184
10gddlr,f,罗山路1502弄,121.5691836064797,31.228425421729018
10gddls,f,绿林路320弄,121.54736543728183,31.169926808443968
10gddlt,f,绿林路50弄,121.54673954384229,31.17392071949759
10gddlu,f,苗圃路415弄,121.55032376617963,31.237838433855245
10gddlv,f,妙境路141弄,121.68997001439823,31.19706066747028
10gddlw,f,民春路501弄,121.66662464772226,31.27689524479969
10gddlx,f,民生路423号,121.5431913617917,31.240339437264044
10gddly,f,牟平路56弄,121.5962479575194,31.26701442332541
10gddlz,f,南码头路1186弄,121.51301008632294,31.182958845268963
10gddm0,f,南码头路144弄,121.50742632963411,31.19942848059441
10gddm1,f,南码头路1550弄,121.51595029452413,31.17655628861714
10gddm2,f,南码头路1675弄,121.51394376890467,31.17508560029249
10gddm3,f,南码头路450弄,121.50911871199287,31.193295377846056
10gddm4,f,南码头路451弄,121.51108009427595,31.19527490006325
10gddm5,f,南码头路50号,121.50632233124436,31.19996444267739
10gddm6,f,南门大街21弄,121.7546589027953,31.046479809491778
10gddm7,f,南桥路707弄,121.6966255179862,31.188754144095505
10gddm8,f,南泉北路101弄,121.51484309110079,31.237458265682264
10gddm9,f,南泉北路170弄,121.51603925218517,31.236686766363373
10gddma,f,南泉路1250弄,121.52236383900083,31.212389372732265
10gddmb,f,南泉路1300弄,121.5202614000601,31.211028266731372
10gddmc,f,南泉路50号,121.51988779250028,31.22268485859339
10gddmd,f,南团公路858弄,121.76212910538193,31.02681029386128
10gddme,f,泥城路9弄,121.83088956420613,30.903721802943764
10gddmf,f,欧高路138弄,121.57749754743678,31.349430131432612
10gddmg,f,鹏飞路101弄,121.55556158105797,31.175649951766452
10gddmh,f,鹏飞路333弄,121.55747088439036,31.171465288452584
10gddmi,f,鹏岳路152弄,121.55355758161849,31.17063442922143
10gddmj,f,浦城路580弄,121.51469451976732,31.224540560134546
10gddmk,f,浦电路138弄,121.52178976554676,31.219086569825894
10gddml,f,浦电路149弄,121.5214634917474,31.217832095701006
10gddmm,f,浦电路218号,121.52332869577477,31.22014519883683
10gddmn,f,浦电路221号,121.52387569432902,31.21866453974577
10gddmo,f,浦电路29弄,121.51464990081244,31.216253341375996
10gddmp,f,浦电路305弄,121.52627059805793,31.21844437988116
10gddmq,f,浦电路330弄,121.52644738521195,31.221168052386837
10gddmr,f,浦电路53弄,121.51634297552117,31.217534651336543
10gddms,f,浦电路62弄,121.51809990618334,31.217986699263008
10gddmt,f,浦东北路4588弄,121.56267074369427,31.347547184814882
10gddmu,f,浦东大道136弄,121.51381531436323,31.237841419986058
10gddmv,f,浦东大道140弄,121.5145432041568,31.2386670596386
10gddmw,f,浦东大道1585弄,121.5409134434388,31.244678753623734
10gddmx,f,浦东大道1615弄,121.54158147072688,31.245955644960898
10gddmy,f,浦东大道1623弄,121.54241274949432,31.245888195353267
10gddmz,f,浦东大道1695弄,121.54396633000788,31.246228565367602
10gddn0,f,浦东大道1851弄,121.54488451837476,31.247359588691264
10gddn1,f,浦东大道2511弄,121.55932074661244,31.2595940903568
10gddn2,f,浦东大道2515号,121.56079450854637,31.25886181612147
10gddn3,f,浦东大道2641弄,121.56648119643438,31.263761757856408
10gddn4,f,浦东大道290弄,121.51711521715845,31.23921470769141
10gddn5,f,浦东大道2920弄,121.57832442896185,31.273790859538803
10gddn6,f,浦东大道2970弄,121.58100053101253,31.276899733383186
10gddn7,f,浦东大道604弄,121.52209708612033,31.240282723157154
10gddn8,f,浦东南路1288号,121.51638462881338,31.22525210841716
10gddn9,f,浦东南路1533号,121.52074360354409,31.22071471459484
10gddna,f,浦东南路1550弄,121.51791434416064,31.220837842332653
10gddnb,f,浦东南路1700弄,121.51831579954168,31.21749121698907
10gddnc,f,浦东南路1862弄,121.51759588224884,31.215739423198038
10gddnd,f,浦东南路4800弄,121.49732709924008,31.180792787596786
10gddne,f,浦东南路4811号,121.4990882192625,31.17933755593746
10gddnf,f,浦东南路575弄,121.51248347968847,31.236575104070862
10gddng,f,浦东南路595弄,121.51261857954808,31.236206075577726
10gddnh,f,浦建路1086弄,121.53774514062104,31.206010030933616
10gddni,f,浦明路233弄,121.51056746615767,31.22693019205701
10gddnj,f,浦三路288弄,121.51362000703944,31.192555907671608
10gddnk,f,浦三路4677弄,121.55061846842725,31.121297652550513
10gddnl,f,浦三路5127弄,121.53308053195754,31.16026827859177
10gddnm,f,浦三路628弄,121.51639816294946,31.18856586394535
10gddnn,f,栖山路1489弄,121.56432724166481,31.257203760897458
10gddno,f,栖山路1555弄,121.56504546779087,31.257602457800647
10gddnp,f,栖山路1636弄,121.56819324032325,31.257963960928855
10gddnq,f,栖山路400弄,121.55071675617884,31.24632575078609
10gddnr,f,栖山路401弄,121.54977339923295,31.24661971885269
10gddns,f,栖霞路190弄,121.51860101598344,31.237036747212002
10gddnt,f,栖霞路286号,121.52184614675579,31.23793650013982
10gddnu,f,齐河路259弄,121.50374471993204,31.18076526177103
10gddnv,f,齐河路438弄,121.507089120569,31.18022628445559
10gddnw,f,齐河路909弄,121.51580563389199,31.184783832339285
10gddnx,f,齐恒路118弄,121.52023873905304,31.1870759346158
10gddny,f,千汇路1000弄,121.557548163668,31.203107707014844
10gddnz,f,勤奋路川南奉公路交界口工地生活区,121.78218023143073,31.04581498180445
10gddo0,f,清溪路400弄,121.57100634954828,31.340976441424058
10gddo1,f,秋亭路88弄,121.76204658095536,31.09770240130723
10gddo2,f,人民东路2648弄,121.76685006793153,31.05133231824206
10gddo3,f,乳山路161弄,121.5209705490738,31.236028360816597
10gddo4,f,瑞安路699弄,121.60098203343509,31.092485184075763
10gddo5,f,瑞福路52弄,121.60118980000357,31.095934114411843
10gddo6,f,瑞和路168弄,121.58853612590566,31.085665086360805
10gddo7,f,瑞浦路287弄,121.5857356711978,31.09492139054354
10gddo8,f,瑞浦路77弄,121.58770555929387,31.098108944413177
10gddo9,f,瑞浦路8弄,121.58550385976964,31.098878255752822
10gddoa,f,瑞阳路81弄,121.58853183792971,31.098950539972712
10gddob,f,瑞意路399弄,121.5873735227264,31.095993661319696
10gddoc,f,三彩路166弄,121.49749756722868,31.12361760936732
10gddod,f,三彩路52弄,121.49741274674635,31.126098541964662
10gddoe,f,三林路1466弄,121.52340672777471,31.145143426497775
10gddof,f,三林路788弄,121.50774867862322,31.141332017367656
10gddog,f,三林镇联丰村顾家队顾家宅,121.5824652339801,31.166987900018405
10gddoh,f,三林镇临江村临江队王家渡,121.47561927053171,31.127164423637346
10gddoi,f,三林镇临江村王家宅队王家宅,121.47879981059366,31.12439733558146
10gddoj,f,三林镇临江村西新队石河圈,121.47931239597203,31.123934916951786
10gddok,f,三林镇临江村周北队周家宅,121.47389057645799,31.117903883426326
10gddol,f,三林镇临江村周南队周家宅,121.47469790822048,31.11732388063607
10gddom,f,三林镇南阜村东汤队东汤家宅,121.51116828209905,31.142913106064427
10gddon,f,三林镇南阜村东汤队周家宅,121.69857615391133,31.22597008454919
10gddoo,f,三林镇南阜村高树队北孙家宅,121.52038795705114,31.13338939653674
10gddop,f,三林镇南阜村高树队西汤家宅,121.51901698458052,31.132205854089268
10gddoq,f,三林镇南阜村红光队顾家宅,121.51766914591691,31.130534732578475
10gddor,f,三林镇天花庵村北陈队大陈家宅,121.520429273456,31.124611789142282
10gddos,f,三林镇天花庵村东瞿队大瞿家宅,121.53422062075136,31.122820713218154
10gddot,f,三林镇天花庵村芦家队芦家油车,121.52682881033087,31.124279169539722
10gddou,f,三林镇天花庵村南陈队大陈家宅,121.52391466867131,31.122394614833098
10gddov,f,三林镇天花庵村南王家队南王家宅,121.52826650839958,31.133462411825807
10gddow,f,三林镇天花庵村西瞿队大瞿家宅,121.53423699580875,31.122918819796897
10gddox,f,三林镇西林村洪家队西林街,121.49696843046206,31.1341188216599
10gddoy,f,三林镇西林村圈门队西林街,121.49704236801995,31.13396187896988
10gddoz,f,三林镇西林村任桥队西林街,121.49514777151667,31.13794790245361
10gddp0,f,三林镇西林村万家队西林街,121.4969001339825,31.134130278641194
10gddp1,f,三林镇新春村陈桥队陈家桥,121.47575918345413,31.127437721388542
10gddp2,f,三林镇懿德村钱家队钱家宅,121.51611658253374,31.11888404753498
10gddp3,f,三林镇懿德村吴家队吴家宅,121.51628943023752,31.1188396334025
10gddp4,f,三舒路181弄,121.50528583799378,31.123096037618087
10gddp5,f,三舒路192弄,121.50418465732551,31.122634843315094
10gddp6,f,三舒路288弄,121.50499311385057,31.120430250505
10gddp7,f,三舒路33弄,121.50423486363573,31.12592752689576
10gddp8,f,三舒路62弄,121.50277218330184,31.12484357779958
10gddp9,f,上川路361号,121.63933325655871,31.273889289521367
10gddpa,f,上川路620号,121.64802164808484,31.27390025606747
10gddpb,f,上南路1000弄,121.4939448804753,31.17472633997051
10gddpc,f,上南路1251弄,121.4969302054986,31.173442959194386
10gddpd,f,上南路1551弄,121.49730447240577,31.170059803054386
10gddpe,f,上南路3339弄,121.50708520732466,31.160333204781434
10gddpf,f,上南路3651弄,121.50602570724787,31.15412641595732
10gddpg,f,上南路3827弄,121.50664505475967,31.151605501538825
10gddph,f,上南路3880弄,121.50401892716067,31.149774334254687
10gddpi,f,上南路4185弄,121.51262889826336,31.146206807946356
10gddpj,f,上南路6555弄,121.55208324614253,31.11997335120775
10gddpk,f,上南路929弄,121.49581165305166,31.176880922654963
10gddpl,f,上浦路165弄,121.49242416043032,31.146064378482127
10gddpm,f,上浦路505弄,121.498893172736,31.14745768257392
10gddpn,f,上浦路565弄,121.50054140584948,31.14730509667385
10gddpo,f,尚博路799弄,121.52473578950841,31.150915290746546
10gddpp,f,申江路985弄,121.62750156592547,31.288062229504384
10gddpq,f,沈家弄路900弄,121.5462791769929,31.23913749585572
10gddpr,f,沈家弄路936号,121.54696569599615,31.23998934390185
10gddps,f,盛夏路1107弄,121.63490377032585,31.198084201836238
10gddpt,f,盛夏路738弄,121.62896407768275,31.20283376839957
10gddpu,f,施镇路385弄,121.75796203742239,31.14374323564943
10gddpv,f,石潭街136号,121.87369704617403,30.977592654058867
10gddpw,f,世博家园大道站路94弄,121.53500823380138,31.163212240768065
10gddpx,f,寿光路161弄,121.58410672866376,31.274497513732292
10gddpy,f,寿光路75弄,121.58407496068546,31.27314101590633
10gddpz,f,双桥路1108弄,121.61379235814653,31.283216692379877
10gddq0,f,双桥路180弄,121.59459437936017,31.284537111710048
10gddq1,f,水洞港路69弄,121.665762281414,31.294547961187174
10gddq2,f,思浦路17弄,121.49304335348796,31.15822859843784
10gddq3,f,松林路283号,121.533829793967,31.22729411875742
10gddq4,f,孙环路600弄,121.64074500704376,31.177764317978436
10gddq5,f,孙农路397弄,121.62724347828018,31.176880075915456
10gddq6,f,孙桥路788号工地生活区,121.63085382539857,31.170921016095626
10gddq7,f,孙耀路288弄,121.63427128727331,31.182067739891387
10gddq8,f,台儿庄路663弄,121.5980795088999,31.255603910681423
10gddq9,f,唐镇大众村立新新村,121.64029447878099,31.22435135546647
10gddqa,f,唐镇大众村沈家宅,121.64823754686167,31.223615701514742
10gddqb,f,唐镇大众村中心宅,121.64827291741304,31.227917602208738
10gddqc,f,唐镇虹二村盛家宅,121.68076380277252,31.235901755870234
10gddqd,f,唐镇虹四村吴张家宅,121.65349836480736,31.24066726084325
10gddqe,f,唐镇路127弄,121.64967575054496,31.20718726012781
10gddqf,f,唐镇吕三村三林新村,121.64124213068882,31.217077553465625
10gddqg,f,唐镇民丰村龚祠宅,121.64211716877807,31.20828023270214
10gddqh,f,唐镇前进村唐家新村,121.64024049870588,31.199999239748152
10gddqi,f,唐镇小湾村大张家宅,121.6902171700879,31.228262384309218
10gddqj,f,唐镇小湾村东张家宅,121.72039869649488,31.214966436589897
10gddqk,f,唐镇新虹村缪家宅,121.64854084812177,31.242973371241675
10gddql,f,唐镇新镇村谢家宅,121.64084368933293,31.23523113592256
10gddqm,f,唐镇一心村朱家宅,121.68221769804217,31.24346981567948
10gddqn,f,听锦路36弄,121.76067284921744,31.057940578950554
10gddqo,f,庭安路825弄,121.59508271236128,31.3259256525074
10gddqp,f,万德路67弄,121.56000369310367,31.249821370995072
10gddqq,f,王桥街41弄,121.70009321521816,31.202599052294314
10gddqr,f,忘忧路133号,121.62681808456144,31.110006317982137
10gddqs,f,微山二村,121.51352842002541,31.20814251057984
10gddqt,f,潍坊路126弄,121.52371479760232,31.221818502037156
10gddqu,f,潍坊路144号,121.52482368303073,31.22509931683173
10gddqv,f,潍坊路149弄,121.5214681984913,31.21831458054718
10gddqw,f,潍坊路168弄,121.52774468270006,31.225496139140894
10gddqx,f,潍坊路270弄,121.53370782680372,31.22778103739777
10gddqy,f,潍坊路278号,121.53404825779414,31.228383002218262
10gddqz,f,潍坊路280号,121.53457716727527,31.228236882010542
10gddr0,f,潍坊路328号工地生活区,121.5328246084611,31.22695181537972
10gddr1,f,潍坊路333弄,121.52720861420119,31.22628579260358
10gddr2,f,潍坊路335弄,121.53195022001832,31.229891829944425
10gddr3,f,潍坊路375弄,121.53156712170247,31.228361233180486
10gddr4,f,潍坊路606号,121.52227303966461,31.222827949054714
10gddr5,f,潍坊路716号,121.52124255904458,31.22371119911409
10gddr6,f,潍坊西路100弄,121.51655723176594,31.222606961275783
10gddr7,f,潍坊西路1弄,121.51263065970211,31.222868431975368
10gddr8,f,五莲路100弄,121.57935034761648,31.27553847503621
10gddr9,f,五莲路1047弄,121.59426823175045,31.272742809159084
10gddra,f,五莲路108弄,121.59985844085729,31.2819957849032
10gddrb,f,五莲路1424弄,121.59928996153607,31.276967382812465
10gddrc,f,五莲路201弄,121.58161534697031,31.27479945209041
10gddrd,f,五莲路30弄,121.57786324097745,31.275522502692237
10gddre,f,五莲路780弄,121.59078167437846,31.26874609476208
10gddrf,f,五莲路959弄,121.59240050775716,31.271637855061705
10gddrg,f,五星路151弄,121.56230438304753,31.173736515713504
10gddrh,f,五星路231弄,121.56237401897398,31.17471427083335
10gddri,f,西三里桥路9弄,121.5062554318115,31.199983924816955
10gddrj,f,西泰林路750弄,121.53823219400623,31.14275270732882
10gddrk,f,西泰林路850弄,121.53994885185327,31.14221411816405
10gddrl,f,西营南路18弄,121.4876799708762,31.16031340545655
10gddrm,f,下南路1071弄,121.53564481035681,31.18484267541117
10gddrn,f,下南路225弄,121.54298639511104,31.16832537636682
10gddro,f,下南路309弄,121.54333910619495,31.169388783197977
10gddrp,f,下南路320弄,121.54061697323246,31.16881456409901
10gddrq,f,下南路465弄,121.54091085343977,31.171412451499986
10gddrr,f,下南路500弄,121.53910565576842,31.17216431468133
10gddrs,f,下南路501弄,121.54112498720455,31.172325875089555
10gddrt,f,下南路526弄,121.53844063866724,31.171087114853695
10gddru,f,下南路551弄,121.54202844609485,31.17322260221269
10gddrv,f,夏碧路380弄,121.58444464759698,31.33762981862266
10gddrw,f,夏栎路233弄,121.91667133165483,30.910478841359275
10gddrx,f,新场镇果园村,121.60303620016067,31.02444129064941
10gddry,f,新场镇蒋桥村新桥,121.65264430046236,31.03676344868248
10gddrz,f,新场镇坦西村坦北,121.63380430754935,31.074196133225012
10gdds0,f,新场镇新卫村,121.64016536098309,31.03935494039029
10gdds1,f,新川路1100弄,121.68404602752955,31.18856930286801
10gdds2,f,新川路709弄,121.69198521617047,31.190807143984433
10gdds3,f,新村路59弄,121.49647274780081,31.164344425913697
10gdds4,f,新德路365弄,121.69797447021628,31.19706601595827
10gdds5,f,新德西路508弄,121.66782063321288,31.190918212934534
10gdds6,f,新龙路203弄,121.62980488569211,31.31475839076987
10gdds7,f,新龙路289弄,121.63094911618998,31.314755777702498
10gdds8,f,新浦路543弄,121.53032902683105,31.169649080720436
10gdds9,f,新雅东路51弄,121.68664817120312,31.237413439705175
10gddsa,f,新元南路正茂路交界口工地生活区,121.54876962580306,31.2049066568518
10gddsb,f,秀浦路886弄,121.57211338633766,31.126226537860436
10gddsc,f,秀沿路1弄,121.54360457230524,31.133078625400785
10gddsd,f,秀沿路2501弄,121.60130819005218,31.138242312123676
10gddse,f,秀沿路2875弄,121.61309575509962,31.138088245977254
10gddsf,f,秀沿路3668号,121.61674357922954,31.136254018689574
10gddsg,f,雪野二路296号工地生活区,121.49349887328616,31.180051689163108
10gddsh,f,雪野路34弄,121.49693807156966,31.182437992556313
10gddsi,f,严民路40弄,121.52745724285927,31.192425113090938
10gddsj,f,严桥路141弄,121.52832433882038,31.19028755094864
10gddsk,f,严桥路240弄,121.52709490316158,31.187853467764516
10gddsl,f,杨高南路1218弄,121.52976276617304,31.20466447092917
10gddsm,f,杨高中路10弄,121.59813900746823,31.257838872231282
10gddsn,f,杨高中路2168弄,121.55149506722827,31.230412992838545
10gddso,f,杨高中路750弄,121.5880153258559,31.24795011470879
10gddsp,f,杨莲路160弄,121.55008553885725,31.16515491181951
10gddsq,f,杨南路1899弄,121.51772218046735,31.157532546754055
10gddsr,f,杨南路694弄,121.50090108832917,31.150879528071965
10gddss,f,杨南路797弄,121.50083413941016,31.153491729124863
10gddst,f,杨南路826弄,121.5036138547875,31.15128035015202
10gddsu,f,杨思北街118弄,121.4927325505949,31.16384461891721
10gddsv,f,杨思路1121弄,121.50599795566208,31.164890471092615
10gddsw,f,杨思路436弄,121.49352006078655,31.160228928400144
10gddsx,f,杨思路860弄,121.4987400089085,31.162240270388423
10gddsy,f,杨思新村,121.49538535259909,31.163635195789833
10gddsz,f,杨新路197弄,121.49233812859092,31.163111557723525
10gddt0,f,杨新路198弄,121.49221236439973,31.163720794502545
10gddt1,f,杨新路20弄,121.49637718418963,31.164664633036864
10gddt2,f,杨新路282弄,121.48745128604956,31.16199177114096
10gddt3,f,杨新路80弄,121.4938524199414,31.163999819468685
10gddt4,f,杨新路95号,121.49361840202694,31.163629282835064
10gddt5,f,耀华路331弄,121.48561379835883,31.176251205767024
10gddt6,f,耀华路414弄,121.48567542577489,31.173002059619932
10gddt7,f,耀华路87弄,121.49154889845988,31.17856928492811
10gddt8,f,耀华路8号,121.49408320957895,31.178394897532467
10gddt9,f,耀江路355号工地生活区,121.44246987386437,31.16517633163666
10gddta,f,益丰路55弄,121.62292913697527,31.20085901062357
10gddtb,f,益江路126弄,121.63322203880263,31.20112347770633
10gddtc,f,益江路299弄,121.63157797612087,31.197167126675787
10gddtd,f,益江路511弄,121.6281067695959,31.196170277528466
10gddte,f,懿行路971弄,121.51489853125773,31.12527027995652
10gddtf,f,银山路181号,121.57998265597868,31.24419063029585
10gddtg,f,银山路200弄,121.58010648535662,31.243555821970183
10gddth,f,银山路342弄,121.58375391520521,31.24457248174
10gddti,f,银山路72弄,121.57879152199033,31.2425475499497
10gddtj,f,银樽路58弄,121.64789087039156,31.212870254315117
10gddtk,f,迎春路1355弄,121.56278623788542,31.22911511933862
10gddtl,f,迎薰路1018弄,121.76589308629303,31.0356306815445
10gddtm,f,营洪路1258弄,121.7268119414877,31.184235146674396
10gddtn,f,永泰路136弄,121.50435389995174,31.134641585634867
10gddto,f,永泰路2079弄,121.54218183040477,31.149057896782008
10gddtp,f,永泰路468弄,121.51224286850052,31.136173170213322
10gddtq,f,永泰路630弄,121.51771115928923,31.137627952794073
10gddtr,f,永泰路775弄,121.51942437321085,31.142209816405728
10gddts,f,友林路栖山路交界口工地生活区,121.54875406047753,31.204660807740595
10gddtt,f,羽山路1446弄,121.56154888991813,31.239682770686766
10gddtu,f,玉泉街77弄,121.49516218512322,31.162620815167973
10gddtv,f,御桥路1978弄,121.57300399299959,31.15833674918751
10gddtw,f,御桥路2066弄,121.57514231248587,31.158151694931792
10gddtx,f,御青路56弄,121.56981517890023,31.16153898360306
10gddty,f,御山路360弄,121.56709892531303,31.1556374870456
10gddtz,f,御山路390弄,121.56777287985595,31.154037079253133
10gddu0,f,御水路150弄,121.57241830042898,31.161024640634277
10gddu1,f,园二路299弄,121.63459142634596,31.31748412983311
10gddu2,f,云山路1043弄,121.57448560099053,31.2492317837691
10gddu3,f,云山路1050弄,121.57220817852685,31.24901786595944
10gddu4,f,云山路999弄,121.57273600443938,31.25111663964841
10gddu5,f,云雅路395弄,121.67867685548084,31.242186456220107
10gddu6,f,韵涛路36弄,121.5875948292091,31.10261093319008
10gddu7,f,枣庄路658弄,121.57828070763476,31.2506186495748
10gddu8,f,张江镇劳动村看鸟浜宅,121.63374454974124,31.17272149109556
10gddu9,f,张江镇沔北村顾家宅,121.63429540035439,31.167668494749986
10gddua,f,张江镇中心村安乐宅,121.63423350278303,31.176476035039926
10gddub,f,张杨路1673弄,121.54283117230028,31.236834058280373
10gdduc,f,张杨路1734弄,121.54707725895734,31.235774023901676
10gddud,f,张杨路310弄,121.51355826746736,31.22470473829018
10gddue,f,张杨路370弄,121.51444218635095,31.225520052225697
10gdduf,f,张杨路628弄,121.52039164391101,31.228275604613206
10gddug,f,招远路19弄,121.51496946643454,31.23659438253643
10gdduh,f,赵高公路587号,121.62629619344905,31.316622082780054
10gddui,f,赵高公路610号,121.6261131025367,31.316154051129534
10gdduj,f,赵高公路950-968号,121.6329431156774,31.30717281271593
10gdduk,f,赵高公路958号,121.6298595681533,31.312094611537834
10gddul,f,浙桥路277号,121.6008906545435,31.25243435657374
10gddum,f,振桥路申轮路交界口工地生活区,121.63168173870275,31.2805383589308
10gddun,f,振兴东路12弄,121.49593995996106,31.162792117400336
10gdduo,f,中科路2500弄,121.63398674783731,31.188597300672654
10gddup,f,中科路2635弄,121.63459178177509,31.18993176095098
10gdduq,f,周汇路158弄,121.58477679876435,31.10269214975597
10gddur,f,周康路869弄,121.57510896644976,31.102473679698562
10gddus,f,周浦镇里仁村,121.56761565520925,31.11227900946019
10gddut,f,周浦镇沈西村,121.56544437457579,31.089990295692417
10gdduu,f,周秀路168弄,121.60512775603628,31.09882112363793
10gdduv,f,周祝公路周泰北路交界口工地生活区,121.65996142620925,31.10879411353477
10gdduw,f,洲德路博艺路交界口工地生活区,121.90177423818797,30.948008821658952
10gddux,f,竹柏路333弄,121.90845589418154,30.900663350919945
10gdduy,f,竹柏路500弄,121.90386558893474,30.902555294786143
10gdduz,f,祝家港路155弄,121.58545411589363,31.111413769764876
10gddv0,f,祝桥镇道新村东杜家宅,121.76024260265282,31.163020800523217
10gddv1,f,祝桥镇中圩村唐家宅,121.75237317656203,31.156567782624386
10gddv2,f,梓康路188弄,121.56885125980644,31.12290656943841
10gddv3,f,梓营路155弄,121.57487995921693,31.120516491534687
10gddv4,f,紫薇路750弄,121.62394054725759,31.206458887844757
10gddv5,f,紫叶路51弄,121.55041344029159,31.183759186726668
10gddv6,1,白河路21弄,121.47166863378457,31.235031265799055
10gddv7,1,白河路39号,121.47186099869725,31.235335431404383
10gddv8,1,半淞园路585弄,121.49414884365976,31.200030386347176
10gddv9,1,半淞园路698弄,121.49370284299282,31.19827918612807
10gddva,1,保屯路129弄,121.49038871019897,31.20570105785768
10gddvb,1,保屯路211弄,121.49152234717386,31.203847433749534
10gddvc,1,保屯路50弄,121.48949128170122,31.206188918569058
10gddvd,1,保屯路99弄,121.49032607124083,31.207324626449427
10gddve,1,北海路267弄,121.47803369406087,31.230135934712965
10gddvf,1,北京东路288弄,121.48421311668251,31.241432342146194
10gddvg,1,北京东路316弄,121.48385058778202,31.241147730931207
10gddvh,1,北京东路360弄,121.4832917483029,31.24047861877572
10gddvi,1,北京东路431弄,121.47944280279386,31.23940659882992
10gddvj,1,北京东路432号,121.4817770311508,31.240047814497252
10gddvk,1,北京西路206号,121.46961197749546,31.23600511604327
10gddvl,1,北京西路218弄,121.46954662550829,31.23623011444915
10gddvm,1,北京西路256号,121.46872898572069,31.235835541356884
10gddvn,1,曹市弄15弄,121.48903637654259,31.218786093689527
10gddvo,1,曹市弄20弄,121.48916963888675,31.218979283429974
10gddvp,1,曹市弄33弄,121.48920898372458,31.218804825852114
10gddvq,1,曹市弄39弄,121.48910772048276,31.218960280740497
10gddvr,1,曹市弄42弄,121.4891421203249,31.21882408979222
10gddvs,1,曹市弄44号,121.48920363704445,31.218637005932518
10gddvt,1,曹市弄66弄,121.4889723439876,31.218805198921988
10gddvu,1,曹市弄8弄,121.48930004307283,31.218794670192917
10gddvv,1,车站支路34号,121.49357310932609,31.208419481956827
10gddvw,1,成都北路262弄,121.46804677058277,31.228532763650968
10gddvx,1,成都北路274弄,121.46739227886195,31.228726855051946
10gddvy,1,成都南路108弄,121.46744474651982,31.22159468170331
10gddvz,1,成都南路132弄,121.4679007894375,31.22129906014065
10gddw0,1,长乐路161号,121.46285757984698,31.2208072703594
10gddw1,1,长乐路169弄,121.46240834523648,31.221019698273324
10gddw2,1,长乐路244号,121.46537842500841,31.221783452278547
10gddw3,1,长乐路434弄,121.45853500130706,31.220948294050615
10gddw4,1,重庆北路177弄,121.46902218814246,31.226251122989865
10gddw5,1,重庆北路216弄,121.47033268986567,31.22713133320678
10gddw6,1,重庆北路305号,121.46879546184283,31.228686771008192
10gddw7,1,重庆北路364号,121.4682878404418,31.22928807007525
10gddw8,1,重庆南路163弄,121.47182728290002,31.217063080327392
10gddw9,1,重庆南路169弄,121.47233290484782,31.216760935966022
10gddwa,1,重庆南路177号,121.47122490106867,31.215994444726082
10gddwb,1,重庆南路18号,121.47125115081107,31.22049882137417
10gddwc,1,重庆南路205弄,121.47153848522179,31.214636672104604
10gddwd,1,重庆南路22号,121.47144248648763,31.22043265465668
10gddwe,1,重庆南路24号,121.47146317736309,31.220468077858452
10gddwf,1,重庆南路26弄,121.47109096057689,31.22011025846067
10gddwg,1,打浦路133号,121.48337835711128,31.17858044618793
10gddwh,1,打浦路299弄,121.47231666622358,31.201495717823278
10gddwi,1,打浦路316弄,121.47104299299916,31.20019541247324
10gddwj,1,打浦路339弄,121.47192182957485,31.199688615155104
10gddwk,1,打浦路398弄,121.4720311661179,31.197469627135685
10gddwl,1,打浦路399弄,121.48330268045652,31.178598531736377
10gddwm,1,打浦路470弄,121.47276256453102,31.19685294001405
10gddwn,1,打浦路500弄,121.47313755920023,31.196171035492423
10gddwo,1,打浦路78号,121.47037431995547,31.203530655626782
10gddwp,1,打浦路80弄,121.46973437683789,31.203630686198963
10gddwq,1,打浦路90弄,121.47084407453683,31.202563618421042
10gddwr,1,打浦路92号,121.4708651963915,31.202785240611327
10gddws,1,大沽路141号,121.47162705107054,31.22632544635666
10gddwt,1,大沽路161号,121.47102629959103,31.22612713024763
10gddwu,1,大沽路167号,121.4710245701728,31.226226041121983
10gddwv,1,大沽路183弄,121.47151655895885,31.22609416652699
10gddww,1,大沽路186弄,121.47126044784275,31.22655187069446
10gddwx,1,大沽路197号,121.47055669365056,31.225880757347106
10gddwy,1,大沽路252号,121.46964976703258,31.22585314935196
10gddwz,1,大吉路173弄,121.48403205854218,31.214408537123077
10gddx0,1,大吉路26弄,121.48673337314082,31.21523321079087
10gddx1,1,大吉路44弄,121.48192699186401,31.212952975500833
10gddx2,1,大吉路57号,121.48624374198612,31.21540479844086
10gddx3,1,大林路256号,121.4841339616241,31.212377687886875
10gddx4,1,大林路31弄,121.4873480344571,31.214576558090602
10gddx5,1,淡水路212号,121.47288854710834,31.216973306616595
10gddx6,1,淡水路214弄,121.47282305653566,31.217093409342734
10gddx7,1,淡水路219号,121.47351085294004,31.21717585996268
10gddx8,1,淡水路221号,121.47325837187762,31.217681191406434
10gddx9,1,淡水路225弄,121.47320630605275,31.216813866463944
10gddxa,1,淡水路278弄,121.47324614593047,31.21702739799762
10gddxb,1,淡水路460弄,121.47401068382129,31.210990754499896
10gddxc,1,定兴路36号,121.47091315306614,31.23499167951793
10gddxd,1,东江阴街118号,121.49843866046778,31.213593653802846
10gddxe,1,东江阴街224号,121.49624163546827,31.214084402604566
10gddxf,1,东街167弄,121.49690345709793,31.221892506743604
10gddxg,1,方浜西路63弄,121.48274820346396,31.220421359677697
10gddxh,1,方斜路401弄,121.48387409393135,31.214665224801784
10gddxi,1,方斜支路23号,121.48576042374803,31.21659492249846
10gddxj,1,方斜支路35弄,121.4859370372914,31.21640158821831
10gddxk,1,方斜支路7号,121.4861274255888,31.21673879226552
10gddxl,1,凤阳路228弄,121.47125153255044,31.234586160496967
10gddxm,1,凤阳路358弄,121.46905367989942,31.23391112604656
10gddxn,1,福州路185号,121.4868847158472,31.234865493351958
10gddxo,1,福州路384弄,121.4827867389385,31.234937310840213
10gddxp,1,福州路515号,121.4809193454508,31.23311382374099
10gddxq,1,福州路531弄,121.48067843911129,31.23314173484686
10gddxr,1,福州路614弄,121.47885679587877,31.23308530274083
10gddxs,1,复兴东路322号,121.49832505295535,31.22090735835713
10gddxt,1,复兴东路330号,121.49808787953812,31.22108487921556
10gddxu,1,复兴东路346号,121.4979877781412,31.22116634655634
10gddxv,1,复兴东路404弄,121.49668456170912,31.221313160778525
10gddxw,1,复兴东路699号,121.4907482792894,31.222356577387554
10gddxx,1,复兴中路485弄,121.47179960215243,31.214909433116844
10gddxy,1,复兴中路565弄,121.46636483073358,31.21471403768293
10gddxz,1,复兴中路583弄,121.46593461486863,31.214792954218915
10gddy0,1,复兴中路598弄,121.46423947024421,31.214973646316924
10gddy1,1,复兴中路616弄,121.46398965115023,31.214759699508694
10gddy2,1,高家弄45弄,121.48886148014878,31.22101022978862
10gddy3,1,高家弄69号,121.48917829144244,31.220669573746772
10gddy4,1,牯岭路145弄,121.47144400050514,31.235716146006766
10gddy5,1,光启路111号,121.49438545504003,31.224136107407585
10gddy6,1,光启路131号,121.49455112457038,31.223633049010505
10gddy7,1,光启南路25号,121.49431627557523,31.221779620189015
10gddy8,1,广东路138号,121.4882440562072,31.23405480736308
10gddy9,1,广东路550号,121.48111918095485,31.23222128841889
10gddya,1,广西北路228弄,121.47878646440259,31.23343166002541
10gddyb,1,广西北路425号,121.47666120444119,31.236038320120997
10gddyc,1,贵州路169号,121.47577047966897,31.236914710087735
10gddyd,1,贵州路175号,121.4756732077195,31.237246387115526
10gddye,1,贵州路285号,121.47512522602472,31.238657761857482
10gddyf,1,贵州路77弄,121.47617610152615,31.235342239603924
10gddyg,1,海潮路222弄,121.49700649738868,31.207993718393286
10gddyh,1,海潮路3号,121.49857757613323,31.210816311037384
10gddyi,1,海潮路93弄,121.4995008176331,31.210597926037575
10gddyj,1,海南西弄51弄,121.49721476320312,31.210989673368257
10gddyk,1,海南西弄60号,121.49693392372194,31.211023546275527
10gddyl,1,汉口路425号,121.48231525491687,31.234802721022703
10gddym,1,汉口路455弄,121.48209102054224,31.23428990418975
10gddyn,1,汉口路678号,121.47780951225883,31.234080095668592
10gddyo,1,和顺街46号,121.4966100016215,31.220651767861824
10gddyp,1,河南南路1001弄,121.4932006768858,31.213646230996417
10gddyq,1,河南南路1009弄,121.49417700693306,31.21355782986679
10gddyr,1,河南南路398弄,121.48849421285736,31.22264945680724
10gddys,1,河南南路582弄,121.49054624560085,31.220103060662687
10gddyt,1,河南南路600弄,121.49078507331551,31.22007467319601
10gddyu,1,河南南路612弄,121.49077079569335,31.219322591619132
10gddyv,1,河南南路655弄,121.49196590502724,31.21809154227743
10gddyw,1,河南南路790弄,121.49101360728068,31.21642539545436
10gddyx,1,河南中路46号,121.4864460010671,31.231478546000456
10gddyy,1,河南中路541弄,121.48336124910944,31.239386260646583
10gddyz,1,河南中路575弄,121.48364055318939,31.240189887807798
10gddz0,1,湖北路20号,121.48201500728152,31.23118865091067
10gddz1,1,湖滨路150号,121.47879267432907,31.2210327783893
10gddz2,1,淮海中路475号,121.47008251877405,31.221126544152934
10gddz3,1,淮海中路526弄,121.46899356246503,31.22113475820367
10gddz4,1,淮海中路542弄,121.46876229859508,31.221311309591165
10gddz5,1,淮海中路613弄,121.46758770667824,31.219866009390547
10gddz6,1,淮海中路697弄,121.46547997429599,31.218542300504005
10gddz7,1,淮海中路774号,121.4630650711805,31.218545981509607
10gddz8,1,淮海中路816弄,121.46154459431362,31.218363226627783
10gddz9,1,淮海中路833弄,121.46263845214477,31.21826213598206
10gddza,1,黄陂南路596弄,121.47641748511917,31.215863108079493
10gddzb,1,黄陂南路685弄,121.47812131624592,31.21429716947396
10gddzc,1,黄河路107弄,121.46944134678925,31.233583796399135
10gddzd,1,黄河路110号,121.47062117705343,31.234836181831984
10gddze,1,黄河路125弄,121.47023626127348,31.235060001905794
10gddzf,1,黄河路132弄,121.47068909237494,31.235432666960108
10gddzg,1,黄河路199号,121.46945758365385,31.236130908286054
10gddzh,1,黄河路205号,121.46942077720175,31.236173401341603
10gddzi,1,黄河路215弄,121.46889623300794,31.236424014540024
10gddzj,1,黄河路219号,121.46980241560144,31.236536941801567
10gddzk,1,黄河路223弄,121.4694824931999,31.23672557426397
10gddzl,1,黄河路225号,121.46969209695017,31.236584940242988
10gddzm,1,黄河路227号,121.46970234680191,31.23660828291595
10gddzn,1,黄河路253弄,121.46738558221635,31.237241694557145
10gddzo,1,黄河路271号,121.46903451195055,31.237368927074098
10gddzp,1,黄河路275号,121.46909265224845,31.237280742811
10gddzq,1,黄河路281弄,121.46859554371193,31.237046397078448
10gddzr,1,黄河路288号,121.46974892286643,31.2375818634918
10gddzs,1,黄家路88弄,121.49593617592981,31.215612863013916
10gddzt,1,黄家阙路68弄,121.48735343202345,31.21513797734149
10gddzu,1,黄家阙路76弄,121.4876813169146,31.214611836396916
10gddzv,1,黄家阙路88弄,121.48751885311277,31.21471908406935
10gddzw,1,黄家阙路99号,121.48808411177961,31.21485469591128
10gddzx,1,徽宁路501弄,121.48953165525776,31.21027965282931
10gddzy,1,徽宁路509号,121.48718889300105,31.20938047845998
10gddzz,1,徽宁路527弄,121.48776581760237,31.209139930847606
10gde00,1,火腿弄55弄,121.49530620584356,31.22157220319924
10gde01,1,建德路1号,121.4684183356557,31.20982728102478
10gde02,1,建国东路328弄,121.47666105871599,31.21314218922221
10gde03,1,建国东路61弄,121.47993893404009,31.213317755888877
10gde04,1,建国西路178号,121.4626065005261,31.206982413143358
10gde05,1,建国西路91弄,121.46523730566985,31.206765959259737
10gde06,1,建国新路77弄,121.48245739171912,31.21458848154959
10gde07,1,建国中路155弄,121.46771738785148,31.208575373098807
10gde08,1,建国中路26号,121.46773144653542,31.208962891123193
10gde09,1,建国中路65弄,121.46980370941979,31.209500319606978
10gde0a,1,江滨路99号,121.47331395662636,31.192060353161636
10gde0b,1,江西中路130号,121.48766401271457,31.234097972825552
10gde0c,1,江西中路135弄,121.48655970715845,31.2334977379312
10gde0d,1,江西中路141号,121.48734487786204,31.234068136261627
10gde0e,1,江西中路147号,121.48725048433494,31.234317057766486
10gde0f,1,江西中路170号,121.48766310252397,31.23486079474163
10gde0g,1,江西中路24弄,121.48828176685069,31.232620077125663
10gde0h,1,江西中路304号,121.48671532184123,31.238353491020046
10gde0i,1,江西中路34弄,121.48821778280393,31.232627431146902
10gde0j,1,江西中路38号,121.48799398819969,31.23274658493975
10gde0k,1,江西中路44弄,121.48871150713263,31.232961190344387
10gde0l,1,江西中路460弄,121.485698063493,31.242208297903847
10gde0m,1,江西中路469弄,121.4850755696274,31.241985898663938
10gde0n,1,江西中路473号,121.48501960489851,31.242362266427804
10gde0o,1,江西中路481号,121.4846472292381,31.242299876447387
10gde0p,1,江阴街276号,121.49081172624244,31.213711846241672
10gde0q,1,江阴街8号,121.49500435149515,31.214198050538688
10gde0r,1,江阴路106弄,121.46848033210208,31.229821136295655
10gde0s,1,江阴路124号,121.46834248809226,31.22952610714284
10gde0t,1,江阴路134号,121.4679486942415,31.229674469966945
10gde0u,1,江阴路140号,121.46798035292382,31.229312840814103
10gde0v,1,江阴路152号,121.46773181061789,31.22960176252177
10gde0w,1,江阴路78号,121.46914779112008,31.22969319293388
10gde0x,1,江阴路88弄,121.46862332516316,31.230179651344532
10gde0y,1,金陵东路531号,121.48162330836593,31.22759276353145
10gde0z,1,金陵东路61号,121.49117662478324,31.231242212253584
10gde10,1,金陵东路63号,121.49122529958461,31.23122347731594
10gde11,1,金坛路35弄,121.49818728483373,31.219723026562736
10gde12,1,金坛路9号,121.49825270540315,31.21935299003895
10gde13,1,进贤路122弄,121.45956628553549,31.221907589907325
10gde14,1,进贤路156弄,121.45937155657604,31.222165010863243
10gde15,1,静修路104弄,121.48705089643845,31.219581092757128
10gde16,1,静修路114弄,121.48744571627968,31.219194855735818
10gde17,1,静修路126弄,121.48634064410373,31.219330695281236
10gde18,1,静修路36弄,121.48656050903563,31.219650766941886
10gde19,1,静修路37弄,121.48772028528508,31.22031411036593
10gde1a,1,静修路49号,121.48759940441518,31.220226865794366
10gde1b,1,静修路89号,121.48686894393708,31.219601569971267
10gde1c,1,九江路202号,121.48602384638357,31.236796025385907
10gde1d,1,九江路210号,121.48608272031021,31.237072808358004
10gde1e,1,九江路619号,121.47845973515115,31.23429399815765
10gde1f,1,局门路208号,121.48052010724672,31.206452626026742
10gde1g,1,局门路405弄,121.48271570429232,31.20399114911294
10gde1h,1,巨鹿路260弄,121.46195323366516,31.223228284495104
10gde1i,1,巨鹿路395弄,121.4589498149161,31.22212249268002
10gde1j,1,老道前街62号,121.48753780972967,31.217743287711237
10gde1k,1,丽园路333弄,121.48355451082611,31.21007433572063
10gde1l,1,丽园路660号,121.47994069402239,31.207035681304014
10gde1m,1,丽园路666号,121.47973153274725,31.20707636915253
10gde1n,1,丽园路710弄,121.4796312381403,31.20642104865538
10gde1o,1,丽园路842弄,121.47622047329669,31.20569377013373
10gde1p,1,丽园路881号,121.47533787979792,31.206812589147937
10gde1q,1,丽园路883号,121.47555130849153,31.2067254009117
10gde1r,1,丽园路8号,121.48989085436494,31.21091160686115
10gde1s,1,林荫路260弄,121.48632555820043,31.212350891931525
10gde1t,1,柳江街15弄,121.48976241302583,31.219579978773744
10gde1u,1,柳江街16弄,121.48947228971274,31.219189060313525
10gde1v,1,柳江街19号,121.48997786482362,31.21889413151189
10gde1w,1,柳江街21号,121.48998118295131,31.218951560843912
10gde1x,1,柳江街5号,121.48960260922104,31.21970802570502
10gde1y,1,龙华东路526号,121.47796299546108,31.194643185314483
10gde1z,1,龙华东路72号,121.4739040652351,31.193040495330735
10gde20,1,龙华东路888弄,121.47119062979255,31.192991778342112
10gde21,1,鲁班路168弄,121.47322522174386,31.204833374422957
10gde22,1,鲁班路277弄,121.47547316203087,31.204920677093025
10gde23,1,鲁班路299弄,121.47540583688102,31.203907603449004
10gde24,1,鲁班路400弄,121.47586436345269,31.200186195668024
10gde25,1,鲁班路721弄,121.47848633855372,31.197125961186913
10gde26,1,陆家浜路1060弄,121.48849085616729,31.21171303772175
10gde27,1,陆家浜路1300号,121.48422190169589,31.21133371087608
10gde28,1,陆家浜路1331号,121.4835005471058,31.211544095457864
10gde29,1,陆家浜路1396号,121.4822878897968,31.211087112584597
10gde2a,1,陆家浜路1398号,121.48234429254347,31.21099387886172
10gde2b,1,陆家浜路305弄,121.50057977003456,31.211602677144477
10gde2c,1,陆家浜路413弄,121.49980945205019,31.212583728238894
10gde2d,1,陆家浜路468弄,121.49740970999568,31.21059987177718
10gde2e,1,马当路278弄,121.47370679189024,31.217685223031953
10gde2f,1,马当路306弄,121.47471154772612,31.217171625964955
10gde2g,1,茂名南路163弄,121.46247702362619,31.21588153395068
10gde2h,1,茂名南路22弄,121.46001377555265,31.22268184753631
10gde2i,1,蒙自路252弄,121.4779690957913,31.2051867506721
10gde2j,1,蒙自路490弄,121.47968252265206,31.2007836220336
10gde2k,1,蒙自路601弄,121.48071703858217,31.199695713584298
10gde2l,1,蒙自西路72弄,121.4749235272747,31.207106364003057
10gde2m,1,蒙自西路76号,121.47471387351928,31.207204817168602
10gde2n,1,梦花街121号,121.48749343553574,31.218703443523605
10gde2o,1,梦花街137号,121.48739195799816,31.21855233286376
10gde2p,1,梦花街139号,121.48719436623566,31.218678373359733
10gde2q,1,梦花街13弄,121.48920834946242,31.219720851115632
10gde2r,1,梦花街149号,121.48726761798153,31.218717651118798
10gde2s,1,梦花街17号,121.48919995143144,31.2197566301668
10gde2t,1,梦花街190号,121.48669902295126,31.218368546441805
10gde2u,1,梦花街198弄,121.48672507262378,31.218156284392755
10gde2v,1,梦花街214号,121.48630193639914,31.21804386122964
10gde2w,1,梦花街26号,121.4891988542727,31.219479624568592
10gde2x,1,梦花街31号,121.48902590841733,31.219592012679247
10gde2y,1,梦花街3弄,121.48951305277838,31.220067962511855
10gde2z,1,梦花街57弄,121.48844274604974,31.21945873337372
10gde30,1,梦花街73弄,121.4884335866363,31.219313082067803
10gde31,1,梦花街78弄,121.48867688126352,31.21834115151915
10gde32,1,面筋弄24号,121.49837907067908,31.220581876909005
10gde33,1,面筋弄35号,121.49832053535906,31.220858722480067
10gde34,1,苗江路758号,121.49632015698234,31.197859080663676
10gde35,1,南昌路127弄,121.4635847078808,31.217120252556416
10gde36,1,南昌路137号,121.46335477101961,31.21733493666964
10gde37,1,南昌路312号,121.46200651652987,31.21657864045281
10gde38,1,南昌路69弄,121.46588253580273,31.217551145377076
10gde39,1,南昌路76号,121.46955971766964,31.219543899969622
10gde3a,1,南昌路86号,121.46910908360901,31.219438861777054
10gde3b,1,南车站路192弄,121.4907205889433,31.209315000486214
10gde3c,1,南车站路318弄,121.49174290413958,31.207359287846437
10gde3d,1,南车站路90号,121.49011638806316,31.210806202687483
10gde3e,1,南京东路720号,121.47684059748859,31.235437484151365
10gde3f,1,南京西路479弄,121.46810428054708,31.22988963514148
10gde3g,1,南苏州路597号,121.48054320954323,31.239855050461173
10gde3h,1,南塘浜路93弄,121.4738844875138,31.204352152611143
10gde3i,1,宁安路107弄,121.48614064095263,31.216334015892812
10gde3j,1,宁安路99弄,121.48593445207885,31.21660080605982
10gde3k,1,宁波路120弄,121.48463026292973,31.239994578286367
10gde3l,1,宁波路201号,121.4834944129695,31.239190804583775
10gde3m,1,宁波路219号,121.48307702526355,31.239178912959865
10gde3n,1,宁波路232号,121.48298319624642,31.239136961730715
10gde3o,1,宁波路266号,121.48218901840804,31.2390569400208
10gde3p,1,宁波路284弄,121.48180528151215,31.238659290283476
10gde3q,1,宁波路540号,121.47741535817272,31.237116854272493
10gde3r,1,宁波路542弄,121.47693007427073,31.237126709247804
10gde3s,1,宁波路545号,121.4771051402235,31.236920277613503
10gde3t,1,宁波路557号,121.47671198481513,31.236095070010677
10gde3u,1,宁波路587弄,121.47640989497683,31.236749864115318
10gde3v,1,宁波路617号,121.47605959386047,31.23630778114555
10gde3w,1,宁波路620弄,121.47575377312009,31.23659640947568
10gde3x,1,宁海东路279弄,121.48026069903906,31.227948321530448
10gde3y,1,牌楼路41弄,121.48688211243748,31.213772844909474
10gde3z,1,蓬莱路178号,121.48745824347355,31.21863164010481
10gde40,1,蓬莱路188号,121.49107950371821,31.21796002150144
10gde41,1,蓬莱路195号,121.4907996720256,31.218138349724242
10gde42,1,蓬莱路199弄,121.49076580473124,31.218146364453986
10gde43,1,蓬莱路203号,121.490613465235,31.218137149172264
10gde44,1,蓬莱路205号,121.4909459806161,31.217997993417466
10gde45,1,蓬莱路224弄,121.49057331865787,31.21790665223622
10gde46,1,蓬莱路252弄,121.49057382986553,31.21744858957575
10gde47,1,蓬莱路303弄,121.48915764248878,31.217309610107915
10gde48,1,蓬莱路377号,121.48803583027954,31.21660730710293
10gde49,1,蓬莱路381号,121.48776231181763,31.21654421485278
10gde4a,1,蓬莱路391弄,121.48761799557103,31.216799905207274
10gde4b,1,蓬莱路405弄,121.48709310562639,31.216706758893043
10gde4c,1,蓬莱路421弄,121.48745880313267,31.216580068085754
10gde4d,1,平望街36弄,121.47904532355149,31.231918282704765
10gde4e,1,普育东路101弄,121.49610291996451,31.210085177659707
10gde4f,1,普育东路200弄,121.49569793384504,31.20803174117211
10gde4g,1,普育东路26号,121.49606357547691,31.210836921649637
10gde4h,1,普育东路30号,121.49620372510114,31.210634808924485
10gde4i,1,普育东路32号,121.495949233727,31.210464514329317
10gde4j,1,普育东路71弄,121.49715394274926,31.20970964289367
10gde4k,1,普育西支路80号,121.49239883420967,31.212064929987548
10gde4l,1,普育西支路89号,121.49224907128148,31.211997813186724
10gde4m,1,青岛路37号,121.46859188415682,31.23715019533803
10gde4n,1,瞿溪路1003弄,121.47712800634841,31.199657880738947
10gde4o,1,瞿溪路1072弄,121.47400274447837,31.198738058067324
10gde4p,1,瞿溪路110号,121.49597362037836,31.207024254827076
10gde4q,1,瞿溪路1111弄,121.47403341295657,31.200369509025023
10gde4r,1,瞿溪路114号,121.4952836887047,31.206953897857627
10gde4s,1,瞿溪路1168号,121.47294638880658,31.198223874491347
10gde4t,1,瞿溪路116号,121.49480111425662,31.206614973574332
10gde4u,1,瞿溪路1197号,121.47127681526746,31.19798057046958
10gde4v,1,瞿溪路1200弄,121.47265088893225,31.197492134679504
10gde4w,1,瞿溪路120弄,121.49566371554954,31.206852714398185
10gde4x,1,瞿溪路124号,121.4941576639035,31.206260328070123
10gde4y,1,瞿溪路1254弄,121.47055839639556,31.197034667321546
10gde4z,1,瞿溪路126号,121.49434925058152,31.206160484228462
10gde50,1,瞿溪路128号,121.49411183176562,31.2061001815878
10gde51,1,瞿溪路132号,121.49386279608468,31.205573377042075
10gde52,1,瞿溪路301弄,121.49186022796147,31.204695238655876
10gde53,1,瞿溪路307号,121.49131768650531,31.204812608364314
10gde54,1,瞿溪路454号,121.48822188914943,31.203064523530426
10gde55,1,瞿溪路566号,121.48580707663821,31.20155231383549
10gde56,1,瞿溪路800弄,121.4813796513056,31.2004152162966
10gde57,1,瞿溪路830弄,121.48082725010872,31.200496561301552
10gde58,1,瞿溪路884号,121.47928464900643,31.200028751480982
10gde59,1,瞿溪路926弄,121.47883348443303,31.199467499172858
10gde5a,1,瞿溪路937弄,121.47783863405463,31.200138035302412
10gde5b,1,人民路377号,121.49245182021897,31.22934827712457
10gde5c,1,人民路777弄,121.4848787834471,31.22710491531199
10gde5d,1,人民路875号,121.48378995793328,31.22658552846833
10gde5e,1,人民路958弄,121.4828647924649,31.2237069721918
10gde5f,1,汝南街70弄,121.48455981971931,31.20234762280183
10gde5g,1,汝南街82号,121.48384498452592,31.202605496752213
10gde5h,1,瑞金二路198弄,121.46620713762938,31.209076065351862
10gde5i,1,瑞金二路200弄,121.4660998130184,31.208936210289156
10gde5j,1,瑞金二路24号,121.46413685218876,31.21816228287335
10gde5k,1,瑞金二路350号,121.46615271043837,31.207106303487944
10gde5l,1,瑞金二路456弄,121.46680050288934,31.20527425151064
10gde5m,1,瑞金二路48弄,121.46354572744626,31.215790429257208
10gde5n,1,瑞金二路52弄,121.46405478060869,31.215617552513628
10gde5o,1,瑞金二路68号,121.46476326439193,31.21575981233839
10gde5p,1,瑞金二路70弄,121.46385040914367,31.215615369056653
10gde5q,1,瑞金二路78号,121.4646086911514,31.21541915481698
10gde5r,1,瑞金南路185弄,121.4688211260745,31.200445917757058
10gde5s,1,瑞金一路126弄,121.46330204597358,31.21967309538087
10gde5t,1,桑园街6弄,121.4975973569625,31.213996745915605
10gde5u,1,山东北路83号,121.48214967159923,31.23982941349792
10gde5v,1,山西南路296号,121.48149799584779,31.238515626822846
10gde5w,1,山西南路302号,121.48147081897562,31.238866103574075
10gde5x,1,山西南路310号,121.48131669131901,31.23913673252724
10gde5y,1,陕西南路271弄,121.46387853306963,31.208489278118638
10gde5z,1,陕西南路39弄,121.45819103958144,31.219620293456913
10gde60,1,陕西南路63弄,121.4589085777637,31.21849788624375
10gde61,1,尚文路133弄,121.49147453101688,31.215880713395975
10gde62,1,尚文路161号,121.49109078723767,31.215526615512
10gde63,1,尚文路168号,121.49047147028165,31.215240953801274
10gde64,1,尚文路198号,121.49019562770833,31.215399294715525
10gde65,1,尚文路257弄,121.48931731272165,31.215221538858366
10gde66,1,绍兴路104号,121.46232959721223,31.208628400581507
10gde67,1,绍兴路106号,121.46242149451717,31.208848169984357
10gde68,1,绍兴路35号,121.46250476065462,31.20866231183123
10gde69,1,绍兴路76弄,121.46318246772935,31.209066238252984
10gde6a,1,绍兴路88弄,121.46298146937568,31.209050862539776
10gde6b,1,绍兴路96弄,121.462324781804,31.20893963928419
10gde6c,1,寿宁路98号,121.48060694431693,31.223812164233262
10gde6d,1,顺昌路507弄,121.47952283524882,31.212679920713327
10gde6e,1,顺昌路612弄44号,121.47911121112121,31.211259728818707
10gde6f,1,思南路113号,121.47095336046605,31.20888211417295
10gde6g,1,四川中路126弄,121.48961164126389,31.234746083325785
10gde6h,1,四川中路630号,121.48610718887713,31.242686593102416
10gde6i,1,四川中路668号,121.48409381516845,31.242567282867245
10gde6j,1,四牌楼路81弄,121.49561622929575,31.224147475064015
10gde6k,1,泗泾路16号,121.48724673478975,31.23371961953377
10gde6l,1,泗泾路23号,121.48676923607677,31.233512509216112
10gde6m,1,太仓路128号,121.47568516648644,31.221745478845566
10gde6n,1,天津路179弄,121.48275703760068,31.237921956405746
10gde6o,1,天津路195弄,121.48293844295024,31.23765009892589
10gde6p,1,天津路480号,121.47721280417089,31.23624758745406
10gde6q,1,天柱山路17弄,121.49381804040766,31.211156234375135
10gde6r,1,铁道路140号,121.48667495997108,31.2000375025749
10gde6s,1,望云路35号,121.49243116840896,31.221381929572363
10gde6t,1,威海路155弄,121.46852695883656,31.227442530545865
10gde6u,1,威海路163号,121.46809392739806,31.22741080481221
10gde6v,1,威海路190弄,121.46743568938349,31.227659601378406
10gde6w,1,文庙路103号,121.48981525916764,31.218655920950958
10gde6x,1,文庙路133号,121.48923671929224,31.21836371523746
10gde6y,1,文庙路161号,121.48845518298337,31.217877479299588
10gde6z,1,文庙路163号,121.4887198832831,31.21811139546235
10gde70,1,文庙路257号,121.48712858412232,31.217267404821364
10gde71,1,文庙路286号,121.48684520502167,31.216976444168086
10gde72,1,文庙路31弄,121.49026000252384,31.219314702433746
10gde73,1,文庙路33号,121.49014842390002,31.219220171757236
10gde74,1,文庙路3号,121.49103361022168,31.219584888055948
10gde75,1,文庙路45号,121.49015000548087,31.219012328751504
10gde76,1,文庙路60弄,121.49058278973573,31.218785283694267
10gde77,1,文庙路87弄,121.48999505364279,31.21867657438453
10gde78,1,文庙路91号,121.48972833741561,31.218615640175106
10gde79,1,五里桥路262号,121.47963747787412,31.203313864929587
10gde7a,1,西仓桥街112弄,121.48963339841255,31.220489302630344
10gde7b,1,西仓桥街129号,121.48962316731094,31.220278916328514
10gde7c,1,西藏南路1090弄,121.48566406706621,31.211488181276113
10gde7d,1,西藏南路1129弄,121.48755216880649,31.210665944895265
10gde7e,1,西藏南路1135弄,121.48696419859226,31.210706457406605
10gde7f,1,西藏南路1200弄,121.4860493977645,31.20839237380681
10gde7g,1,西藏南路1341弄,121.48880343268355,31.206525723544647
10gde7h,1,西藏南路1383弄,121.48831952904193,31.205491544983264
10gde7i,1,西藏南路1421弄,121.48857693389138,31.204955010303586
10gde7j,1,西藏南路1739弄,121.49185587372449,31.19928981252446
10gde7k,1,西藏南路555弄,121.48328766756279,31.2198100789109
10gde7l,1,西藏南路900弄,121.48486874465279,31.213372471039335
10gde7m,1,西藏中路725弄,121.4721125494773,31.239323751990757
10gde7n,1,西凌家宅路111弄,121.48636270034847,31.205389312695477
10gde7o,1,西凌家宅路137弄,121.48529969663475,31.204123138546432
10gde7p,1,西凌家宅路27弄,121.48726999795035,31.204653162850306
10gde7q,1,西姚家弄25号,121.49666487061938,31.222404772106707
10gde7r,1,先棉祠北弄53号,121.49096871519514,31.21753285262522
10gde7s,1,先棉祠北弄57号,121.49090418217425,31.217586836433416
10gde7t,1,先棉祠北弄62弄,121.49047631992386,31.217378293984673
10gde7u,1,先棉祠街105弄,121.4909127095916,31.217411835121776
10gde7v,1,先棉祠街111号,121.49016789268671,31.216988644940557
10gde7w,1,先棉祠街36号,121.491201806014,31.217374319162683
10gde7x,1,先棉祠街83号,121.49073961764562,31.217358863862025
10gde7y,1,县左街20弄,121.49469121103465,31.224488065024424
10gde7z,1,县左街24弄,121.4948367191936,31.224033683863492
10gde80,1,香港路123号,121.48549112907233,31.242323025574994
10gde81,1,硝皮弄96号,121.49315322010118,31.227439678428087
10gde82,1,小桃园街40弄,121.4893773609895,31.221191067483634
10gde83,1,斜土东路158弄,121.48890586425256,31.207788335570065
10gde84,1,斜土东路23弄,121.49047270963999,31.208906385682972
10gde85,1,斜土东路350号,121.48511784635166,31.206912160295698
10gde86,1,斜土东路39号,121.49039654503643,31.2088624943935
10gde87,1,斜土路108号,121.48259916326862,31.206025444638456
10gde88,1,斜土路112号,121.48217458702138,31.206029832544708
10gde89,1,斜土路195弄,121.48212738552836,31.20616792941572
10gde8a,1,斜土路22号,121.48352276301512,31.2051514209593
10gde8b,1,斜土路486弄,121.47766227746546,31.202509052221608
10gde8c,1,斜土路501弄,121.47729708579466,31.204010407177304
10gde8d,1,斜土路530号,121.47626254651004,31.20326545734842
10gde8e,1,斜土路540号,121.4760998180844,31.203080052207582
10gde8f,1,斜土路556弄,121.47582051976521,31.20246839911591
10gde8g,1,斜土路645号,121.47360365704641,31.20313010078191
10gde8h,1,斜土路80弄,121.48362192190336,31.205369689753557
10gde8i,1,斜土支路5号,121.48412351725106,31.20598793678199
10gde8j,1,新昌路300弄,121.46817504639216,31.235956370008886
10gde8k,1,新昌路310弄,121.46811642422016,31.23594372686334
10gde8l,1,新昌路342号,121.46798531086719,31.23667007054666
10gde8m,1,新昌路477弄,121.4667749413888,31.238206262972128
10gde8n,1,新闸路126号,121.47131050141445,31.238536309472508
10gde8o,1,新闸路166号,121.47039475108755,31.238692349581438
10gde8p,1,新闸路274号,121.46795837700425,31.239245239621575
10gde8q,1,兴安路165号,121.47021738067725,31.220815634291036
10gde8r,1,徐家汇路101号,121.48038822858211,31.209813050931306
10gde8s,1,徐家汇路548号,121.47073417326044,31.206403791907416
10gde8t,1,徐家汇路77弄,121.48069203655305,31.209617010152805
10gde8u,1,薛家浜路236号,121.5021610065269,31.2108185930858
10gde8v,1,薛家浜路242弄,121.50173799130324,31.21097843457981
10gde8w,1,学宫街63弄,121.48858834377023,31.218210245775456
10gde8x,1,学前街111弄,121.48967691311128,31.21627581516817
10gde8y,1,学前街1号,121.48868313704577,31.21760791799747
10gde8z,1,学西街19号,121.48731916958452,31.217143002777068
10gde90,1,学西街33号,121.4869568059393,31.217550300458477
10gde91,1,学西街39弄,121.4865708696953,31.217557827028273
10gde92,1,学院路121弄,121.49534032869401,31.223427451295713
10gde93,1,学院路67号,121.49592685545169,31.223372429566275
10gde94,1,巡道街15号,121.49774293836968,31.22053107200902
10gde95,1,巡道街53弄,121.49762140693942,31.219900176710066
10gde96,1,巡道街54号,121.4972894353855,31.219933564121067
10gde97,1,巡道街66号,121.49735890728532,31.21969007638598
10gde98,1,延安东路1292弄,121.4714577172574,31.22581028962773
10gde99,1,盐城路29号,121.48416558185232,31.2174396002231
10gde9a,1,雁荡路68号,121.46982162919763,31.21983392742858
10gde9b,1,也是园弄32号,121.4930511073155,31.216618754646262
10gde9c,1,也是园弄54弄,121.49268952257253,31.216839361715557
10gde9d,1,仪凤弄109弄,121.48623549892321,31.217871766756897
10gde9e,1,仪凤弄123弄,121.48652706618817,31.217779809890175
10gde9f,1,仪凤弄61弄,121.48580506059385,31.218372043129357
10gde9g,1,迎勋北路17号,121.48980188916332,31.217249530246143
10gde9h,1,迎勋北路55号,121.49005443868681,31.216815848401133
10gde9i,1,迎勋北路8弄,121.48983471565296,31.216771111044967
10gde9j,1,迎勋路100弄,121.49129666582162,31.21286628843533
10gde9k,1,永宁街56号,121.48852916869902,31.215518570537835
10gde9l,1,肇嘉浜路18弄,121.4667384870965,31.20542041809079
10gde9m,1,肇周路421弄,121.48200874585666,31.211706914794362
10gde9n,1,浙江南路78号,121.48206441765393,31.228704239872414
10gde9o,1,浙江中路128弄,121.4800050543729,31.232138093854026
10gde9p,1,浙江中路142号,121.4797704821614,31.232359461766322
10gde9q,1,浙江中路188弄,121.47954528207164,31.23293179439728
10gde9r,1,浙江中路419号,121.47780306697037,31.23651937710037
10gde9s,1,制造局路287号,121.48480436902474,31.207337828927752
10gde9t,1,制造局路365弄,121.48534404742966,31.205628328738303
10gde9u,1,制造局路370弄,121.48434135729246,31.206235450380643
10gde9v,1,制造局路455弄,121.48449265343086,31.204885224121316
10gde9w,1,制造局路507号,121.48469171734551,31.204201507529802
10gde9x,1,制造局路521号,121.48485445799751,31.203906200868207
10gde9y,1,制造局路567弄,121.48645197620603,31.203774559186243
10gde9z,1,制造局路646弄,121.48471492930418,31.201957672346804
10gdea0,1,制造局路721弄,121.48586389597337,31.201524633482524
10gdea1,1,制造局路749弄,121.4858869844913,31.200681862743405
10gdea2,1,制造局路859弄,121.48654816416305,31.198879155748912
10gdea3,1,中华路1011号,121.4901191352348,31.214818620325712
10gdea4,1,中华路1141弄,121.48851821264216,31.215209893620983
10gdea5,1,中华路1148弄,121.48819719904124,31.21514945583204
10gdea6,1,中华路1299弄,121.48725244665785,31.21655653685614
10gdea7,1,中华路1300弄,121.48647262517487,31.21648769341361
10gdea8,1,中华路1316弄,121.48645498689805,31.216714470340683
10gdea9,1,中华路1349弄,121.48655252918748,31.217117093612018
10gdeaa,1,中华路168号,121.49948661098973,31.22259178494675
10gdeab,1,中华路169弄,121.4976469822305,31.22225481772615
10gdeac,1,中华路313号,121.49853565592731,31.220401385834748
10gdead,1,中华路333号,121.49846638463985,31.22007601406756
10gdeae,1,中华路868弄,121.49516927385694,31.21448258425597
10gdeaf,1,中华路989号,121.49093285771,31.214878126461898
10gdeag,1,中华路999号,121.49119782607549,31.214984054283068
10gdeah,1,中华路99号,121.49833294651617,31.223336743487657
10gdeai,1,中山南路1358弄,121.49961327814835,31.210600373626253
10gdeaj,1,中山南路1586弄,121.4950092833178,31.20560155488059
10gdeak,1,中山南路1726弄,121.49359528626513,31.20469072771203
10gdeal,1,中山南路1748号,121.49317281178745,31.203823895911924
10gdeam,1,中山南路1750号,121.49293430497443,31.203696128298557
10gdean,1,中山南路1887弄,121.491430941169,31.201904452493014
10gdeao,1,中山南路36号,121.49965262672255,31.224103502812923
10gdeap,1,中山南一路1012弄,121.47324431488146,31.195755918921893
10gdeaq,1,中山南一路1024号,121.47221214882468,31.195353768692165
10gdear,1,中山南一路1109弄,121.47055384617785,31.195688685350138
10gdeas,1,中山南一路161弄,121.48747935961637,31.2011198369361
10gdeat,1,中山南一路247弄,121.4866091012792,31.200948288907426
10gdeau,1,中山南一路248号,121.48698038203669,31.2004717798332
10gdeav,1,中山南一路250号,121.49218067246834,31.20348676940269
10gdeaw,1,中山南一路254号,121.48696326342323,31.200022887007776
10gdeax,1,中山南一路256弄,121.4867517768327,31.200120965191196
10gdeay,1,中山南一路428号,121.48485402952964,31.19924908740104
10gdeaz,1,中山南一路500弄,121.48566567508048,31.199329743164316
10gdeb0,1,庄家街100弄,121.48866451336002,31.219551527315755
10gdeb1,1,庄家街34号,121.48854295983404,31.220494915962522
10gdeb2,1,庄家街76号,121.48862913567505,31.22005113023025
10gdeb3,1,庄家街84号,121.48848138467612,31.21968421591534
10gdeb4,1,紫霞路119号,121.50303145468565,31.21911076834076
10gdeb5,6,宝昌路220号,121.47663895541798,31.25632708470205
10gdeb6,6,宝昌路520弄,121.47275815640535,31.259428234738223
10gdeb7,6,宝昌路632弄,121.47145364918295,31.260999761375288
10gdeb8,6,宝昌路731弄,121.47135828450945,31.263345028993935
10gdeb9,6,宝山路403弄,121.47762370510158,31.25593153026668
10gdeba,6,宝山路450弄,121.47716081139656,31.257082245746997
10gdebb,6,宝山路499弄,121.47811458106025,31.257758540820788
10gdebc,6,宝山路535号,121.47809101654852,31.258264308873333
10gdebd,6,宝通路239弄,121.4788790204057,31.256501734776343
10gdebe,6,宝通路306弄,121.47680390227625,31.2577287853737
10gdebf,6,宝源路209弄,121.47958097764291,31.257088779720743
10gdebg,6,保德路1316弄,121.44265689126826,31.314882240274724
10gdebh,6,北宝兴路10弄,121.46696633122096,31.270606137479035
10gdebi,6,北宝兴路42弄,121.46628306840475,31.271355071665905
10gdebj,6,北京西路1630号,121.44480795691975,31.2263907317335
10gdebk,6,北京西路1850号,121.44167734084212,31.22385762282239
10gdebl,6,昌平路250弄,121.44964525004899,31.237947882951932
10gdebm,6,昌平路317号,121.44908505915633,31.236782033966108
10gdebn,6,昌平路418弄,121.44712631333987,31.23677546226355
10gdebo,6,昌平路421弄,121.44759464904902,31.23560829071949
10gdebp,6,昌平路428弄,121.44708271329627,31.236280350232125
10gdebq,6,昌平路999弄,121.4370772440696,31.23237739000582
10gdebr,6,常德路545弄,121.44560432396703,31.229862348764375
10gdebs,6,常德路812弄,121.44260008365272,31.233863881087775
10gdebt,6,常熟路113弄,121.44889819635904,31.217108865130268
10gdebu,6,常熟路85弄,121.44770413415053,31.21729741623324
10gdebv,6,长安路1001号,121.45233343325505,31.245108522634602
10gdebw,6,长安路490号,121.45676124206409,31.23978204187717
10gdebx,6,长乐路682弄,121.45310220730384,31.218305832962805
10gdeby,6,长乐路888号,121.44689481466125,31.21610758730289
10gdebz,6,长乐路930弄,121.44573969439465,31.21571889584228
10gdec0,6,长乐路966号,121.44483098119404,31.215402859232242
10gdec1,6,长临路380弄,121.43690238723566,31.318382498126564
10gdec2,6,长寿路999弄,121.42910075566415,31.230440971570186
10gdec3,6,长兴路168弄,121.46227390751719,31.25111142143242
10gdec4,6,场中路2131弄,121.4508440302135,31.305595528448922
10gdec5,6,场中路2251弄,121.44675497284781,31.30628848253048
10gdec6,6,场中路2600弄,121.44115330445966,31.30759427103869
10gdec7,6,场中路3123弄,121.4325443215158,31.305006266198035
10gdec8,6,场中路3300弄,121.46406658080251,31.26128469411475
10gdec9,6,场中路3332弄,121.42963866109065,31.30220330754621
10gdeca,6,场中路3386弄,121.42749259875956,31.303143364098766
10gdecb,6,陈家宅路12弄,121.46745576989629,31.26478035641633
10gdecc,6,陈家宅路38号,121.46592140591385,31.26460848546522
10gdecd,6,陈家宅路49弄,121.46558833800688,31.26510060862881
10gdece,6,成都北路337号,121.46679435838112,31.228624883253158
10gdecf,6,成都北路515弄,121.46608559830757,31.23214828363707
10gdecg,6,大宁路660弄,121.44924781056169,31.271490728701636
10gdech,6,大统路1033弄,121.46009028676912,31.256823145183674
10gdeci,6,大统路1038号,121.45942654144979,31.25632726190841
10gdecj,6,大统路159弄,121.4648396694388,31.24367586656318
10gdeck,6,大统路865号,121.45925071691921,31.253453580317704
10gdecl,6,大统路933弄,121.45957370678637,31.25484607496832
10gdecm,6,大统路938弄,121.45885251858465,31.255342127235902
10gdecn,6,大统路988号,121.45935219991176,31.25532036746567
10gdeco,6,大统路989号,121.45925965737841,31.250176838309415
10gdecp,6,东宝兴路458弄,121.47891858862552,31.25954071780976
10gdecq,6,汾西路88弄,121.46768694206266,31.31547588536739
10gdecr,6,凤阳路588弄,121.4651037680542,31.233200609734894
10gdecs,6,富民路197弄,121.45160160383784,31.21905017885479
10gdect,6,高平路774弄,121.42846861198231,31.291083721661682
10gdecu,6,高平路809弄,121.42546319902915,31.29168073346381
10gdecv,6,高平路811号,121.42728164457193,31.291294743285555
10gdecw,6,共和新路111弄,121.4630980769231,31.243878520464683
10gdecx,6,共和新路1207号,121.4614338748408,31.262132525327047
10gdecy,6,共和新路1329弄,121.46002514128743,31.26458491996524
10gdecz,6,共和新路1725弄,121.45651362299118,31.27087465573601
10gded0,6,共和新路318弄,121.46255019566138,31.248308704775013
10gded1,6,共和新路3550号,121.4464651846163,31.301034884607333
10gded2,6,共和新路3616弄,121.44827990993348,31.303170566134135
10gded3,6,共和新路3650弄,121.4483217466189,31.303929867932478
10gded4,6,共和新路4406弄,121.44808362663977,31.311346130322733
10gded5,6,共和新路452号,121.46309390093315,31.25159449581767
10gded6,6,共和新路4699弄,121.4518953863111,31.318290937202654
10gded7,6,共和新路555弄,121.46333528589929,31.252846381503897
10gded8,6,共和新路625弄,121.46432148956359,31.254301724676402
10gded9,6,共和新路635弄,121.46391817533075,31.254631201096164
10gdeda,6,共和新路688弄,121.46289249806215,31.255005521438093
10gdedb,6,共和新路708弄,121.4634069563555,31.25537134041887
10gdedc,6,共和新路710弄,121.4617820890327,31.25509775173462
10gdedd,6,共和新路730弄,121.4535765799574,31.273530515422788
10gdede,6,共和新路736弄,121.46275337692315,31.256311968917053
10gdedf,6,共和新路802弄,121.46320127444777,31.257025243123053
10gdedg,6,共和新路875号,121.46367137370837,31.25800382630202
10gdedh,6,共和新路90号,121.4533968409016,31.273579100310496
10gdedi,6,共和新路938号,121.46195928295236,31.259161643651474
10gdedj,6,共和新路966号,121.46207530616984,31.25923430135725
10gdedk,6,共和新路970弄,121.46098140428838,31.25923103279536
10gdedl,6,光复路271号,121.46737576307456,31.240837293395973
10gdedm,6,广延路49弄,121.45727863869539,31.27281501153486
10gdedn,6,广中西路333号,121.44594834185014,31.279665113719133
10gdedo,6,海防路223弄,121.44868239100448,31.23919073568573
10gdedp,6,海防路538弄,121.44323531570602,31.23710638176079
10gdedq,6,海宁路1388号,121.46880083452372,31.244838683453615
10gdedr,6,海宁路1399号,121.46836181947984,31.243844194141353
10gdeds,6,海宁路717号,121.48009336241111,31.246802408259285
10gdedt,6,汉中路28弄,121.46043172120412,31.243750190284388
10gdedu,6,汉中路68号,121.4596017331128,31.243179668045947
10gdedv,6,汉中路78弄,121.45943511041934,31.24320024263676
10gdedw,6,和田路295号,121.46184243156394,31.26586401982296
10gdedx,6,和田路441弄,121.45936962816927,31.26781646357008
10gdedy,6,河南北路485号,121.47924348299865,31.249465813290207
10gdedz,6,沪太路1051弄,121.42898514197577,31.276645189855707
10gdee0,6,沪太路1170弄,121.42605879433036,31.27652554626057
10gdee1,6,沪太路555弄,121.452182554474,31.257784405869398
10gdee2,6,沪太路617号,121.44880443574607,31.260019891521207
10gdee3,6,沪太路631弄,121.44866210576052,31.260721539742498
10gdee4,6,沪太路651弄,121.45290575639417,31.25901106448451
10gdee5,6,沪太路655弄,121.44812737311237,31.261784572680714
10gdee6,6,沪太路909弄,121.43361249841517,31.27257255342795
10gdee7,6,沪太路935弄,121.43190726550044,31.273742574453095
10gdee8,6,沪太路941弄,121.43139158474715,31.27420904701254
10gdee9,6,华山路229弄,121.44705303525294,31.220164928680006
10gdeea,6,华山路251弄,121.44650833146439,31.21975620372194
10gdeeb,6,华山路280弄,121.43651965114273,31.21108495180579
10gdeec,6,华山路285弄,121.44699027417924,31.21970807977847
10gdeed,6,淮安路811号,121.44953656457852,31.2387869802929
10gdeee,6,黄山路230弄,121.46847605821081,31.265969624547754
10gdeef,6,黄山路260号,121.46804895815032,31.26601131554374
10gdeeg,6,黄山路280弄,121.46820826861837,31.26593835936201
10gdeeh,6,江场西路299号,121.44256938372557,31.29683083023078
10gdeei,6,江宁路565弄,121.45009454111535,31.236138322311177
10gdeej,6,胶州路170弄,121.44418153805795,31.227294446297947
10gdeek,6,晋元路310弄,121.46878532663175,31.245369805761868
10gdeel,6,京江路207号,121.46443359867085,31.248764952231898
10gdeem,6,京江路211号,121.46412278260787,31.24873804798688
10gdeen,6,京江路321号,121.46223936645764,31.24888003565855
10gdeeo,6,景凤路205弄,121.46238781138484,31.319576570845182
10gdeep,6,巨鹿路847号,121.44948566070357,31.21889327456094
10gdeeq,6,康定东路13弄,121.45743838387872,31.23730687419666
10gdeer,6,康定路271号,121.45117551276577,31.235054183080024
10gdees,6,康定路848弄,121.44108386795376,31.231130570243224
10gdeet,6,老沪太路199弄,121.45327877444457,31.26869786568367
10gdeeu,6,老沪太路210号,121.45298606662563,31.26785975498058
10gdeev,6,老沪太路228号,121.45204487591944,31.267603627683847
10gdeew,6,老沪太路238弄,121.44767454916682,31.26986270212939
10gdeex,6,老沪太路255弄,121.45137826117573,31.268338341657454
10gdeey,6,临汾路1051弄,121.44595252457044,31.310332593575755
10gdeez,6,临汾路1105弄,121.4440628266996,31.30945165929702
10gdef0,6,临汾路1564弄,121.43654579701209,31.311776891776052
10gdef1,6,临汾路1565弄,121.43744080428593,31.30936971758619
10gdef2,6,临汾路850弄,121.4505594570734,31.31109375056555
10gdef3,6,临汾路899弄,121.4502789363951,31.309328326668524
10gdef4,6,临汾路991号,121.44694360295833,31.310569945344895
10gdef5,6,临山路203弄,121.47319313708364,31.254719037016955
10gdef6,6,临山路20号,121.47629167820828,31.256075349146904
10gdef7,6,灵石路1123弄,121.42721819849558,31.274194369228752
10gdef8,6,灵石路822弄,121.43464071622108,31.279442915353908
10gdef9,6,灵石路963弄,121.43073706065468,31.277490614001934
10gdefa,6,灵石路999弄,121.42990341754701,31.276110879755365
10gdefb,6,岭南路15弄,121.45508006628026,31.30676856263608
10gdefc,6,岭南路270弄,121.45534568387374,31.30983637362062
10gdefd,6,柳营路1025弄,121.45042840463377,31.261883832322543
10gdefe,6,柳营路309弄,121.46402927835419,31.268868726158306
10gdeff,6,柳营路328弄,121.46475296439665,31.267786783995536
10gdefg,6,洛川东路120号,121.4650486363465,31.27201288452713
10gdefh,6,洛川东路161号,121.4644343046022,31.271746994682815
10gdefi,6,洛川东路320弄,121.46318133375131,31.270080329119917
10gdefj,6,洛川东路321号,121.46131640419392,31.269980463176157
10gdefk,6,洛川东路400弄,121.46113810262933,31.26896857275196
10gdefl,6,洛川东路440号,121.46044522391121,31.269247737915425
10gdefm,6,洛川东路494弄,121.45916332609332,31.26814823042298
10gdefn,6,洛川中路1100弄,121.44989953855233,31.264000279162193
10gdefo,6,洛川中路777弄,121.4527195959837,31.266641575637625
10gdefp,6,洛川中路838弄,121.45295127308518,31.265561924259373
10gdefq,6,洛川中路901弄,121.4503246282332,31.2649855265019
10gdefr,6,洛川中路930号,121.4505558990674,31.26501662348778
10gdefs,6,洛川中路952弄,121.45034083044874,31.264717932283684
10gdeft,6,南汇路74号,121.45689114358464,31.230243025880768
10gdefu,6,南京西路1025弄,121.45880038952441,31.22707983597232
10gdefv,6,南京西路1081弄,121.45684337077454,31.22836719756196
10gdefw,6,南山路10弄,121.46870006949769,31.258768300425608
10gdefx,6,南山路151弄,121.46413310171995,31.25735259345288
10gdefy,6,南山路35弄,121.46672077790352,31.25704554214126
10gdefz,6,南山路36弄,121.46712619500808,31.256212945364584
10gdeg0,6,南山路71弄,121.46588344012787,31.25710902952991
10gdeg1,6,彭江路399号,121.45324184667378,31.285526679484132
10gdeg2,6,彭浦新村321号,121.45261258609719,31.308992180279937
10gdeg3,6,彭越浦路800弄,121.43613108329954,31.285842050155832
10gdeg4,6,平顺路180弄,121.45336374050842,31.316136231655342
10gdeg5,6,平顺路600号,121.45236636813694,31.315444791108327
10gdeg6,6,平型关路121弄,121.46852770256932,31.26728481738639
10gdeg7,6,平型关路188弄,121.46594745301141,31.268471890394043
10gdeg8,6,平型关路2199弄,121.46259949174862,31.302568529345923
10gdeg9,6,平型关路245弄,121.46636961182696,31.269833104177607
10gdega,6,平型关路255弄,121.46682016557979,31.268719288366917
10gdegb,6,平型关路265弄,121.46640439519373,31.270625275704372
10gdegc,6,平型关路351号,121.46311083629355,31.27169197191406
10gdegd,6,平型关路377弄,121.46391654955238,31.27332811162106
10gdege,6,平型关路68弄,121.46761519630974,31.265377152524778
10gdegf,6,普善路177弄,121.45637502842244,31.25633881640431
10gdegg,6,普善路239弄,121.45619355932355,31.258187092019153
10gdegh,6,普善路363号,121.45466185711697,31.25410303272398
10gdegi,6,普善路636号,121.45268101316415,31.262475965761162
10gdegj,6,普善路958弄,121.45012074780585,31.266711627005588
10gdegk,6,普善路996号,121.45040282233204,31.268080595662905
10gdegl,6,普善路铁路新村26号,121.45355810252535,31.256461175993184
10gdegm,6,七浦路179号,121.48174746999402,31.245391977930012
10gdegn,6,青云路435弄,121.47069034197933,31.26315885759958
10gdego,6,青云路608号,121.46861030938054,31.261584888530148
10gdegp,6,青云路650弄,121.46779268636936,31.261081003035397
10gdegq,6,青云路756号,121.46508363173373,31.260384126727256
10gdegr,6,虬江路1150弄,121.47048215048885,31.248251032931098
10gdegs,6,虬江路1258弄,121.4691929226129,31.24975412567004
10gdegt,6,虬江路1431弄,121.46572346261902,31.250450356136923
10gdegu,6,虬江路1455弄,121.4651108864043,31.25043318844578
10gdegv,6,虬江路1488弄,121.46534656450636,31.24904501186595
10gdegw,6,虬江路1493号,121.46463398254043,31.249889065667254
10gdegx,6,虬江路909弄,121.47488197338366,31.252605559297834
10gdegy,6,曲沃路321弄,121.4450362780767,31.31221778358915
10gdegz,6,曲沃路430弄,121.44603492224601,31.312552630779905
10gdeh0,6,三泉路415弄,121.4420971978886,31.307924316081504
10gdeh1,6,三泉路717弄,121.43915391502546,31.31347162891772
10gdeh2,6,三泉路770弄,121.44190539137354,31.314923735394924
10gdeh3,6,三泉路821弄,121.43969677866602,31.315582256014526
10gdeh4,6,三泉路895弄,121.43969827365387,31.31759993718316
10gdeh5,6,三泉路900弄,121.44191376771066,31.31750325842852
10gdeh6,6,三泉路999弄,121.43914054337912,31.319137634567007
10gdeh7,6,山西北路222弄,121.48016024312368,31.244461972058907
10gdeh8,6,山西北路388弄,121.48002351508948,31.246608467679028
10gdeh9,6,陕西北路900号,121.44800836634617,31.23698784440233
10gdeha,6,少年村路479弄,121.43125621426337,31.299925397523317
10gdehb,6,石门二路483号,121.45892211502014,31.23664923566864
10gdehc,6,太阳山路188弄,121.4609386636192,31.249304902527317
10gdehd,6,太阳山路78弄,121.46202236971463,31.24938885656646
10gdehe,6,谈家桥路163弄,121.45009709347342,31.260607660441504
10gdehf,6,谈家桥路80弄,121.45216051927923,31.2609526711381
10gdehg,6,谈家桥路85弄,121.45242883944252,31.25957932732304
10gdehh,6,塘沽路747弄,121.48097019303984,31.24633227622584
10gdehi,6,天目西路285号,121.45455218902624,31.24626508719061
10gdehj,6,天目中路538号,121.46523127020185,31.243937128481164
10gdehk,6,天目中路749弄,121.46165069353289,31.247378042426128
10gdehl,6,天目中路758号,121.460841072921,31.24524717318094
10gdehm,6,通阁路190弄,121.47062893310718,31.26048883457367
10gdehn,6,通阁路195弄,121.47053387695927,31.26107376111684
10gdeho,6,通阁路200弄,121.47084772913145,31.261450515916053
10gdehp,6,通阁路215弄,121.47063321409368,31.261256452479028
10gdehq,6,铜仁路90弄,121.45094899882054,31.224442403103463
10gdehr,6,万航渡路239弄,121.44073250187475,31.225668851599213
10gdehs,6,万航渡路269弄,121.43927790521678,31.22603095553798
10gdeht,6,万航渡路292号,121.43911763187313,31.225317006781275
10gdehu,6,万航渡路320弄,121.43825780727354,31.224710768445494
10gdehv,6,万航渡路332弄,121.43860519207789,31.225070065596025
10gdehw,6,万航渡路340号,121.43817726699903,31.225494939578123
10gdehx,6,万航渡路458弄,121.43566322713397,31.224217485583353
10gdehy,6,万航渡路623弄,121.43352089332932,31.227008756856467
10gdehz,6,万航渡路661弄,121.43283947207755,31.22729933004995
10gdei0,6,万航渡路759弄,121.43133668150958,31.227612292997804
10gdei1,6,万航渡路858弄,121.4291791795387,31.226537726997716
10gdei2,6,万荣路22弄,121.44927209606732,31.26905225978843
10gdei3,6,万荣路388弄,121.44395476320469,31.272677776155472
10gdei4,6,王家宅路34弄,121.47296560141565,31.250654892277968
10gdei5,6,闻喜路1223弄,121.4424133015922,31.307762049470078
10gdei6,6,闻喜路533号,121.45811662993121,31.308066628024598
10gdei7,6,闻喜路590号,121.45717967307006,31.309424648896073
10gdei8,6,闻喜路806弄,121.44942308935624,31.30913942430381
10gdei9,6,汶水路649弄,121.43008269405125,31.289623246112704
10gdeia,6,乌鲁木齐中路15弄,121.44506451442483,31.216447648511043
10gdeib,6,武定路44弄,121.45842208967149,31.237058665176853
10gdeic,6,武宁南路438弄,121.43233592357225,31.233135050192843
10gdeid,6,西宝兴路922弄,121.46765944384747,31.269606457930077
10gdeie,6,西藏北路1009号,121.46687955951543,31.26009745050441
10gdeif,6,西藏北路1139号,121.46615308577003,31.261907014343315
10gdeig,6,西藏北路1628号,121.46392150483555,31.26729668993159
10gdeih,6,西藏北路225弄,121.47047269926158,31.244035859161833
10gdeii,6,西藏北路853弄,121.46738306981148,31.256740561533014
10gdeij,6,西藏北路951号,121.46721726224273,31.258809802557575
10gdeik,6,西藏北路987弄,121.4559015930649,31.230068616051902
10gdeil,6,西藏北路991号,121.46703667876916,31.259747201857255
10gdeim,6,西康路446号,121.44833888983676,31.233178798814965
10gdein,6,西康路556弄,121.4470819921835,31.234818894584414
10gdeio,6,西康路658弄,121.44495535099887,31.23635561176177
10gdeip,6,新疆路435号,121.46587914055044,31.242783554302367
10gdeiq,6,新闸路1068弄,121.45636322854182,31.233508812406722
10gdeir,6,新闸路1098弄,121.4550009628202,31.233682488103703
10gdeis,6,新闸路1910弄,121.44060216894762,31.226753159555336
10gdeit,6,新闸路777弄,121.46110701613456,31.235625584111272
10gdeiu,6,延安中路1135弄,121.44796697635788,31.219993951826485
10gdeiv,6,延安中路504弄,121.46416386376671,31.224836587331474
10gdeiw,6,延安中路829号,121.45520648821538,31.22335150520602
10gdeix,6,延平路223弄,121.43940503756738,31.23038316494705
10gdeiy,6,延平路430号,121.43811309979883,31.233403548587468
10gdeiz,6,延平路435弄,121.43750791957783,31.23372329842241
10gdej0,6,延平路440号,121.4376538604684,31.233502444849474
10gdej1,6,延平路450弄,121.43789395488982,31.233800594643697
10gdej2,6,延长中路451弄,121.45256866349526,31.272077197110182
10gdej3,6,延长中路628弄,121.44886488479493,31.266707867461093
10gdej4,6,延长中路629弄,121.44761788717273,31.268941123603103
10gdej5,6,延长中路800弄,121.44641388584498,31.265836235760872
10gdej6,6,阳城路280弄,121.4260722300704,31.284408934001494
10gdej7,6,阳城路388号,121.42286590944028,31.285092225102098
10gdej8,6,永和路1080弄,121.42628503439114,31.2872759690129
10gdej9,6,永兴路525号,121.46827215111671,31.25147185624082
10gdeja,6,永兴路595弄,121.46675618694874,31.251150793703765
10gdejb,6,永兴路668号,121.46517610252548,31.25062625490967
10gdejc,6,永兴路928弄,121.45986810635603,31.25079110889591
10gdejd,6,永兴路973弄,121.45968266364541,31.25167017680164
10gdeje,6,永兴小马路18号,121.46398471005648,31.250277638999204
10gdejf,6,永兴小马路20号,121.46403457796046,31.250286034878975
10gdejg,6,永兴小马路60号,121.46427471853096,31.250856962937004
10gdejh,6,永兴小马路65号,121.46466941534929,31.25117442732872
10gdeji,6,永兴小马路80号,121.46451307173749,31.25190407177364
10gdejj,6,余姚路19号,121.44399304330393,31.236068324282588
10gdejk,6,余姚路318弄,121.43742920816786,31.236011256792
10gdejl,6,余姚路321弄,121.4381334580993,31.234730442908845
10gdejm,6,余姚路338号,121.43722501409611,31.23520401585702
10gdejn,6,余姚路417号,121.43626409818687,31.23444750266732
10gdejo,6,余姚路487弄,121.43530082275726,31.233438624776376
10gdejp,6,俞泾港路11号,121.46621738213965,31.266533749481106
10gdejq,6,俞泾港路54号,121.46545320459445,31.265519384384376
10gdejr,6,愚园路238号,121.44377327122817,31.223451276450696
10gdejs,6,愚园路608弄,121.43681104616623,31.221641295070718
10gdejt,6,育婴堂路38弄,121.46724638273623,31.249598028282488
10gdeju,6,镇宁路200号,121.43748177882719,31.219147703584934
10gdejv,6,镇宁路404弄,121.43619622664258,31.222822830656753
10gdejw,6,止园路400弄,121.4686527356966,31.259636464535184
10gdejx,6,芷江西路123弄,121.46555393599516,31.258519467777106
10gdejy,6,芷江西路130号,121.4655662327982,31.256884946397587
10gdejz,6,芷江西路165弄,121.46388198906423,31.258312887717874
10gdek0,6,芷江西路220弄,121.46296543664639,31.257537426193597
10gdek1,6,芷江西路228号,121.46226134216774,31.257608653910076
10gdek2,6,芷江西路230号,121.46209900224488,31.25737776324809
10gdek3,6,芷江西路26弄,121.46583507218517,31.257562582508584
10gdek4,6,芷江西路270弄,121.46084175968076,31.256950243691808
10gdek5,6,芷江西路285弄,121.46080864085609,31.258505154685697
10gdek6,6,芷江西路386号,121.45893653070584,31.256804295076456
10gdek7,6,芷江西路393弄,121.45804356626381,31.257492106510362
10gdek8,6,芷江中路493弄,121.46914976647324,31.259333131322702
10gdek9,6,芷江中路495弄,121.46882687936805,31.259270308562925
10gdeka,6,芷江中路531弄,121.46787577955459,31.259132887251138
10gdekb,6,芷江中路660弄,121.46906398928203,31.258198701194388
10gdekc,6,中华新路288弄,121.47229408613164,31.256002179074184
10gdekd,6,中华新路430号,121.46803014937917,31.254616822838607
10gdeke,6,中华新路455弄,121.46771292775293,31.254971347123536
10gdekf,6,中华新路469号,121.46627670017416,31.25414824790076
10gdekg,6,中华新路487号,121.46496608443071,31.253602084712842
10gdekh,6,中华新路489号,121.46461418658393,31.25354259440075
10gdeki,6,中华新路495号,121.46477947349044,31.25375867807058
10gdekj,6,中华新路588弄,121.46290027116052,31.25267457624585
10gdekk,6,中华新路718号,121.46212531547447,31.24906245511266
10gdekl,6,中华新路730弄,121.4597649088882,31.253591231340465
10gdekm,6,中华新路893弄,121.45609521771937,31.254305382440332
10gdekn,6,中华新路939弄,121.45613312676718,31.25463328311443
10gdeko,6,中华新路950号,121.45411914498305,31.254101546608144
10gdekp,6,中山北路1080号,121.4504568434529,31.25786025853452
10gdekq,6,中山北路173弄,121.47065159453955,31.265373362751536
10gdekr,6,中山北路570弄,121.46536481457234,31.26137760994399
10gdeks,6,中山北路585号,121.46221941589937,31.261612689599545
10gdekt,6,中山北路758弄,121.45972679269883,31.259763410924595
10gdeku,6,中山北路805弄,121.45781839165709,31.261890034449884
10gdekv,6,中山北路814弄,121.4581724666602,31.259548474282116
10gdekw,6,中山北路831弄,121.45784615570761,31.260570213927124
10gdekx,6,中山北路945弄,121.45312534195216,31.259431765795735
10gdeky,6,中兴路1042号,121.4664498174237,31.25244827777105
10gdekz,6,中兴路1233弄,121.46316894420937,31.252592246047275
10gdel0,6,中兴路1340弄,121.46087169436609,31.251911965040193
10gdel1,6,中兴路1377弄,121.46100114877731,31.25333299889404
10gdel2,6,中兴路1385弄,121.46084627555214,31.252472182587447
10gdel3,6,中兴路1395弄,121.46008052778797,31.252783743362237
10gdel4,6,中兴路315弄,121.4764037208675,31.259354258597444
10gdel5,6,中兴路401弄,121.47539679727312,31.25798597443876
10gdel6,4,百花街345弄,121.41547719729725,31.145794210160577
10gdel7,4,宾南路36弄,121.43666012047666,31.161633765055097
10gdel8,4,宾阳路28弄,121.43594503595882,31.16455533855389
10gdel9,4,漕溪北路737弄,121.43767487461842,31.185408313908507
10gdela,4,漕溪三村,121.43740626780519,31.17056725020641
10gdelb,4,漕溪四村,121.43978725797253,31.17150445813949
10gdelc,4,漕溪一村,121.439403136599,31.17233946351439
10gdeld,4,茶陵路159弄,121.46750316415216,31.1973804050659
10gdele,4,茶陵路195弄,121.46610301450852,31.197935845864205
10gdelf,4,茶陵路345弄,121.46359287024042,31.197089698147273
10gdelg,4,茶陵路75弄,121.46846629995648,31.19632188889757
10gdelh,4,长桥二村,121.44222165929568,31.137350541752497
10gdeli,4,长桥三村,121.44196630977125,31.134655617746294
10gdelj,4,长桥四村,121.43781335454733,31.134933328145976
10gdelk,4,长桥五村,121.43914002138764,31.13813258788471
10gdell,4,长桥新村,121.44064534708468,31.13756399111448
10gdelm,4,长桥一村,121.43754349842844,31.136592870391368
10gdeln,4,大木桥路158弄,121.46077776503569,31.198996273053574
10gdelo,4,大木桥路325号,121.46255805788438,31.196688111777682
10gdelp,4,大木桥路340弄,121.46198382495767,31.196559655358858
10gdelq,4,大木桥路450弄,121.46269912804296,31.19575936144523
10gdelr,4,大木桥路485弄,121.4637644231064,31.19531436044855
10gdels,4,东安二村,121.45433715756802,31.18821059613745
10gdelt,4,东安路149弄,121.45187953810223,31.195952755385303
10gdelu,4,东安路180弄,121.4525262519936,31.19399496032856
10gdelv,4,东安路230弄,121.45199446183126,31.1937114650058
10gdelw,4,东安路240弄,121.45276067820815,31.192308454718468
10gdelx,4,东安路338弄,121.45469202033,31.19038380796307
10gdely,4,东安路351弄,121.45583791996332,31.190610225261363
10gdelz,4,东安路364弄,121.45504351577308,31.190429056378008
10gdem0,4,东安路452号,121.45543354511013,31.18879571281389
10gdem1,4,东安三村,121.45126993184702,31.190509099116678
10gdem2,4,东安四村,121.45133866878545,31.18683645994908
10gdem3,4,东安一村,121.4585178644013,31.188027045930422
10gdem4,4,东泉路105弄,121.44399421691647,31.155629131779623
10gdem5,4,番禺路1160弄,121.42561151695786,31.192255585113266
10gdem6,4,番禺路801弄,121.42935008570218,31.19775239132352
10gdem7,4,丰谷路205弄,121.45576895389623,31.169314394189737
10gdem8,4,丰谷路285弄,121.45608415672959,31.169350939014176
10gdem9,4,丰谷路35号,121.46210384731619,31.170675960362722
10gdema,4,枫林路269弄,121.45669125793404,31.19558265375578
10gdemb,4,复兴中路1195号,121.46018762890934,31.212038571459196
10gdemc,4,复兴中路1199号,121.45898137157172,31.21259159546762
10gdemd,4,复兴中路1200弄,121.45965958302708,31.213383113386584
10gdeme,4,复兴中路1218弄,121.45943498814373,31.213660881684454
10gdemf,4,复兴中路1232弄,121.45893892698196,31.21334185404201
10gdemg,4,复兴中路1248弄,121.45859116984458,31.213274687310307
10gdemh,4,复兴中路1251号,121.45761843392897,31.21237495373964
10gdemi,4,复兴中路1260弄,121.4577999653719,31.21303407150264
10gdemj,4,古宜路99弄,121.42632103147982,31.185341179993767
10gdemk,4,广元西路88号,121.43490370808061,31.196243375420547
10gdeml,4,广元西路98号,121.43431317000204,31.19597615621174
10gdemm,4,桂林路303弄,121.41841122874213,31.168513924256455
10gdemn,4,桂林路575号,121.41516394159001,31.179738612122154
10gdemo,4,桂林西街111弄,121.41981883612118,31.15128422255075
10gdemp,4,桂林西街14弄,121.4190821791067,31.154838721037333
10gdemq,4,桂林西街151弄,121.4209291558727,31.151759179331226
10gdemr,4,桂林西街15弄,121.41576261442381,31.155359166905544
10gdems,4,桂林西街400弄,121.42189015865401,31.153957962651095
10gdemt,4,虹梅南路126弄,121.41634719438692,31.139086428026214
10gdemu,4,虹桥路128号,121.43491906649383,31.191349963454584
10gdemv,4,虹桥路355号,121.43103725362072,31.19303540252843
10gdemw,4,虹桥路400弄,121.43105686722093,31.192634108093984
10gdemx,4,虹桥路693号,121.42531295077178,31.194966459162558
10gdemy,4,虹桥路772弄,121.42483563229948,31.19454627090498
10gdemz,4,沪闵路9260弄,121.43290537796884,31.162034007443275
10gden0,4,沪闵路9669弄,121.43553698822824,31.16756190764604
10gden1,4,华发路180弄,121.45079926294227,31.128496825249528
10gden2,4,华发路406弄,121.4471103189585,31.128226922967734
10gden3,4,华发路90弄,121.45345120777894,31.12701405155919
10gden4,4,华济路28弄,121.45888335416711,31.116147045811115
10gden5,4,华济路2弄,121.46239319999121,31.11653608005364
10gden6,4,华泾路1000弄,121.44711718495383,31.11906928945066
10gden7,4,华容路85弄,121.45077158600499,31.17925392289505
10gden8,4,华石路88弄,121.43169672309587,31.179088636508705
10gden9,4,化工二村,121.41846799328965,31.138271530023584
10gdena,4,淮海中路1209号,121.45300139080629,31.21364744774344
10gdenb,4,淮海中路1326号,121.4494149346895,31.213201768603103
10gdenc,4,汇成二村,121.43540244954684,31.14583580027884
10gdend,4,汇成三村,121.43385397564275,31.144135142509494
10gdene,4,汇成四村,121.43621439195132,31.143923307495612
10gdenf,4,汇成五村,121.43550430030402,31.142154593785683
10gdeng,4,汇成一村,121.4321616440931,31.147026768177316
10gdenh,4,机场新村,121.45063455011469,31.16678856609007
10gdeni,4,嘉善路101弄,121.45934874206546,31.211268618093317
10gdenj,4,嘉善路143弄,121.46010982747781,31.209085131260956
10gdenk,4,嘉善路169弄,121.46050796863128,31.209047791905753
10gdenl,4,嘉善路236弄,121.45929803967265,31.208576159117584
10gdenm,4,嘉善路57号,121.45933691902952,31.211836595319795
10gdenn,4,嘉善路65号,121.45956727993695,31.21183332007606
10gdeno,4,嘉善路69弄,121.45910247401889,31.211554672779048
10gdenp,4,建国西路228弄,121.46054355662874,31.206724549984532
10gdenq,4,建国西路354弄,121.45646919568125,31.205579738094464
10gdenr,4,建国西路506弄,121.45071820909077,31.203437594644118
10gdens,4,建国西路585号,121.45008380433529,31.20193601653778
10gdent,4,江南二村,121.46253310111878,31.192037792743573
10gdenu,4,凯旋路3031弄,121.43196342259945,31.18241663763591
10gdenv,4,凯旋路3188弄,121.43160657234213,31.183593294356122
10gdenw,4,凯旋路3500号,121.4335335874114,31.181948870958927
10gdenx,4,凯旋一村,121.42463444533264,31.193396829654834
10gdeny,4,康健路100弄,121.42724527004401,31.165422326412347
10gdenz,4,老沪闵路1039弄,121.43421421397008,31.13061445052962
10gdeo0,4,老沪闵路150弄,121.43046570826033,31.14915312186806
10gdeo1,4,老沪闵路333弄,121.42523191142686,31.148613754616797
10gdeo2,4,老沪闵路706弄,121.43201911683248,31.145170695352274
10gdeo3,4,老沪闵路790弄,121.43261396823063,31.140277267957707
10gdeo4,4,老沪闵路841弄,121.43157553792312,31.13403346503001
10gdeo5,4,乐山路10弄,121.43234544251492,31.19685576739232
10gdeo6,4,乐山路30弄,121.43029590389222,31.195744398750882
10gdeo7,4,乐山支路21弄,121.43104696856946,31.196015249521867
10gdeo8,4,零陵路289弄,121.4582319906596,31.1930070118422
10gdeo9,4,零陵路29弄,121.46647416547088,31.196287149293006
10gdeoa,4,零陵路350弄,121.45819739369917,31.189256020459176
10gdeob,4,零陵路638号,121.44602635837165,31.187140710271517
10gdeoc,4,零陵路639号,121.4461470121455,31.1874327057683
10gdeod,4,零陵路642号,121.44584419046264,31.186959486380797
10gdeoe,4,零陵路646号,121.44546678653656,31.186975563661214
10gdeof,4,零陵路648号,121.44504936134292,31.18668263368465
10gdeog,4,零陵路677弄,121.4445742235422,31.18726284630109
10gdeoh,4,零陵路687号,121.44369649770104,31.18570712648597
10gdeoi,4,零陵路791弄,121.43941639296,31.184399645054594
10gdeoj,4,柳州路460号,121.42326768448197,31.172209530218257
10gdeok,4,龙漕路135弄,121.43887562482266,31.170778585348263
10gdeol,4,龙漕路160弄,121.43937247011154,31.16671803533341
10gdeom,4,龙漕路1弄,121.43605804366814,31.16902896189033
10gdeon,4,龙漕路200弄,121.44226495870626,31.16757142007973
10gdeoo,4,龙漕路58弄,121.43692229332402,31.168351551572698
10gdeop,4,龙川北路280号,121.43821827742282,31.143163413325016
10gdeoq,4,龙恒路280弄,121.44858487059582,31.16625337325031
10gdeor,4,龙华路1881弄,121.45461079739268,31.183965285642767
10gdeos,4,龙华路3100号,121.44939686364496,31.171647175425136
10gdeot,4,龙华西路123号,121.4502639535519,31.17258417050692
10gdeou,4,龙华西路127号,121.44984617095119,31.17286315149862
10gdeov,4,龙华西路1号,121.45072038112366,31.166305341121593
10gdeow,4,龙华西路285弄,121.44621752868012,31.172407298934065
10gdeox,4,龙华西路31弄,121.44999243019193,31.169117996856798
10gdeoy,4,龙华西路525弄,121.44212807320555,31.1757539096005
10gdeoz,4,龙南七村,121.45315695923546,31.15839249554052
10gdep0,4,龙南三四村,121.45686274752619,31.155628408458554
10gdep1,4,龙南五村,121.45402038748483,31.15523071462301
10gdep2,4,龙瑞路128弄,121.45168713885242,31.139560946227412
10gdep3,4,龙山新村,121.4458108383009,31.184348080172164
10gdep4,4,龙水南路358弄,121.45263422720173,31.152733227586662
10gdep5,4,龙水南路41号,121.46245575389005,31.15729769263466
10gdep6,4,龙吴路1137弄,121.44914163978525,31.144703030890298
10gdep7,4,龙吴路11弄,121.44317134768602,31.174526423406647
10gdep8,4,龙吴路1314弄,121.45195265300363,31.138378000696246
10gdep9,4,龙吴路1323弄,121.4498715089581,31.139430963454608
10gdepa,4,龙吴路1343弄,121.45018210277055,31.136876068733002
10gdepb,4,龙吴路13弄,121.443462687587,31.17338455311754
10gdepc,4,龙吴路2388弄,121.4590639029431,31.12293817068204
10gdepd,4,龙吴路2760号,121.45194787188424,31.138059297435596
10gdepe,4,龙吴路2888弄,121.45659443645123,31.108408850301686
10gdepf,4,龙吴路398弄,121.44963896741731,31.163643093610176
10gdepg,4,龙耀路175号,121.46085421217347,31.161804012644836
10gdeph,4,龙吟路455弄,121.45395475074405,31.113342153568553
10gdepi,4,龙吟路500弄,121.45160696153134,31.112961362086867
10gdepj,4,罗秀二村,121.44774797735636,31.13218305461429
10gdepk,4,罗秀路1095弄,121.4278245958206,31.12958333091684
10gdepl,4,罗秀路1175弄,121.42243675185888,31.128972974758984
10gdepm,4,罗秀路955弄,121.43122421923701,31.130650880915656
