SH_ID_36,区36,地址,lng,lat
10gcigx,f,白萱路99弄,121.59145839417384,31.329899754172473
10gcigy,f,白杨路1155弄,121.56038116905553,31.1911306685736
10gcigz,f,白杨路199弄,121.55603107437686,31.207948907944328
10gcih0,f,白杨路360弄,121.55507265123826,31.205518266335222
10gcih1,f,板泉路1000弄,121.50763239541946,31.161033187225012
10gcih2,f,板泉路1555弄,121.51022523639455,31.163415395730965
10gcih3,f,板泉路2000弄,121.53133493755303,31.165584145638864
10gcih4,f,板泉路2101弄,121.53192973522233,31.168317110905516
10gcih5,f,板泉路50号,121.49448342181726,31.158016614451455
10gcih6,f,北艾路1200弄,121.53291312978227,31.18369466821967
10gcih7,f,北艾路155弄,121.54280308732183,31.185907367332007
10gcih8,f,北艾路1643弄,121.52460581869622,31.180071103730274
10gcih9,f,北艾路1660弄,121.52366882715243,31.181198560841977
10gciha,f,北艾路1765弄,121.52319277766729,31.177909489381417
10gcihb,f,北蔡大街31弄,121.55441502165795,31.18742850869939
10gcihc,f,北蔡镇北蔡村丁家宅,121.55636471026013,31.18243591063922
10gcihd,f,北蔡镇联勤村冯桥队冯家宅,121.5512447427735,31.165083721535392
10gcihe,f,北蔡镇联勤村冯桥队张家宅,121.55150061090333,31.168563346882404
10gcihf,f,北蔡镇联勤村李家队李家宅,121.55119412500682,31.16179258174481
10gcihg,f,北蔡镇联勤村麦家宅,121.54783716872538,31.16408639054935
10gcihh,f,北蔡镇联勤村张家队张家宅,121.54772701402662,31.16784366402888
10gcihi,f,北蔡镇南新村东钟家宅,121.54241446403256,31.166626361067582
10gcihj,f,北蔡镇南新村吴家宅,121.54347334053924,31.166060394278556
10gcihk,f,北蔡镇南新村西钟家宅,121.54131426069567,31.166437317855404
10gcihl,f,北蔡镇南新村徐家宅,121.54340741408663,31.166114461558422
10gcihm,f,北蔡镇南新村杨家湾,121.54642048260772,31.165489613648965
10gcihn,f,北蔡镇南新村赵家厍,121.53819112179741,31.1699000749693
10gciho,f,北蔡镇潘姚村西刘队刘家宅,121.57715287295656,31.182207906399192
10gcihp,f,北蔡镇卫行村顾家队张家宅,121.58315163373852,31.166831409678565
10gcihq,f,北蔡镇卫行村沈家队沈家宅,121.5800556843448,31.15868944811961
10gcihr,f,北蔡镇卫行村张浜队南顾家宅,121.5818720876577,31.16580079728821
10gcihs,f,北蔡镇卫行村张浜队王家宅,121.67877281591745,31.165547586711547
10gciht,f,北蔡镇卫行村张浜队杨家宅,121.5799778009468,31.16591336724414
10gcihu,f,北蔡镇五星村陈家队陈家宅,121.56748148316487,31.191953870626747
10gcihv,f,北蔡镇五星村家务队顾家宅,121.56989945616273,31.169276771893852
10gcihw,f,北蔡镇五星村吴家队吴家宅,121.57192050465474,31.173956854045844
10gcihx,f,北蔡镇杨桥村蒋家队北季家宅,121.5731406586347,31.193526000880222
10gcihy,f,北蔡镇杨桥村西计队西计家宅,121.57810817265944,31.190077751150756
10gcihz,f,北蔡镇一六村金桥队南赵家宅,121.5892013672584,31.16008906686193
10gcii0,f,北蔡镇御桥村姚家队姚家宅,121.55462344810854,31.167300186056558
10gcii1,f,北蔡镇中界村陈家队陈家宅,121.56602135753657,31.192395116699014
10gcii2,f,北蔡镇中界村复兴队陈家宅,121.57155011723059,31.1877701406199
10gcii3,f,北蔡镇中界村复兴队顾家宅,121.57155565426336,31.187639751025838
10gcii4,f,北蔡镇中界村复兴队苏家宅,121.57058892587106,31.184730321335948
10gcii5,f,北蔡镇中界村黄家队黄家宅,121.57293296451034,31.18507031052915
10gcii6,f,北蔡镇中界村黄家队孔家圈,121.57395896117129,31.183768460838223
10gcii7,f,北蔡镇中界村林家队苏家宅,121.57054500155262,31.184706562750005
10gcii8,f,北蔡镇中界村林家队中界庙,121.57118327656242,31.184835148140856
10gcii9,f,北蔡镇中界村陆家队陆家宅,121.70831881360787,31.209241283007632
10gciia,f,北蔡镇中界村沈家队沈家宅,121.52156731896952,31.18924380547078
10gciib,f,北蔡镇中界村沈家队姚家宅,121.57658452025665,31.18424772784709
10gciic,f,北蔡镇中界村苏家队苏家宅,121.57065715159754,31.1853668892229
10gciid,f,北蔡镇中界村庄家队蔡家宅,121.56781997749991,31.189281415827566
10gciie,f,北城壕路111弄,121.70121296267016,31.197688140213565
10gciif,f,北新园路350弄,121.62508862063727,31.32209742666514
10gciig,f,北园路258弄,121.52377049815368,31.202655713362585
10gciih,f,北张家浜路58号,121.52058452075293,31.21576326010609
10gciii,f,北中路278弄,121.55662512040502,31.183044902152282
10gciij,f,北中路280弄,121.55758332529308,31.183643331584094
10gciik,f,北中路354弄,121.55967245370682,31.183341145814104
10gciil,f,北中路383弄,121.55960290493975,31.184888977668233
10gciim,f,滨江大道福山路交界口工地生活区,121.52793641183814,31.24237697231468
10gciin,f,博华路1018弄,121.55125652773557,31.170721671381845
10gciio,f,博华路930弄,121.5506661761822,31.17406435596391
10gciip,f,博华路999弄,121.54982974443055,31.170281503068246
10gciiq,f,博山东路112弄,121.56328579983011,31.24909044062637
10gciir,f,博山东路173弄,121.56442689630032,31.25130897835052
10gciis,f,博山东路20弄,121.55978309966882,31.24548126896461
10gciit,f,博山东路553弄,121.56885433501594,31.255268282956404
10gciiu,f,博山东路81弄,121.56138862490786,31.248665884982973
10gciiv,f,博山路11弄,121.55853668465193,31.245097797576832
10gciiw,f,博山路12弄,121.55665217753163,31.2460873540221
10gciix,f,博山路200弄,121.55270627664088,31.24476377699423
10gciiy,f,博山路50弄,121.55579708372271,31.245926682992337
10gciiz,f,博山路51弄,121.55705252589317,31.244521761488883
10gcij0,f,博兴路1676弄,121.60214401499226,31.275453443081854
10gcij1,f,博兴路250弄,121.57893389129971,31.269160348891994
10gcij2,f,博兴路462弄,121.5816607720034,31.26541491662384
10gcij3,f,博兴路465弄,121.58531368630345,31.26601402781565
10gcij4,f,博兴路616弄,121.58497455619231,31.263419453360484
10gcij5,f,博兴路799弄,121.5906576857692,31.265833876442898
10gcij6,f,博兴路916弄,121.59155610513902,31.264800004229468
10gcij7,f,博兴路986弄,121.59332513577792,31.265421460859883
10gcij8,f,彩云路568弄,121.80731988032295,30.899476676245065
10gcij9,f,彩云路843弄,121.80129457132358,30.89803567720949
10gcija,f,曹路镇安基村朱家宅,121.64849585875356,31.28614726094647
10gcijb,f,曹路镇东海村胡家宅,121.67141042314258,31.300617786321947
10gcijc,f,曹路镇东海村张家宅,121.67393456902171,31.3018986744948
10gcijd,f,曹路镇顾东村苍龙桥,121.66145196464747,31.29740964587453
10gcije,f,曹路镇顾东村船板桥,121.66161073875915,31.295764982867876
10gcijf,f,曹路镇顾东村花厅,121.66247155591383,31.292535998808358
10gcijg,f,曹路镇顾东村水洞港,121.66682160048444,31.292998922852906
10gcijh,f,曹路镇顾东村太平,121.6590979059679,31.301450793154782
10gciji,f,曹路镇顾东村田度宅,121.65978187670454,31.297347792010832
10gcijj,f,曹路镇顾东村新屋宅,121.66129542830937,31.293242449796704
10gcijk,f,曹路镇顾三村外金家宅,121.68715834074864,31.294892465898233
10gcijl,f,曹路镇光明村沙桥宅,121.6514955435676,31.28743679780477
10gcijm,f,曹路镇黎明村盛朱村,121.69991538426366,31.268386228606634
10gcijn,f,曹路镇联合村路北宅,121.66701376055941,31.278546901827863
10gcijo,f,曹路镇联合村南浜宅,121.67539404045465,31.29699013438611
10gcijp,f,曹路镇联合村西浜宅,121.67670517854236,31.298421478642148
10gcijq,f,曹路镇联合村西柴场,121.67272476122402,31.296527049295037
10gcijr,f,曹路镇民建村北邵家宅,121.64893601641856,31.27464396537026
10gcijs,f,曹路镇民建村金家宅,121.64977251841334,31.272744077491435
10gcijt,f,曹路镇民建村南邵家宅,121.64870114744407,31.274280251077094
10gciju,f,曹路镇民建村徐家宅,121.65054260394828,31.27134238179316
10gcijv,f,曹路镇启明村龙王庙,121.69651271266173,31.275357341607187
10gcijw,f,曹路镇前锋村夹路村宅,121.69520526831349,31.27212487467136
10gcijx,f,曹路镇前锋村陆家宅,121.65741590797202,31.25802821652421
10gcijy,f,曹路镇前锋村杨张村宅,121.6950800981296,31.27163219132753
10gcijz,f,曹路镇日新村北万家宅,121.66843317173056,31.262988414331083
10gcik0,f,曹路镇日新村南房宅,121.67133382267828,31.264731409957342
10gcik1,f,曹路镇日新村南万家宅,121.67268276742433,31.260040740564012
10gcik2,f,曹路镇日新村杨薛家宅,121.66912921819306,31.259334933024313
10gcik3,f,曹路镇五四村沈孙家宅,121.65172705288334,31.254424982813383
10gcik4,f,曹路镇五四村唐朱家宅,121.6579148044833,31.251255414842863
10gcik5,f,曹路镇新华村强顾家宅,121.66085531001049,31.264769984236136
10gcik6,f,曹路镇新星村胡家宅,121.73078876099497,31.25068681124725
10gcik7,f,曹路镇星火村陆家村宅,121.70172754617897,31.254226633921512
10gcik8,f,曹路镇迅建村蔡家宅,121.69258762238134,31.281577099673186
10gcik9,f,曹路镇迅建村撑圩村,121.69274353234087,31.28175645433789
10gcika,f,曹路镇迅建村黄家宅,121.68944631569224,31.28028060979623
10gcikb,f,曹路镇迅建村季家宅,121.6926947501865,31.281804450594862
10gcikc,f,曹路镇永丰村大徐家宅,121.7018572942357,31.26350714959808
10gcikd,f,曹路镇永丰村孙家宅,121.6918827161086,31.255705818052434
10gcike,f,曹路镇永和村陆万村,121.69796756693111,31.264590868151608
10gcikf,f,曹路镇永乐村曹家油车,121.64195576561896,31.27773332744011
10gcikg,f,曹路镇永乐村东邵家弄,121.64068919674403,31.273065098578027
10gcikh,f,曹路镇永乐村钱家宅,121.63922529359172,31.269192724125094
10gciki,f,曹路镇永利村冯家宅,121.69554329200466,31.263935227223072
10gcikj,f,曹路镇永利村马家宅,121.69578300419646,31.264106693943237
10gcikk,f,曹路镇永利村徐家宅,121.68753384112571,31.251627331781258
10gcikl,f,曹路镇赵桥村大陆家宅,121.64725262428351,31.289335279350826
10gcikm,f,曹路镇众三村顾家宅,121.66877547277234,31.279462784837218
10gcikn,f,草高支路168弄,121.58340899853339,31.352507274449096
10gciko,f,草高支路170弄,121.58061045345518,31.352436353840556
10gcikp,f,长岛路1066弄,121.59017246722652,31.259838540155638
10gcikq,f,长岛路1201弄,121.59233884270851,31.261407039251036
10gcikr,f,长岛路1338弄,121.59740045117208,31.26309213165895
10gciks,f,长岛路1477弄,121.59813341333049,31.264162297151852
10gcikt,f,长岛路1560弄,121.60117756689078,31.26429345565217
10gciku,f,长岛路800弄,121.5867601399717,31.260137284723783
10gcikv,f,长岛路823弄,121.58739381145206,31.262196117573918
10gcikw,f,长岛路99号,121.57811418267354,31.267723082938854
10gcikx,f,长清路643弄,121.49099615346333,31.159405788484566
10gciky,f,长清路693弄,121.49221771893183,31.157348532125877
10gcikz,f,长清路75弄,121.4891315691728,31.172308938950405
10gcil0,f,长清路773弄,121.49214743490224,31.155891251305984
10gcil1,f,长清路807弄,121.4938546587484,31.156213026109814
10gcil2,f,长清路937弄,121.49233403837387,31.15293101347454
10gcil3,f,昌里东路395弄,121.5115027586962,31.178789274174463
10gcil4,f,昌里东路411弄,121.51257105252537,31.179606483170083
10gcil5,f,昌里东路500弄,121.51379694880137,31.177995356127703
10gcil6,f,昌里东路550弄,121.51571296114726,31.178954120015465
10gcil7,f,昌里东路650弄,121.51781968804856,31.17912143222308
10gcil8,f,昌里东路71弄,121.50607048038177,31.176225646331456
10gcil9,f,昌里东路80弄,121.50626724633258,31.174382351162542
10gcila,f,昌里路167弄,121.49763045790924,31.175166492811645
10gcilb,f,昌里路311弄,121.49209076983736,31.173915023957885
10gcilc,f,昌里路340弄,121.4916845183091,31.172033335706544
10gcild,f,昌里路93弄,121.50191784985677,31.176744507918325
10gcile,f,昌邑路1500号,121.53885883071155,31.244975109073298
10gcilf,f,昌邑路55弄,121.5126689894192,31.240240358163025
10gcilg,f,潮乐路21弄,121.85311314187264,30.871854387063713
10gcilh,f,陈春路221弄,121.55298632959213,31.17235511109088
10gcili,f,陈春路620弄,121.5458844606899,31.17292753668093
10gcilj,f,陈邵路103号工地生活区,121.48397259027537,31.148177426657046
10gcilk,f,成山路1488弄,121.5284646955466,31.17540427604011
10gcill,f,成山路1728弄,121.53178294749004,31.17679899305435
10gcilm,f,成山路2008弄,121.53820447492532,31.179046665730976
10gciln,f,成山路2222弄,121.54127375726961,31.178964528312942
10gcilo,f,成山路226弄,121.49728169323325,31.17118394314587
10gcilp,f,成山路2399弄,121.54487209121203,31.181111903741915
10gcilq,f,成山路24弄,121.48558894576202,31.168073214328327
10gcilr,f,成山路544弄,121.50852336473443,31.169947749330316
10gcils,f,成山路608弄,121.50825727004661,31.171713615151
10gcilt,f,成山路648弄,121.51095948604721,31.171260480608723
10gcilu,f,成山路668弄,121.51189740102684,31.170206327540978
10gcilv,f,成山路963弄,121.51562063801771,31.175817183381817
10gcilw,f,诚礼路298弄,121.66713452061154,31.22488306965398
10gcilx,f,城丰路212弄,121.68748270721902,31.1905742773135
10gcily,f,城丰路245弄,121.6860437215155,31.18917769679547
10gcilz,f,城南路550弄,121.6967825716851,31.191720539049538
10gcim0,f,城南路918弄,121.77003261535981,31.040425046247965
10gcim1,f,崇溪路111弄,121.71098522424559,31.108667856305285
10gcim2,f,川北公路3046号,121.61284792585332,31.205392212853933
10gcim3,f,川沙路1258号,121.67817593141946,31.261403526845896
10gcim4,f,川沙路1666弄,121.67925578908338,31.253927394764215
10gcim5,f,川沙路2016号生活区,121.68341776155971,31.245163573488487
10gcim6,f,川沙路389弄,121.66984095051664,31.278869621119778
10gcim7,f,川沙路4197号,121.69400607716194,31.206327310791227
10gcim8,f,川沙路4625弄,121.69842681995146,31.199088478336517
10gcim9,f,川沙路5122弄,121.69762665914024,31.19016946916712
10gcima,f,川沙路5245弄,121.69917801798846,31.1887586748634
10gcimb,f,川沙新镇八灶村郭家宅,121.71576269986171,31.152983206171022
10gcimc,f,川沙新镇八灶村康家宅,121.71644021702232,31.16001099686796
10gcimd,f,川沙新镇柴场村,121.7261008795692,31.18112802654903
10gcime,f,川沙新镇陈桥村,121.6909974139494,31.14464998191035
10gcimf,f,川沙新镇城南村朱家宅,121.6996678785087,31.187880063372777
10gcimg,f,川沙新镇杜坊村,121.69649131361139,31.17211058198963
10gcimh,f,川沙新镇果园村,121.64884433894647,31.112965915805933
10gcimi,f,川沙新镇和平村朱家宅,121.73165455256972,31.202845559324036
10gcimj,f,川沙新镇黄楼村张家宅,121.67522339461597,31.162317781231412
10gcimk,f,川沙新镇会龙村新兴,121.72723282581283,31.09228262037453
10gciml,f,川沙新镇界龙村大顾家宅,121.65866472349526,31.16995238192814
10gcimm,f,川沙新镇界龙村戴家宅,121.67834461483072,31.17418539558487
10gcimn,f,川沙新镇界龙村华家宅,121.65924004273127,31.16194903371761
10gcimo,f,川沙新镇栏杆村周家宅,121.6681846875596,31.168723910163806
10gcimp,f,川沙新镇鹿溪村,121.7096045883279,31.118245686704054
10gcimq,f,川沙新镇民义村,121.69896472933704,31.12780633502536
10gcimr,f,川沙新镇其成村,121.68753595953389,31.11242068561668
10gcims,f,川沙新镇湾镇村王家宅,121.73748099081392,31.15907176293759
10gcimt,f,川沙新镇新浜村陆家宅,121.73969639815216,31.12468315276108
10gcimu,f,川沙新镇新春村赵孟家宅,121.69355683467096,31.15892678839432
10gcimv,f,川沙新镇药师村周家宅,121.6826914623116,31.202672594737425
10gcimw,f,川沙新镇长桥村龚家宅,121.73311288674556,31.14724984702168
10gcimx,f,川周公路2828弄,121.61753474756556,31.14338585236445
10gcimy,f,川周公路2880号,121.6143479865482,31.144142277760107
10gcimz,f,川周公路4058弄,121.58563267774178,31.125894731455453
10gcin0,f,川周公路4318弄,121.57981726548131,31.122114580544068
10gcin1,f,川周公路凌空路交界口工地生活区,121.72538774956129,31.18396468143198
10gcin2,f,川周路8682弄,121.70862493588244,31.183290309088708
10gcin3,f,创新西路199弄,121.65502056471426,31.200704779990264
10gcin4,f,创新西路75弄,121.65588469189495,31.2027878004386
10gcin5,f,创新中路199弄,121.66153022424432,31.20744665082232
10gcin6,f,创新中路380弄,121.66609856929895,31.207465263761833
10gcin7,f,创新中路399弄,121.66547859426598,31.211418126352996
10gcin8,f,创业路78弄,121.61111865472182,31.144359405059912
10gcin9,f,创业路798号,121.69663886657506,31.21497447490305
10gcina,f,春晖路25弄,121.58849023419155,31.342790230310055
10gcinb,f,春晖路289弄,121.58499103335095,31.338603504494166
10gcinc,f,春晖路368弄,121.58258899579657,31.33957582189619
10gcind,f,春晖路446弄,121.58238310285653,31.33690785844374
10gcine,f,达秀路151号,121.65276292949781,31.237908347212276
10gcinf,f,大同路1010弄,121.57272312444098,31.33575467901452
10gcing,f,大同路868弄,121.57404261372234,31.336722501410065
10gcinh,f,大团镇扶栏村下塘,121.74496390522435,30.9989194988456
10gcini,f,大团镇果园村银杏,121.72702162237373,30.98013785505482
10gcinj,f,大团镇海潮村沙庙,121.7654784698979,30.963352713179326
10gcink,f,大团镇团新村严楼,121.75352150415506,31.015185714980156
10gcinl,f,大团镇园艺村农艺,121.76680771273128,30.97393370499045
10gcinm,f,德恒路济阳路交界口工地生活区,121.48059994324008,31.166063294719446
10gcinn,f,德平路100弄,121.56181481261667,31.24810708726501
10gcino,f,德平路1065弄,121.56761724056796,31.242697660024106
10gcinp,f,德平路1066弄,121.56708622459645,31.242144948676493
10gcinq,f,德平路1134弄,121.56978992104578,31.23937973646964
10gcinr,f,德平路1189弄,121.57144782132987,31.240016969290373
10gcins,f,德平路143弄,121.56132805851819,31.25065437291344
10gcint,f,德平路155弄,121.56134221004363,31.25033760881288
10gcinu,f,德平路25弄,121.55771005163089,31.253911246193468
10gcinv,f,德州路150弄,121.49897682432162,31.167904471628077
10gcinw,f,德州路220弄,121.49542196379973,31.168158898139794
10gcinx,f,德州路223弄,121.49528670087092,31.168236524561465
10gciny,f,德州路246号,121.49284462178406,31.167981007364823
10gcinz,f,德州路255弄,121.49215906369058,31.168830760969875
10gcio0,f,德州路380弄,121.48597704541858,31.164462656067784
10gcio1,f,德州路420弄,121.48345896911576,31.164960855908554
10gcio2,f,德州路421弄,121.48203345364544,31.168225077613826
10gcio3,f,丁香路1399弄,121.56418663453965,31.229584246323263
10gcio4,f,丁香路1599弄,121.56556494196886,31.228347309212953
10gcio5,f,东波路195弄,121.57980105643912,31.28494701083904
10gcio6,f,东波路49弄,121.57655580331618,31.285518333694306
10gcio7,f,东波路585弄,121.58672999040984,31.285054851747645
10gcio8,f,东昌路490弄,121.51205340456602,31.231186867939993
10gcio9,f,东昌新村,121.51168217518496,31.23240069843298
10gcioa,f,东川公路7858号,121.72792910596682,31.213106421513807
10gciob,f,东方路1800弄,121.52258880750098,31.20274062024387
10gcioc,f,东方路1881弄,121.52167432609409,31.199263279517435
10gciod,f,东方路268号,121.5213439837806,31.236709179447473
10gcioe,f,东方路3344弄,121.51363567863673,31.193177444513637
10gciof,f,东高路1111弄,121.5941305035943,31.290867365345655
10gciog,f,东高路18号,121.57445391880849,31.288091567429863
10gcioh,f,东环龙路181弄,121.52762207939475,31.20129933831005
10gcioi,f,东建路228弄,121.53212707982797,31.200829440001538
10gcioj,f,东建新村,121.53315903135214,31.201678018857123
10gciok,f,东靖路2250弄,121.61114421195727,31.289043159938476
10gciol,f,东靖路247弄,121.57684434023294,31.29211547032254
10gciom,f,东靖路51弄,121.57328857859838,31.292061599132666
10gcion,f,东靖路626弄,121.58543060083875,31.29101078943505
10gcioo,f,东林街135弄,121.50404587147058,31.13875381435215
10gciop,f,东陆路1018弄,121.59264165119271,31.272749324161463
10gcioq,f,东陆路1182弄,121.5959787544311,31.270555334160274
10gcior,f,东陆路1268弄,121.59607949149935,31.26834386498825
10gcios,f,东陆路1350弄,121.60157440470859,31.267039005126044
10gciot,f,东陆路1456弄,121.60173736049738,31.266980310420216
10gciou,f,东陆路898弄,121.5914424604197,31.273463445761017
10gciov,f,东三街102弄,121.509788217195,31.201662598973616
10gciow,f,东三街15弄,121.50729858455078,31.201374692945627
10gciox,f,东三里桥路160弄,121.51040010917471,31.199213688788603
10gcioy,f,东三里桥路170弄,121.51084829328663,31.200492425843525
10gcioz,f,东三里桥路211弄,121.51371256223692,31.2004306287941
10gcip0,f,东三里桥路245弄,121.51580669240927,31.199313539714456
10gcip1,f,东三里桥路79弄,121.5087824093598,31.20043944542412
10gcip2,f,东书房路390弄,121.53514668194647,31.16506602080299
10gcip3,f,东书房路560弄,121.53487873971017,31.161152359985785
10gcip4,f,东绣路1086弄,121.53630713925007,31.199401770443266
10gcip5,f,东绣路1389弄,121.53203378773279,31.19956357540424
10gcip6,f,东园四村,121.51292247343093,31.23023768155299
10gcip7,f,渡桥路78弄,121.5469899741448,31.117889340725643
10gcip8,f,峨山路180弄,121.52820539530592,31.21422832116379
10gcip9,f,峨山路187弄,121.52763168916316,31.214670699325
10gcipa,f,峨山路280弄,121.52637219060615,31.213955475137496
10gcipb,f,峨山路605弄,121.52182787705726,31.214822906289292
10gcipc,f,峨山路679弄,121.52028264331095,31.213890669074186
10gcipd,f,繁荣东路150弄,121.587672896517,31.105903346766375
10gcipe,f,繁荣东路159弄,121.58582387054642,31.10772417038334
10gcipf,f,方竹路222弄,121.91011798591894,30.894620994929628
10gcipg,f,方竹路333弄,121.90860616714552,30.892109509083358
10gciph,f,方竹路423弄,121.90456393405734,30.89396609046673
10gcipi,f,芳草路253弄,121.55642185784527,31.19364197056412
10gcipj,f,芳草路258号,121.5565009315961,31.19327654693765
10gcipk,f,芳草路352弄,121.55777136874786,31.192847594942844
10gcipl,f,芳草路363弄,121.55624291426312,31.193862703127696
10gcipm,f,芳甸路333弄,121.56062586771277,31.22573426879635
10gcipn,f,芳华路310弄,121.55778254952779,31.19491643659483
10gcipo,f,芳华路329弄,121.55720561056232,31.196216170738232
10gcipp,f,芳华路411弄,121.558595089478,31.195962856195706
10gcipq,f,芳华路455弄,121.55943297834008,31.196428517103932
10gcipr,f,芳华路478弄,121.56002445771698,31.194771155752505
10gcips,f,芳华路573弄,121.56200470221894,31.19685469805188
10gcipt,f,芳华路580弄,121.56227749239979,31.196104326918537
10gcipu,f,芳华路630弄,121.5640191678741,31.196353388570053
10gcipv,f,芳华路63号工地生活区,121.55178393295228,31.194220715999975
10gcipw,f,芳华路673弄,121.55976057012398,31.19627765219839
10gcipx,f,芳华路713弄,121.56369594079801,31.19715029353592
10gcipy,f,芳华路739弄,121.56892951926736,31.1970353353743
10gcipz,f,芳华路916弄,121.56781565974153,31.196131751167886
10gciq0,f,芳华路933弄,121.56881358403952,31.197852576368753
10gciq1,f,芳芯路210弄,121.55745024720444,31.19081640596934
10gciq2,f,芳芯路251弄,121.5563816399723,31.192050588606318
10gciq3,f,芳芯路312弄,121.5575133559845,31.19093954667683
10gciq4,f,芳芯路363弄,121.55837317758909,31.192183794942135
10gciq5,f,福山路102弄,121.52658982087473,31.23105960862063
10gciq6,f,高宝路229弄,121.61895434661474,31.29210655881219
10gciq7,f,高宝路379弄,121.6243310815034,31.291650149200663
10gciq8,f,高宝路528弄,121.62820978227049,31.292851574692857
10gciq9,f,高东二路118弄,121.62721685075505,31.322860958415003
10gciqa,f,高东新路500弄,121.62122193363642,31.33618747265718
10gciqb,f,高东镇灯塔村王家宅,121.66100815611975,31.314752167302004
10gciqc,f,高东镇竞赛村龙稍宅,121.65280380681658,31.300555185989733
10gciqd,f,高东镇竞赛村沈家宅,121.6507077803138,31.302387786255828
10gciqe,f,高东镇踊跃村东孙家沟,121.65692175606716,31.306133919924054
10gciqf,f,高荷路428号,121.57663164252452,31.33682244002113
10gciqg,f,高科西路1655弄,121.527168606744,31.189721751334925
10gciqh,f,高科西路2111弄,121.53566540624676,31.188068385483607
10gciqi,f,高科西路2757弄,121.55432765730147,31.18940899137539
10gciqj,f,高科西路2763弄,121.55310720913144,31.190798708110346
10gciqk,f,高科西路3000弄,121.56175733020125,31.189267225830267
10gciql,f,高科西路3030弄,121.56298563243318,31.189545261996894
10gciqm,f,高科西路3050弄,121.56359211660391,31.189549039286664
10gciqn,f,高科西路3060弄,121.5643882275712,31.18970603328571
10gciqo,f,高桥镇仓房村仓房港,121.51596620703191,31.363497230590685
10gciqp,f,高桥镇仓房村南沟头,121.50949024647723,31.36551259659374
10gciqq,f,高桥镇仓房村平房基,121.5113972660882,31.361349357210994
10gciqr,f,高桥镇高桥村陈家宅,121.77001788397402,31.19203110152036
10gciqs,f,高桥镇凌桥村仓房浜,121.53357661150743,31.365010347534184
10gciqt,f,高桥镇龙叶村叶家角,121.52292504299959,31.366954581726315
10gciqu,f,高桥镇陆凌村西凌家宅,121.56302577302057,31.34571704971989
10gciqv,f,高桥镇南塘村龚家宅,121.56834609776243,31.337910552943185
10gciqw,f,高桥镇南塘村顾家宅,121.56839354073054,31.3390352246164
10gciqx,f,高桥镇南塘村姚家宅,121.56816784312267,31.339174179900596
10gciqy,f,高桥镇三岔港村三岔港,121.50828861670882,31.370664338419115
10gciqz,f,高桥镇西新村草镇,121.52972048882262,31.349147555253317
10gcir0,f,高桥镇新建村钟家弄,121.5770232057928,31.357838519107908
10gcir1,f,高桥镇新农村北凌家宅,121.55884729023981,31.357108350520633
10gcir2,f,高桥镇新农村北项湾,121.55468543670315,31.360502853543434
10gcir3,f,高桥镇新农村南项湾,121.55501417822886,31.359158788443416
10gcir4,f,高青路2861弄,121.52866916086761,31.16160389688715
10gcir5,f,高青路4567弄,121.56177534576484,31.171253947496176
10gcir6,f,龚华路35弄,121.68610482582649,31.270598696981764
10gcir7,f,龚华路479弄,121.68828988644795,31.258933489686218
10gcir8,f,龚华路50弄,121.68366519658923,31.266951176892753
10gcir9,f,龚新路549弄,121.68370685338611,31.257448099467354
10gcira,f,拱川路561弄,121.74721634488667,31.064582849915553
10gcirb,f,拱海路79弄,121.73661845352956,31.06961515836124
10gcirc,f,拱乐路2400弄,121.76852052511573,31.063303905337072
10gcird,f,拱鸣路60弄,121.74451197273974,31.0597306269663
10gcire,f,古桐南路117弄,121.61620267638978,31.201015366051088
10gcirf,f,崮山路157号,121.55231789369097,31.246879642508418
10gcirg,f,崮山路322弄,121.55475574269673,31.24437457401358
10gcirh,f,崮山路717号,121.56069978448835,31.239027979229657
10gciri,f,崮山路95号,121.55057919347344,31.24727305179048
10gcirj,f,崮山路968号,121.56159618180051,31.235204431456708
10gcirk,f,关岳路229弄,121.58830420853499,31.12098608191525
10gcirl,f,光明路222弄,121.61607540548464,31.332168267282427
10gcirm,f,光泽路428弄,121.6184278088058,31.328093023511663
10gcirn,f,广衍路18弄,121.75141561502154,31.039915882668694
10gciro,f,广益路15弄,121.76456640284457,31.109310346825062
10gcirp,f,归昌路351弄,121.60014827507369,31.277894453866132
10gcirq,f,国展路767号工地生活区,121.52768672346133,31.180281626018512
10gcirr,f,海基三路海洋四路交界口工地生活区,121.54866417814351,31.20464670503637
10gcirs,f,海鸣路98弄,121.67236716138594,31.28280123411052
10gcirt,f,海纳路129弄,121.67106830908499,31.2925894321839
10gciru,f,海鹏路301弄,121.67437278190825,31.28965857252618
10gcirv,f,海容路99弄,121.67392903895308,31.2798221678248
10gcirw,f,海顺路359弄,121.68231902693626,31.27647767649027
10gcirx,f,海松路398弄,121.68017976264684,31.27671195579396
10gciry,f,海阳路1065弄,121.50532604319537,31.15932629310962
10gcirz,f,海阳路1080弄,121.50655993912866,31.157176961228686
10gcis0,f,海阳路860弄,121.50178175537935,31.157211741848112
10gcis1,f,海阳路905弄,121.50366914143503,31.15888146603774
10gcis2,f,航昌路199弄,121.60917778428902,31.078447026223685
10gcis3,f,航昌路376弄,121.60934989640167,31.075047195293397
10gcis4,f,航昌路489弄,121.60973482049116,31.075282907552698
10gcis5,f,航城五路401弄,121.75157819457735,31.144120252739704
10gcis6,f,航鹤路1858弄,121.58458323783272,31.050008430457265
10gcis7,f,航鹤路78弄,121.58844330989021,31.025282392933764
10gcis8,f,航梅路525弄,121.57406725996299,31.02459455542
10gcis9,f,航梅路526弄,121.58229586683278,31.024089128595435
10gcisa,f,航瑞路388弄,121.59485720114503,31.073638111498273
10gcisb,f,航三路航吉路交界口工地生活区,121.60767881481931,31.04232467299838
10gcisc,f,航头镇丰桥村檀香,121.60524016234169,31.008919738901234
10gcisd,f,航头镇果园村,121.6357400262877,31.019522605115736
10gcise,f,航头镇航东村航头,121.59318742555409,31.033719101062303
10gcisf,f,航头镇鹤东村沙东,121.61865384895083,31.051977616792602
10gcisg,f,航头镇鹤东村沿江,121.60208397674933,31.054175870983567
10gcish,f,航头镇梅园村沙北,121.58635363836959,31.059739332921254
10gcisi,f,航头镇牌楼村谈弄,121.5571218567188,31.055272994058715
10gcisj,f,航头镇沈庄村大桥,121.568452055671,31.063545331586326
10gcisk,f,航头镇王楼村储楼,121.617433054048,31.06841674589047
10gcisl,f,合庆镇蔡路村包家宅,121.75810427450502,31.19964204091902
10gcism,f,合庆镇蔡路村东蔡家宅,121.72894326346456,31.213029857774902
10gcisn,f,合庆镇蔡路村杨家宅,121.73041314479389,31.21420616978148
10gciso,f,合庆镇东风村潘家宅,121.69875685084374,31.227775859894944
10gcisp,f,合庆镇前哨村包家宅,121.73372379227105,31.240935510097625
10gcisq,f,合庆镇勤奋村九队新村,121.72303239516577,31.26143400822647
10gcisr,f,合庆镇勤奋村徐家宅,121.70710388866947,31.208430215148727
10gciss,f,合庆镇勤奋村张家宅,121.72201242995743,31.255166879525596
10gcist,f,合庆镇勤益村徐家宅,121.70704909443599,31.20885396389296
10gcisu,f,合庆镇青四村龚家宅,121.71648130335028,31.225966700240324
10gcisv,f,合庆镇庆丰村东新宅,121.72049880525503,31.240984512007582
10gcisw,f,合庆镇庆星村凤家码头,121.71845883633547,31.235322062235355
10gcisx,f,合庆镇庆星村顾家宅,121.71527503817376,31.204400405412933
10gcisy,f,合庆镇庆星村张家宅,121.68640675742928,31.21778983521324
10gcisz,f,合庆镇奚家村,121.71152655962987,31.247892604092055
10gcit0,f,合庆镇向东村顾家宅,121.74382450770203,31.233367792729545
10gcit1,f,合庆镇营房村高路二宅,121.7353113421724,31.210488898764638
10gcit2,f,合庆镇营房村青晏二宅,121.73432681572864,31.208526446007628
10gcit3,f,合庆镇营房村云镇宅,121.73072838611151,31.207585825384445
10gcit4,f,合庆镇永红村丁家宅,121.70570021012567,31.234177117257524
10gcit5,f,合庆镇永红村薛家宅,121.70557275973215,31.234446212860533
10gcit6,f,合庆镇跃丰村,121.70866746773409,31.224670711281867
10gcit7,f,合庆镇跃进村凤家宅,121.70606885644938,31.215173815922352
10gcit8,f,合庆镇跃进村新宅,121.70560428277065,31.20885416045952
10gcit9,f,和佳路105弄,121.51314378275568,31.128405699051676
10gcita,f,和炯路501弄,121.50800502716575,31.12343941657985
10gcitb,f,和炯路601弄,121.50915721213619,31.125242684778414
10gcitc,f,和炯路77弄,121.50177102250699,31.12078592224648
10gcitd,f,和龙路55弄,121.57089174536398,31.337483663953822
10gcite,f,和龙路619弄,121.56714359722308,31.34944621213428
10gcitf,f,和融路55弄,121.49992889338453,31.125459523603645
10gcitg,f,菏泽路25弄,121.59051462382023,31.274139073363397
10gcith,f,菏泽路58弄,121.58937029290526,31.272858354484082
10gciti,f,鹤波路航昌路交界口工地生活区,121.60953359718633,31.075108953425055
10gcitj,f,鹤驰路88弄,121.59431449657248,31.080516430737042
10gcitk,f,鹤洁路625弄,121.60563198014256,31.070186891239917
10gcitl,f,鹤沙路588弄,121.59351478826373,31.081954538735918
10gcitm,f,鹤永路599弄,121.6047306689163,31.07469073834041
10gcitn,f,恒庆路曹卫家路交界口工地生活区,121.54839710328866,31.204740249842718
10gcito,f,横桥路69弄,121.57960204904836,31.10805447419674
10gcitp,f,虹盛路250弄,121.68122779339672,31.24132517873192
10gcitq,f,洪山路121弄,121.49910217339514,31.178891919800748
10gcitr,f,洪山路1889弄,121.5111741915715,31.151290453792093
10gcits,f,洪山路237弄,121.50157710640268,31.17301436618309
10gcitt,f,洪山路851弄,121.50513093313744,31.160809974399395
10gcitu,f,沪南公路5192号,121.58880526599621,31.052236835473185
10gcitv,f,沪南路1168弄,121.55505837728396,31.178367617875097
10gcitw,f,沪南路2727弄,121.57647833924432,31.141759438676868
10gcitx,f,沪南路3150弄,121.56518443018882,31.122276300250068
10gcity,f,沪南路3219弄,121.56842197005304,31.12373799851964
10gcitz,f,花木街道龙王庙村南杨家堂,121.55001343509217,31.194576499386468
10gciu0,f,花木路500弄,121.5436009274662,31.210918092910507
10gciu1,f,花山路300弄,121.5745927271115,31.346595056910022
10gciu2,f,华安路24弄,121.51594466931301,31.212079922667066
10gciu3,f,华春路100弄,121.52714604531843,31.179160867156487
10gciu4,f,华春路成山路交界口工地生活区,121.52752987610592,31.18061120814811
10gciu5,f,华东路齐友路交界口工地生活区,121.68080848991035,31.203912755200633
10gciu6,f,华丰路50弄,121.50818999860827,31.19071025514015
10gciu7,f,华夏东路1801弄,121.68562849187718,31.199649937371376
10gciu8,f,华夏东路2110弄,121.69295349800122,31.198504441548984
10gciu9,f,华夏东路2170弄,121.69402233879053,31.199212437317115
10gciua,f,华夏东路860弄,121.66564532916631,31.194703320238997
10gciub,f,华夏二路1255弄,121.69118161837349,31.1758869172949
10gciuc,f,华夏二路1278弄,121.68968117747575,31.174893318368518
10gciud,f,华夏二路200弄,121.68404973585834,31.194051639213754
10gciue,f,华绣路255弄,121.52915775929206,31.185236956547428
10gciuf,f,环林东路270弄,121.52448838272645,31.148019183521686
10gciug,f,环林东路271弄,121.52642209624155,31.149283828870825
10gciuh,f,环林东路799弄,121.53220810133921,31.14106808531034
10gciui,f,环林东路875弄,121.53042203967573,31.140368617952525
10gciuj,f,环林东路879弄,121.52969846709723,31.139557272391148
10gciuk,f,环林东路906弄,121.52872676865631,31.14120629919154
10gciul,f,环林西路608弄,121.52168822934604,31.13984705331705
10gcium,f,环林西路848弄,121.52656834936985,31.13926922000987
10gciun,f,环桥路1136弄,121.60483541207037,31.136071818916182
10gciuo,f,环桥路1481弄,121.60088030088849,31.14075948592634
10gciup,f,环桥路1488弄,121.60338880940162,31.141969898011844
10gciuq,f,环庆南路336弄,121.72816304318943,31.22715814592305
10gciur,f,环庆中路168弄,121.72144942539329,31.233191923398362
10gcius,f,惠南镇城北村,121.76911795645992,31.06320825636665
10gciut,f,惠南镇城南村,121.73514457781575,31.027737326948483
10gciuu,f,惠南镇红光村,121.77495037850704,31.06362023754156
10gciuv,f,惠南镇黄路村富强,121.71033736382579,31.030383331947654
10gciuw,f,惠南镇惠东村,121.77652878425866,31.04028780840294
10gciux,f,惠南镇陆楼村长路,121.77909817710871,31.071051008376465
10gciuy,f,惠南镇勤丰村,121.7757753296816,31.04423843798582
10gciuz,f,惠南镇团结村,121.77824422049757,31.021666824258734
10gciv0,f,惠南镇西门村,121.74160061443106,31.05477372617836
10gciv1,f,惠南镇徐庙村,121.71470343602904,31.030488843703584
10gciv2,f,季景北路180弄,121.58411449137277,31.34078051621022
10gciv3,f,济阳路333弄,121.48332744864481,31.161653392334756
10gciv4,f,济阳路65弄,121.48223203720977,31.167306995648133
10gciv5,f,建中路171弄,121.61448803333465,31.202670606818703
10gciv6,f,江东路238号,121.61601462628838,31.20615009565034
10gciv7,f,江东路25号,121.61568439351085,31.20612505432982
10gciv8,f,交通新村,121.76302041360368,31.03631303854146
10gciv9,f,界浜路55弄,121.58397515512205,31.34434601553481
10gciva,f,金高路2131弄,121.60963598893052,31.261348784602145
10gcivb,f,金高路988弄,121.60836624832592,31.28595372380033
10gcivc,f,金沪路1218弄,121.60209249279839,31.240912687393223
10gcivd,f,金槐路金粤路交界口工地生活区,121.5486587863907,31.2045372394956
10gcive,f,金吉路33弄,121.63255576069558,31.27328697962174
10gcivf,f,金口路155弄,121.57809767159556,31.24874970106328
10gcivg,f,金口路411弄,121.57966314665336,31.24755807206224
10gcivh,f,金口路44弄,121.57598688845312,31.24899473178983
10gcivi,f,金葵路1115弄,121.63077275703326,31.24025066630084
10gcivj,f,金葵路1315弄,121.63509918604791,31.24031954131801
10gcivk,f,金葵路560弄,121.61835341029429,31.2375598586889
10gcivl,f,金睦路353弄,121.67462971196376,31.286845163890266
10gcivm,f,金桥路1498弄,121.58909368191404,31.250804794029182
10gcivn,f,金桥路1502弄,121.58788265993849,31.24846458920505
10gcivo,f,金桥路1504弄,121.58981895292699,31.24977924814861
10gcivp,f,金桥路1506弄,121.58952349477707,31.249197616257284
10gcivq,f,金桥路226弄,121.56969829528418,31.26601976922919
10gcivr,f,金桥路2552弄,121.60228085338083,31.234311321310404
10gcivs,f,金桥路2618号,121.60358524244691,31.233164356888828
10gcivt,f,金桥路301弄,121.5725796628196,31.2662135790515
10gcivu,f,金桥路825号,121.5794888197559,31.25988542273488
10gcivv,f,金桥路899弄,121.57982744671139,31.25899727198805
10gcivw,f,金桥路989弄,121.57763061145444,31.25930815359341
10gcivx,f,金台路181弄,121.58676358382985,31.25179889464974
10gcivy,f,金皖路55号工地生活区,121.61402135242557,31.259278242368364
10gcivz,f,金湘路201弄,121.61262118867937,31.255758743129437
10gciw0,f,金湘路225弄,121.61335391796509,31.256296728184154
10gciw1,f,金晓路289弄,121.68010889079599,31.275345926431
10gciw2,f,金杨路220弄,121.57493766943935,31.24690207266585
10gciw3,f,金杨路308弄,121.57730352149012,31.246070204066516
10gciw4,f,金杨路660弄,121.58187108730682,31.251198613906222
10gciw5,f,金杨路685弄,121.58142624077041,31.25357923292112
10gciw6,f,金杨路757弄,121.58121139429655,31.252919258360365
10gciw7,f,金杨路785弄,121.5826303179092,31.254126000880667
10gciw8,f,金钻路398弄,121.67043180598307,31.285500325712942
10gciw9,f,金钻路669弄,121.67655940715586,31.283921143273684
10gciwa,f,锦安东路280弄,121.54292323751216,31.200585812481556
10gciwb,f,锦安东路567弄,121.53996879453673,31.198572023362257
10gciwc,f,锦和路289弄,121.53731667894158,31.204527591571733
10gciwd,f,锦和路99弄,121.53268438391825,31.205408035524876
10gciwe,f,锦康路389弄,121.53642432756506,31.2093204883602
10gciwf,f,锦绣路1650弄,121.53950197441553,31.211220047091317
10gciwg,f,锦绣路3088弄,121.53893669785553,31.18133279219211
10gciwh,f,锦绣路3336弄,121.53958482294688,31.17795300039275
10gciwi,f,锦绣路3338弄,121.53985252312162,31.175715368860672
10gciwj,f,京浦路298弄,121.57097929147797,31.153486604587226
10gciwk,f,京浦路82弄,121.56532192869399,31.152622511455913
10gciwl,f,泾东一村,121.5568563202073,31.244071685783677
10gciwm,f,靖海路239弄,121.76747325839881,31.04761425011858
10gciwn,f,靖海南路666弄,121.76584234965755,31.033732003991666
10gciwo,f,居家桥路151弄,121.56197574780421,31.260863903500542
10gciwp,f,居家桥路520弄,121.56356760521449,31.254684201510635
10gciwq,f,巨峰路176弄,121.59736875786815,31.27927297453041
10gciwr,f,巨峰路90弄,121.59474982993729,31.27781304761798
10gciws,f,巨峰路997弄,121.61219260530294,31.282668846651287
10gciwt,f,康桥东路1244号,121.63121431152966,31.155904144760658
10gciwu,f,康桥路90弄,121.58201364342968,31.15096106943428
10gciwv,f,康桥镇百曲村,121.53953138365736,31.11714306207576
10gciww,f,康桥镇叠桥村,121.61634256516251,31.128222164427054
10gciwx,f,康桥镇花墙村,121.54916851775263,31.148342459393806
10gciwy,f,康桥镇火箭村,121.60869098945143,31.139370189060482
10gciwz,f,康桥镇人南村,121.62444634076401,31.138362583774345
10gcix0,f,康桥镇太平村,121.55332665692607,31.12181530158779
10gcix1,f,康桥镇汤巷村,121.60370832802516,31.147039845751074
10gcix2,f,康桥镇新苗村,121.63765500369036,31.121959822227776
10gcix3,f,康桥镇秀龙村,121.56290757923823,31.126260827590688
10gcix4,f,康桥镇沿北村,121.58982431071979,31.144348289981703
10gcix5,f,康杉路118号,121.5585600533027,31.15644733117224
10gcix6,f,康沈路1199弄,121.57513414420497,31.125181798937
10gcix7,f,康沈路2262弄,121.58074077189377,31.1010340431445
10gcix8,f,康沈路250弄,121.57040773798816,31.140411710402454
10gcix9,f,康沈路400弄,121.57073043560196,31.139944885416185
10gcixa,f,康沈路465弄,121.57134850666203,31.139532504678932
10gcixb,f,康新公路秀浦路交界口工地生活区,121.54861163653193,31.204696645744406
10gcixc,f,康意路御桥路交界口工地生活区,121.56728676982333,31.156922470162726
10gcixd,f,莱阳路201弄,121.57925600311836,31.273794594467297
10gcixe,f,莱阳路218号,121.57945911796226,31.272444884677792
10gcixf,f,莱阳路301弄,121.57984546363406,31.27484170888895
10gcixg,f,莱阳路350弄,121.58306309940642,31.273859259679135
10gcixh,f,莱阳路451弄,121.58257071101794,31.27559071263166
10gcixi,f,兰城路115弄,121.57973557734924,31.266418641426338
10gcixj,f,兰嵩路360弄,121.59195179982753,31.32304568490914
10gcixk,f,蓝村路30弄,121.53010675226032,31.210830680270025
10gcixl,f,蓝村路31弄,121.53229049654875,31.21230142812798
10gcixm,f,蓝村路471弄,121.52725961181027,31.212471383681596
10gcixn,f,蓝村路501弄,121.52491157784678,31.212307360371035
10gcixo,f,蓝村路60弄,121.52948679066901,31.210326103956877
10gcixp,f,崂山路551弄,121.52211824349676,31.226578992681
10gcixq,f,崂山路571弄,121.52302382926715,31.226462912057674
10gcixr,f,崂山路644弄,121.52590041704444,31.221999648763152
10gcixs,f,崂山路645弄,121.52365116895483,31.22318230776486
10gcixt,f,崂山路80弄,121.51580436496532,31.238928021851137
10gcixu,f,崂山三村,121.51878378291008,31.23483748070701
10gcixv,f,崂山四村,121.51838188498319,31.235020632661275
10gcixw,f,老港镇建港村港北,121.84776995674567,31.027208961834095
10gcixx,f,历城路100弄,121.49221392734546,31.174592393055693
10gcixy,f,历城路22弄,121.492408199024,31.174454129674288
10gcixz,f,历城路81弄,121.49278462318301,31.17529410770603
10gciy0,f,丽雅路122号,121.68318383921238,31.23511544534298
10gciy1,f,利川路421弄,121.6834788431407,31.204211290199126
10gciy2,f,利川路王桥路交界口工地生活区,121.54868364965441,31.20486308736103
10gciy3,f,利津路185弄,121.58035643242357,31.27968558007173
10gciy4,f,利津路385弄,121.5859575741746,31.277604342328317
10gciy5,f,利津路53弄,121.57863738559848,31.27922272589448
10gciy6,f,利津路729弄,121.59031815070279,31.275234397015964
10gciy7,f,连波路228弄,121.55314784202916,31.192048237461783
10gciy8,f,连波路26弄,121.55055465737041,31.195091058177056
10gciy9,f,莲溪路1099弄,121.56605719745359,31.173416667617786
10gciya,f,莲溪路126弄,121.55979389129266,31.18685940106484
10gciyb,f,莲溪路430弄,121.56042662666643,31.182306323379148
10gciyc,f,莲溪路780弄,121.56156331799755,31.176698335386455
10gciyd,f,莲园路180弄,121.55125303167145,31.184775781008593
10gciye,f,莲园路498弄,121.55411571838385,31.185442718964577
10gciyf,f,莲园路77弄,121.54574400383987,31.186064564960066
10gciyg,f,莲中路255弄,121.55881237606451,31.18159337886536
10gciyh,f,林德路718弄,121.50990320670257,31.129528169052488
10gciyi,f,林鸣路326弄,121.52605889926826,31.13179846092305
10gciyj,f,林浦路1240弄,121.47646768852272,31.126414583312695
10gciyk,f,林展路267弄,121.5081910509804,31.127918691579847
10gciyl,f,林展路278弄,121.5056946314685,31.127481140505502
10gciym,f,林展路411弄,121.51021086524554,31.12293139484289
10gciyn,f,临沂北路100弄,121.52040720507563,31.207718549735755
10gciyo,f,临沂北路150弄,121.5169997829724,31.205850320368782
10gciyp,f,临沂路151弄,121.51227273587777,31.19418383826159
10gciyq,f,临沂路181弄,121.51311241079105,31.193231277891854
10gciyr,f,临沂路280弄,121.50876012093438,31.19299539837345
10gciys,f,临沂路301弄,121.51042909884018,31.190908086326584
10gciyt,f,临沂路81弄,121.5175256192906,31.196922937002565
10gciyu,f,临沂路8弄,121.51676232450765,31.200717237256253
10gciyv,f,灵山路1415弄,121.56247352116235,31.23888528236608
10gciyw,f,灵山路1671弄,121.56697070721953,31.239999731146405
10gciyx,f,灵山路1724弄,121.56813310563687,31.23983676509969
10gciyy,f,灵山路1726弄,121.5686636478777,31.240259114849597
10gciyz,f,灵山路730弄,121.55040559627838,31.231249085743013
10gciz0,f,灵岩路56弄,121.49363133776697,31.166682303257943
10gciz1,f,灵岩南路1180弄,121.4996095875675,31.140067426570305
10gciz2,f,灵岩南路144号,121.49395663413152,31.160249384086427
10gciz3,f,灵岩南路156弄,121.49440013302292,31.159428430172973
10gciz4,f,灵岩南路380弄,121.49646855696177,31.15411179974009
10gciz5,f,灵岩南路499弄,121.49842294111934,31.15128995190189
10gciz6,f,灵岩南路769弄,121.4988250388854,31.149593413538796
10gciz7,f,凌河路188弄,121.59676808483673,31.275128925109364
10gciz8,f,凌河路354弄,121.59923420877328,31.273718828276415
10gciz9,f,凌河路38弄,121.59409660367139,31.27701458748192
10gciza,f,凌河路420弄,121.5995062530393,31.27295572126111
10gcizb,f,凌河路618弄,121.60307851916481,31.271915854202476
10gcizc,f,凌兆路127弄,121.4926125809822,31.14239536328387
10gcizd,f,凌兆路256弄,121.49625444710227,31.140831073377875
10gcize,f,凌兆路285弄,121.49530802426077,31.14299637561726
10gcizf,f,凌兆路334弄,121.49780380077759,31.141934800082375
10gcizg,f,凌兆路379弄,121.49733857100468,31.14381847426636
10gcizh,f,凌兆路396弄,121.49927908678139,31.142480777007655
10gcizi,f,凌兆路500弄,121.50006649567182,31.143514125165797
10gcizj,f,凌兆路530弄,121.5075720675136,31.146400749275063
10gcizk,f,凌兆路586弄,121.50228459811444,31.14316214487505
10gcizl,f,凌兆路711弄,121.50491187620464,31.145868864668177
10gcizm,f,凌兆路88弄,121.49232437744674,31.140044621416774
10gcizn,f,柳埠路135弄,121.58398094280652,31.261742951435597
10gcizo,f,龙东大道5401弄,121.68091448140046,31.234373494126338
10gcizp,f,龙东大道6459号,121.70513304325708,31.238772040497476
10gcizq,f,龙东大道云山路交界口工地生活区,121.45763097131257,31.15782791775506
10gcizr,f,龙汇路168号工地生活区,121.55148223148946,31.198829901914483
10gcizs,f,龙居路147号,121.56285973852138,31.252465272466353
10gcizt,f,龙居路150弄,121.56112713070628,31.252248655343266
10gcizu,f,龙居路180弄,121.56250994962548,31.25135227707495
10gcizv,f,龙居路191弄,121.56432231781422,31.25208702808443
10gcizw,f,龙居路30弄,121.55900169501777,31.255184572817317
10gcizx,f,龙阳路1188号,121.53047472845152,31.198360985642214
10gcizy,f,龙阳路158号工地生活区,121.51165735813366,31.20293366008359
10gcizz,f,芦潮路333弄,121.85906034012847,30.863932696418228
10gcj00,f,罗山路108弄,121.5521827087012,31.24849015453741
10gcj01,f,罗山路1502弄,121.56908090903063,31.2285714897216
10gcj02,f,绿林路320弄,121.54750198273362,31.170055504373487
10gcj03,f,绿林路50弄,121.54675805612925,31.174165353875964
10gcj04,f,绿林路51弄,121.54878210944304,31.17456163519429
10gcj05,f,绿林路52弄,121.54770696977685,31.173300534410387
10gcj06,f,茂兴路98号,121.51358412868171,31.20918496532003
10gcj07,f,梅花路168弄,121.76067064381444,31.05175589454359
10gcj08,f,苗圃路463弄,121.54990433474936,31.23674363797318
10gcj09,f,苗桥路455号生活区,121.62885498214509,31.1270885237134
10gcj0a,f,妙川路1000弄,121.71477832798806,31.179878843449824
10gcj0b,f,民春路501弄,121.66679069277797,31.277145420447862
10gcj0c,f,民冬路169号生活区,121.65422230059339,31.286439294368876
10gcj0d,f,民民路8号,121.65115147188259,31.271134185661595
10gcj0e,f,民区路260弄,121.65606626984317,31.27345355678182
10gcj0f,f,民生路423号,121.54318947958235,31.240047030006814
10gcj0g,f,民唐路秦家港路交界口工地生活区,121.66566554222894,31.26121429501971
10gcj0h,f,民同路293弄,121.65317392837241,31.27078256510748
10gcj0i,f,民雪路108弄,121.65835207057329,31.27491403092217
10gcj0j,f,民雪路918弄,121.65882368215428,31.271958949759785
10gcj0k,f,民耀路268弄,121.65282734179029,31.27241262051967
10gcj0l,f,民耀路391弄,121.65515642361588,31.271348603009
10gcj0m,f,民耀路97弄,121.6532043532829,31.274407604127415
10gcj0n,f,牟平路56弄,121.59661218170118,31.26707875966724
10gcj0o,f,牡丹路165弄,121.54579560935001,31.207659634366593
10gcj0p,f,牡丹路186弄,121.54644824032034,31.205934575162065
10gcj0q,f,南曹路901弄,121.6623815676837,31.204576594215418
10gcj0r,f,南汇新城镇庙港村,121.86340121366878,30.873169118943775
10gcj0s,f,南林路584弄,121.52183033531558,31.137391623889904
10gcj0t,f,南六公路399弄,121.71278860636919,31.06136718668593
10gcj0u,f,南码头路1120弄,121.51412184969456,31.185812600856885
10gcj0v,f,南码头路1136弄,121.51442343996446,31.183526797527602
10gcj0w,f,南码头路1186弄,121.51284565522218,31.183165213032645
10gcj0x,f,南码头路1288弄,121.51390838234164,31.182099375174875
10gcj0y,f,南码头路1351弄,121.51628196735935,31.18046918362313
10gcj0z,f,南码头路144弄,121.50755524581628,31.19939258575194
10gcj10,f,南码头路1621弄,121.51794455651402,31.175281501216233
10gcj11,f,南码头路1675弄,121.51423218179275,31.174735544695892
10gcj12,f,南码头路193弄,121.50920305665272,31.19945619841896
10gcj13,f,南码头路450弄,121.50938513954769,31.19348659589
10gcj14,f,南码头路451弄,121.51083088468062,31.195339986213636
10gcj15,f,南码头路56号,121.50637615940225,31.199841609239574
10gcj16,f,南桥路237弄,121.70860406586661,31.191700637104397
10gcj17,f,南桥路297弄,121.70730524940267,31.191432902304527
10gcj18,f,南桥路707弄,121.69636343076117,31.18885252239463
10gcj19,f,南泉北路101弄,121.51509895872442,31.237629856905826
10gcj1a,f,南泉北路1040弄,121.52024314265388,31.22605095612636
10gcj1b,f,南泉北路301弄,121.51682551796824,31.23437760253008
10gcj1c,f,南泉路1200弄,121.52270363254168,31.213679066796583
10gcj1d,f,南泉路1211弄,121.52353030031246,31.21336896688192
10gcj1e,f,南泉路1317号,121.52208335540497,31.21011123975321
10gcj1f,f,南泉路1320弄,121.52053236544154,31.210218978108568
10gcj1g,f,南泉路50号,121.51986978931598,31.222894226246243
10gcj1h,f,南团公路858弄,121.76243400327544,31.02665840088357
10gcj1i,f,南祝路258弄,121.75582868742539,31.117730118389844
10gcj1j,f,泥城镇彭庙村学士,121.78717812689185,30.894784619416534
10gcj1k,f,泥城镇人民村高桥,121.82348147998333,30.904845994613744
10gcj1l,f,泥城镇新泐村彭六,121.79625822411141,30.906731503016317
10gcj1m,f,泥城镇中泐村北泐,121.79029687389205,30.91833674506612
10gcj1n,f,年家浜路339弄,121.57657738044136,31.11386984213672
10gcj1o,f,年家浜路425弄,121.57236741207574,31.112676155156624
10gcj1p,f,年家浜路470号,121.57271941242836,31.114526520637117
10gcj1q,f,年家浜路501弄,121.56889643817125,31.113198779114157
10gcj1r,f,宁桥路825号,121.62028805533716,31.253740618513152
10gcj1s,f,宁阳路14弄,121.5173471827127,31.21184681093153
10gcj1t,f,鹏飞路333弄,121.55731091290164,31.171475678527955
10gcj1u,f,鹏飞路426弄,121.55523607820564,31.171650810698303
10gcj1v,f,浦城路366弄,121.5127903376294,31.227962994639686
10gcj1w,f,浦城路377弄,121.5128962462959,31.22677827022317
10gcj1x,f,浦城路580弄,121.51479494416364,31.22435782388336
10gcj1y,f,浦电路108弄,121.52025694300823,31.218856074195788
10gcj1z,f,浦电路149弄,121.52117013453754,31.21784740202459
10gcj20,f,浦电路218号,121.52319938576045,31.220115560238316
10gcj21,f,浦电路221号,121.52380534364978,31.218565000078346
10gcj22,f,浦电路29弄,121.5148656830988,31.216403823343995
10gcj23,f,浦电路305弄,121.52657282860557,31.218498295547853
10gcj24,f,浦电路330弄,121.52654922473685,31.2211829874434
10gcj25,f,浦电路331弄,121.52807201652504,31.219304523037938
10gcj26,f,浦电路48弄,121.51706627739952,31.218255592886457
10gcj27,f,浦东大道1139弄,121.53624966328545,31.24271910484698
10gcj28,f,浦东大道136弄,121.51376595011845,31.237736663377625
10gcj29,f,浦东大道140弄,121.5144893924774,31.238745918292622
10gcj2a,f,浦东大道1460弄,121.53629328492121,31.242123069176063
10gcj2b,f,浦东大道1476号,121.53625640349746,31.242473058584935
10gcj2c,f,浦东大道1585弄,121.54084195749812,31.244681658796388
10gcj2d,f,浦东大道1615弄,121.54163495417183,31.245845061922473
10gcj2e,f,浦东大道1623弄,121.54214550824621,31.24587396101727
10gcj2f,f,浦东大道1695弄,121.54394931705016,31.2462861756937
10gcj2g,f,浦东大道1700弄,121.54414915500308,31.244829839947954
10gcj2h,f,浦东大道1851弄,121.54469732044672,31.247363749226906
10gcj2i,f,浦东大道2511弄,121.55912622958587,31.259374568396687
10gcj2j,f,浦东大道2515号,121.56092933535672,31.25867283417695
10gcj2k,f,浦东大道2639弄,121.5674086031792,31.263640739260254
10gcj2l,f,浦东大道2641弄,121.56648285086224,31.263659437982817
10gcj2m,f,浦东大道2742弄,121.56829288371382,31.26449195273145
10gcj2n,f,浦东大道2746弄,121.57218471057149,31.267380828076067
10gcj2o,f,浦东大道2778弄,121.57545101315723,31.26952896379104
10gcj2p,f,浦东大道2894号,121.57651302812424,31.272577704334378
10gcj2q,f,浦东大道290弄,121.51726485339506,31.239383311029115
10gcj2r,f,浦东大道2970弄,121.5813009684384,31.27671395705588
10gcj2s,f,浦东大道3036弄,121.57739492335638,31.279322325394162
10gcj2t,f,浦东大道691弄,121.52415379740403,31.24161025730985
10gcj2u,f,浦东南路1288号,121.51643464951287,31.225179951127075
10gcj2v,f,浦东南路1341弄,121.5181385203994,31.22409797974864
10gcj2w,f,浦东南路1349号,121.51756100358642,31.224915928736397
10gcj2x,f,浦东南路1475弄,121.51848687900834,31.22207752852469
10gcj2y,f,浦东南路1533号,121.52088933204863,31.220717518003884
10gcj2z,f,浦东南路1700弄,121.5180166518665,31.217698455145378
10gcj30,f,浦东南路1862弄,121.5177522317603,31.215987573605165
10gcj31,f,浦东南路2141弄,121.51652953217143,31.20867571350988
10gcj32,f,浦东南路2192弄,121.51319398761494,31.206650043997005
10gcj33,f,浦东南路2351弄,121.51229807864031,31.197149825686886
10gcj34,f,浦东南路2362号,121.51076360894332,31.199699921389143
10gcj35,f,浦东南路2366号,121.51129830573178,31.199796306887894
10gcj36,f,浦东南路3405弄,121.50865322456521,31.193604886265632
10gcj37,f,浦东南路4815号,121.4983438046765,31.179867114673723
10gcj38,f,浦东南路575弄,121.51237559891788,31.2365463189637
10gcj39,f,浦东南路595弄,121.51278002972114,31.23628639227214
10gcj3a,f,浦东南路978号,121.51465769293877,31.23032361207873
10gcj3b,f,浦建路47号,121.5191392744734,31.210754363512056
10gcj3c,f,浦建路725弄,121.53081237204262,31.209427371360434
10gcj3d,f,浦建路83弄,121.5202349006715,31.210653750231135
10gcj3e,f,浦明路258弄,121.50894454997761,31.22568424546462
10gcj3f,f,浦明路99弄,121.50842833411593,31.230019225377088
10gcj3g,f,浦三路12弄,121.51057126944667,31.196581563895975
10gcj3h,f,浦三路2801弄,121.53809653227198,31.15510396258047
10gcj3i,f,浦三路288弄,121.51367036001812,31.19282489237873
10gcj3j,f,浦三路5127弄,121.53309651033109,31.160415821360772
10gcj3k,f,浦三路603号,121.51636775116808,31.18899422607347
10gcj3l,f,浦三路775弄,121.51952298383614,31.184200888714745
10gcj3m,f,浦三路年家浜路交界口工地生活区,121.56748810001656,31.113330173951514
10gcj3n,f,浦三路秀浦路交界口工地生活区,121.6030502887276,31.129437758805953
10gcj3o,f,栖山路100弄,121.54379257924384,31.241912742182524
10gcj3p,f,栖山路1088弄,121.55867567918574,31.25283680413031
10gcj3q,f,栖山路1489弄,121.56454593271846,31.2572554606202
10gcj3r,f,栖山路1555弄,121.56504106918676,31.257697047468785
10gcj3s,f,栖山路1636弄,121.56801363387247,31.257807994929095
10gcj3t,f,栖山路400弄,121.55096829890054,31.246119901485592
10gcj3u,f,栖山路401弄,121.54965805379308,31.246692052379327
10gcj3v,f,栖山路470弄,121.56452390954372,31.25725009529622
10gcj3w,f,栖霞路190弄,121.51851565298597,31.2369456940482
10gcj3x,f,栖霞路286号,121.52188837428994,31.23815537116527
10gcj3y,f,齐河路10弄,121.49947354944167,31.177306197568832
10gcj3z,f,齐河路28弄,121.5020670190063,31.17842602133075
10gcj40,f,齐恒路118弄,121.52020849603711,31.187190801019415
10gcj41,f,齐恒路177弄,121.52217063896576,31.18638164157707
10gcj42,f,齐恒路95弄,121.52142187867949,31.18911423465779
10gcj43,f,千汇路1000弄,121.557582006511,31.20301372012228
10gcj44,f,千汇路1280弄,121.76222128022927,31.127408082898725
10gcj45,f,千汇路198弄,121.76947625003072,31.105552063064586
10gcj46,f,千汇路581弄,121.76512021067141,31.113580893202627
10gcj47,f,千汇路750弄,121.76329726751146,31.117502227456175
10gcj48,f,钱仓路313弄,121.52140585101243,31.23981948264333
10gcj49,f,青桐路358弄,121.62223414875182,31.21683755661049
10gcj4a,f,青艺路181弄,121.68004091689183,31.196471013947072
10gcj4b,f,清溪路400弄,121.57098797613558,31.34076147456642
10gcj4c,f,人民东路580号,121.77919268338576,31.049272274229793
10gcj4d,f,乳山路130弄,121.52308383166671,31.23534763525516
10gcj4e,f,乳山路161弄,121.52085668809404,31.23632555105689
10gcj4f,f,瑞安路80弄,121.58789885503283,31.08922586904811
10gcj4g,f,瑞福路52弄,121.60124051047549,31.09599217985802
10gcj4h,f,瑞和路101弄,121.58625268599685,31.086935570832534
10gcj4i,f,瑞浦路611弄,121.58662294704855,31.09144900236624
10gcj4j,f,瑞浦路77弄,121.5876436389628,31.098018662263254
10gcj4k,f,瑞浦路8弄,121.58553583327812,31.098680078852347
10gcj4l,f,瑞意路399弄,121.58748099008402,31.095720270011725
10gcj4m,f,三彩路166弄,121.49749609091323,31.123625349044385
10gcj4n,f,三彩路52弄,121.49745594179576,31.126321453261326
10gcj4o,f,三彩路59弄,121.49905204775428,31.12656304425729
10gcj4p,f,三林路1466弄,121.52332616371488,31.14501221841578
10gcj4q,f,三林路1662弄,121.52647513979714,31.147079754095188
10gcj4r,f,三林路184号,121.49596516725839,31.1363690441051
10gcj4s,f,三林路235号,121.49612495158743,31.137813258747045
10gcj4t,f,三林路429弄,121.4987854434493,31.141188744340855
10gcj4u,f,三林路519弄,121.50134425851128,31.141179064308783
10gcj4v,f,三林路675弄,121.5044324551095,31.141405472727886
10gcj4w,f,三林路706弄,121.50547506461417,31.140988730842135
10gcj4x,f,三林路88弄,121.49438860007072,31.134790174291503
10gcj4y,f,三林镇东明村池河队养鸭滩,121.52059244863565,31.164354403717372
10gcj4z,f,三林镇红旗村姜胡宅队江湖宅,121.49386928164995,31.121400874699823
10gcj50,f,三林镇胡巷村陈家宅,121.51841213535006,31.153183964601162
10gcj51,f,三林镇胡巷村东朱家宅,121.51610282120335,31.16029218045537
10gcj52,f,三林镇胡巷村金家宅,121.51837295718549,31.15284592208854
10gcj53,f,三林镇胡巷村张家宅,121.51495897542874,31.163305868760105
10gcj54,f,三林镇金光村陆家湾队陆家宅,121.5095949529411,31.139386412379793
10gcj55,f,三林镇联丰村八字队东八字桥,121.51297705444125,31.152456729780326
10gcj56,f,三林镇联丰村顾家队顾家宅,121.58268670041666,31.16709500763473
10gcj57,f,三林镇临江村丁家队丁家宅,121.47892436687032,31.124387646767676
10gcj58,f,三林镇临江村临江队王家渡,121.47569786784942,31.127140310130894
10gcj59,f,三林镇临江村庞家队庞家宅,121.47537053104928,31.11587840685836
10gcj5a,f,三林镇临江村唐家宅,121.47903754909957,31.124285509206334
10gcj5b,f,三林镇临江村王家宅队王家宅,121.4791674111438,31.124313089735207
10gcj5c,f,三林镇临江村西新队石河圈,121.47907060250772,31.123804894473967
10gcj5d,f,三林镇临江村益民队罗汉松,121.48175555516693,31.12603420975452
10gcj5e,f,三林镇临江村筠西队庞家宅,121.47565513170967,31.116066383904815
10gcj5f,f,三林镇临江村张塘队塘湾宅,121.48772568391965,31.12517015814518
10gcj5g,f,三林镇临江村张塘队张家宅,121.48717647632328,31.12621668715255
10gcj5h,f,三林镇临江村周北队周家宅,121.47359688213083,31.117928599632954
10gcj5i,f,三林镇南阜村曹家队蚌壳滩,121.52723424424052,31.135827018260322
10gcj5j,f,三林镇南阜村东汤队东汤家宅,121.51149935657352,31.142948399882155
10gcj5k,f,三林镇南阜村东汤队周家宅,121.69834862902228,31.226063097783154
10gcj5l,f,三林镇南阜村高树队北孙家宅,121.52047279989728,31.13336120910291
10gcj5m,f,三林镇南阜村高树队西汤家宅,121.51902606083708,31.1323001307885
10gcj5n,f,三林镇南阜村九思队九思堂,121.51528452177904,31.127472901362633
10gcj5o,f,三林镇南阜村瞿弄队瞿家里,121.51704051411957,31.12770377218119
10gcj5p,f,三林镇三林村镇前队金家宅,121.50056573694229,31.135560766999713
10gcj5q,f,三林镇天花庵村北陈队大陈家宅,121.5203775321227,31.124683858311755
10gcj5r,f,三林镇天花庵村东瞿队大瞿家宅,121.53446198612917,31.12267727281627
10gcj5s,f,三林镇天花庵村闵西队闵家宅,121.53209432862961,31.12160028086854
10gcj5t,f,三林镇天花庵村南陈队大陈家宅,121.52377592922981,31.122497754767924
10gcj5u,f,三林镇天花庵村南王家队南王家宅,121.52832178310034,31.13324400584705
10gcj5v,f,三林镇天花庵村南周家队大周家宅,121.53434940471503,31.1226467752525
10gcj5w,f,三林镇天花庵村西瞿队大瞿家宅,121.5341105930099,31.12290482598149
10gcj5x,f,三林镇同济村果园队果园,121.54435530873215,31.138292598412086
10gcj5y,f,三林镇西林村洪家队洪家新宅,121.49799597575908,31.133195655739435
10gcj5z,f,三林镇西林村圈门队西林街,121.49688085423756,31.134086208118998
10gcj60,f,三林镇西林村圈门队叶家宅,121.49193347783425,31.137696090861745
10gcj61,f,三林镇西林村万家队奚家宅,121.69702945177895,31.22052258835554
10gcj62,f,三林镇西林村西林队奚家宅,121.69679051849903,31.220222666396293
10gcj63,f,三林镇新春村陈桥队陈家桥,121.47551577881603,31.127537811600334
10gcj64,f,三林镇新任村,121.49665452856173,31.156357147320573
10gcj65,f,三林镇懿德村钱家队钱家宅,121.51618323149467,31.11900729018457
10gcj66,f,三林镇懿德村小陈家队小陈家宅,121.51815231382128,31.118468328656384
10gcj67,f,三林镇中林村三林桥队天打桥,121.50914153447698,31.141287772354108
10gcj68,f,三三公路5020弄,121.90764259669727,30.953089554173854
10gcj69,f,三舒路181弄,121.50546799103691,31.122946734824758
10gcj6a,f,三舒路192弄,121.5045092603295,31.122603805691483
10gcj6b,f,三舒路288弄,121.50471968549311,31.12062335223724
10gcj6c,f,三舒路33弄,121.50394600180007,31.12583764309349
10gcj6d,f,三舒路62弄,121.50264981186717,31.124855645406285
10gcj6e,f,三旋路506弄,121.50260472582393,31.11951960201771
10gcj6f,f,商城路1028弄,121.5263080819783,31.231085044160928
10gcj6g,f,商城路1177弄,121.52772046432214,31.235690204897647
10gcj6h,f,商城路1178弄,121.52883811370035,31.23245919870599
10gcj6i,f,上川路361号,121.63939848889405,31.274005778641257
10gcj6j,f,上川路538号,121.64633352667141,31.272539301573957
10gcj6k,f,上川路620号,121.64823191823814,31.273861561638498
10gcj6l,f,上南路1000弄,121.49384895689136,31.17466723575291
10gcj6m,f,上南路1251弄,121.49718572498402,31.17331033687352
10gcj6n,f,上南路1500弄,121.49516644958555,31.170068769059192
10gcj6o,f,上南路3058弄,121.49702190161827,31.161293194572977
10gcj6p,f,上南路3500弄,121.49960015172319,31.15426534094185
10gcj6q,f,上南路3520弄,121.50025341213538,31.15392062066139
10gcj6r,f,上南路3651弄,121.50614595123047,31.154173938830727
10gcj6s,f,上南路3848弄,121.5023427268622,31.150708838979863
10gcj6t,f,上南路3880弄,121.50384139259153,31.149586159297815
10gcj6u,f,上南路3899弄,121.50305947963636,31.15291957413285
10gcj6v,f,上南路6611弄,121.5534110618546,31.11968627013893
10gcj6w,f,上南路929弄,121.49606087629718,31.176591342815193
10gcj6x,f,上浦路510弄,121.49971198129288,31.145907125497313
10gcj6y,f,尚博路569弄,121.51902941007792,31.14923997509364
10gcj6z,f,申江路5809号生活区,121.62564427192707,31.201721966138507
10gcj70,f,申江路985弄,121.62747505989098,31.2881013144414
10gcj71,f,申江南路5550号,121.64569845409281,31.066062531129457
10gcj72,f,沈家弄路870弄,121.54446108008702,31.239420196878577
10gcj73,f,沈家弄路877弄,121.54551388320053,31.238098903882605
10gcj74,f,沈家弄路900弄,121.54606254253083,31.238878921894706
10gcj75,f,沈家弄路901弄,121.54681134269985,31.239083385670444
10gcj76,f,胜利路169弄,121.68763865920899,31.245254872746372
10gcj77,f,胜利路30弄,121.68602897803999,31.242813067560032
10gcj78,f,胜利路836弄,121.70169639823827,31.24589041149713
10gcj79,f,盛夏路1107弄,121.63478381918466,31.197816955677304
10gcj7a,f,盛夏路738弄,121.6288202345242,31.202855505974533
10gcj7b,f,施湾二路766弄,121.74657585118521,31.14631749805823
10gcj7c,f,施镇路385弄,121.75792971801543,31.143726491458214
10gcj7d,f,石家街77号,121.5808371302608,31.344378682789266
10gcj7e,f,世博家园大道站路94弄,121.53498308434729,31.163054175659852
10gcj7f,f,世纪大道杨高南路交界口工地生活区,121.53308750042778,31.226826122571538
10gcj7g,f,寿光路161弄,121.58388717956741,31.274332530999544
10gcj7h,f,寿光路31弄,121.58327797163685,31.273288131679333
10gcj7i,f,寿光路75弄,121.58427630327621,31.273371654242105
10gcj7j,f,寿光路78弄,121.58603912255094,31.272406901012086
10gcj7k,f,书院镇塘北村石南,121.88007494699444,30.90950449323156
10gcj7l,f,书院镇洼港村,121.87714870881095,30.985558343830238
10gcj7m,f,双桥路1108弄,121.61386499536216,31.283146001892042
10gcj7n,f,双桥路1139弄,121.61428145220054,31.28515803510073
10gcj7o,f,水洞港路69弄,121.66543125415244,31.29438365196412
10gcj7p,f,硕川路125弄,121.68630632690974,31.20038021331417
10gcj7q,f,思浦路15弄,121.49338498254592,31.158359856732588
10gcj7r,f,思浦路17弄,121.49314818212201,31.158523148172048
10gcj7s,f,松林路333弄,121.5340797196793,31.226982812433906
10gcj7t,f,孙环路177弄,121.63703105433012,31.186518454162822
10gcj7u,f,孙环路600弄,121.64081751873016,31.177572532770075
10gcj7v,f,孙桥路238弄,121.63062049338394,31.181842605632152
10gcj7w,f,孙桥路788号工地生活区,121.63092503410809,31.170946851108603
10gcj7x,f,台儿庄路363弄,121.59658086704648,31.259633814748987
10gcj7y,f,唐陆路568弄,121.62805446588156,31.251225823439135
10gcj7z,f,唐镇大众村立新新村,121.64017848820939,31.224436337218286
10gcj80,f,唐镇大众村王家宅,121.60299349419954,31.20084614939776
10gcj81,f,唐镇大众村小包新村,121.64727349716252,31.231912169975562
10gcj82,f,唐镇大众村中心新村,121.64829668526117,31.22849865083453
10gcj83,f,唐镇虹二村,121.68050543152148,31.236065985586237
10gcj84,f,唐镇虹三村顾家宅,121.636128327995,31.229218103326833
10gcj85,f,唐镇虹三村沈家宅,121.67321266800569,31.2538796073907
10gcj86,f,唐镇虹三村唐家宅,121.67325894145276,31.25361407873131
10gcj87,f,唐镇虹四村卫家宅,121.65721244882873,31.240721296070166
10gcj88,f,唐镇虹四村吴张家宅,121.65329738266564,31.240837579763777
10gcj89,f,唐镇虹一村奚家宅,121.67440328646711,31.238301313526936
10gcj8a,f,唐镇路366弄,121.65472168613982,31.20920749124298
10gcj8b,f,唐镇吕三村三林新村,121.64117893422764,31.21701297640712
10gcj8c,f,唐镇民丰村江北宅,121.64051380260348,31.21035756150926
10gcj8d,f,唐镇前进村东窑新村,121.64080484905224,31.197279651973556
10gcj8e,f,唐镇前进村顾家宅,121.6510595279001,31.197411521203072
10gcj8f,f,唐镇前进村南李家宅,121.63967534114441,31.20229903521969
10gcj8g,f,唐镇前进村沈家宅,121.63970163011177,31.2023666532133
10gcj8h,f,唐镇前进村唐家新村,121.6403063689176,31.199914199924347
10gcj8i,f,唐镇唐四村丁费南宅,121.65957035015087,31.213701988961464
10gcj8j,f,唐镇唐镇村赵家宅,121.66102202871456,31.214254685357528
10gcj8k,f,唐镇小湾村北街,121.6914845007136,31.22917487272217
10gcj8l,f,唐镇小湾村东张家宅,121.72044135683079,31.21506022588086
10gcj8m,f,唐镇小湾村唐家宅,121.69018819841901,31.228245481690355
10gcj8n,f,唐镇小湾村奚家宅,121.69029537090347,31.22833896808161
10gcj8o,f,唐镇小湾村新村宅,121.69041618052893,31.230488733521923
10gcj8p,f,唐镇小湾村张家宅,121.68668430096004,31.21766535717339
10gcj8q,f,唐镇新虹村东包家宅,121.6497093033005,31.239093051973562
10gcj8r,f,唐镇新虹村刘家宅,121.64788936933788,31.24442915259393
10gcj8s,f,唐镇新虹村缪家宅,121.64866138358637,31.242870573272405
10gcj8t,f,唐镇一心村顾家宅,121.68459184209064,31.23568184597044
10gcj8u,f,唐镇一心村宋家宅,121.6822086279492,31.243520410767122
10gcj8v,f,唐镇一心村袁家宅,121.68206423879359,31.243742006361924
10gcj8w,f,唐镇一心村朱家宅,121.68214233988762,31.243447548353995
10gcj8x,f,塘南路159弄,121.50954166189584,31.20246100585621
10gcj8y,f,塘桥路551号,121.52060998771583,31.211881607519633
10gcj8z,f,桃林路299弄,121.53810731169838,31.239609681874317
10gcj90,f,桃林路815弄,121.5398710270271,31.23331871053135
10gcj91,f,听悦路1205弄,121.73825683742132,31.064356567741104
10gcj92,f,庭安路191号,121.58156411468427,31.324570628979153
10gcj93,f,通济路136弄,121.7466236083334,31.046903063911
10gcj94,f,万德路51弄,121.55941644202166,31.249266581400526
10gcj95,f,万德路67弄,121.56000811644027,31.249713908827523
10gcj96,f,万祥镇万宏村万六,121.81945151152402,30.96926430262536
10gcj97,f,万祥镇万兴村万二,121.8161776253407,30.952824672311365
10gcj98,f,王家街22号,121.58026787445553,31.348184869805163
10gcj99,f,王桥街41弄,121.70040308116347,31.20245654382169
10gcj9a,f,潍坊路126弄,121.5236917549984,31.22179414514956
10gcj9b,f,潍坊路140弄,121.52483295472842,31.22519907117294
10gcj9c,f,潍坊路154弄,121.52533476333521,31.22398758211339
10gcj9d,f,潍坊路268号,121.53366728381125,31.22770764044727
10gcj9e,f,潍坊路270弄,121.53376648296708,31.227891543662636
10gcj9f,f,潍坊路333弄,121.52744732491631,31.22592804190036
10gcj9g,f,潍坊路335弄,121.53208930506351,31.22987219603804
10gcj9h,f,潍坊路355弄,121.53252947489052,31.230224019265464
10gcj9i,f,潍坊路375弄,121.53139070758796,31.22826987372906
10gcj9j,f,潍坊路606号,121.52232973596348,31.22261585248101
10gcj9k,f,潍坊路716号,121.5210005846771,31.223729456289256
10gcj9l,f,潍坊路89弄,121.51902216252627,31.22520752565122
10gcj9m,f,潍坊西路1弄,121.51272467792505,31.222786200987493
10gcj9n,f,潍坊西路2弄,121.51448414948776,31.219363483959846
10gcj9o,f,五莲路100弄,121.57936396941395,31.2756240904831
10gcj9p,f,五莲路1047弄,121.59414780203267,31.272448673720973
10gcj9q,f,五莲路108弄,121.59979978509949,31.28196584746445
10gcj9r,f,五莲路1168号,121.59634339733621,31.272123550344727
10gcj9s,f,五莲路1728弄,121.59973615571765,31.282227022543292
10gcj9t,f,五莲路1769弄,121.59613561019644,31.283151994724687
10gcj9u,f,五莲路201弄,121.58160521228713,31.274488823930497
10gcj9v,f,五莲路30弄,121.57769921707572,31.275378532751404
10gcj9w,f,五莲路400弄,121.58319868622387,31.27196001134515
10gcj9x,f,五莲路719弄,121.58999211146734,31.270679537691592
10gcj9y,f,五莲路759弄,121.59048026349038,31.270898501673873
10gcj9z,f,五莲路780弄,121.59096821114517,31.26860520649778
10gcja0,f,五莲路959弄,121.59217805104362,31.271484660556993
10gcja1,f,五星路151弄,121.56264553459124,31.173984782298334
10gcja2,f,五星路231弄,121.56247732292998,31.174813286504286
10gcja3,f,五星路239弄,121.56450818657864,31.175713263465266
10gcja4,f,五星路410弄,121.5663386523983,31.1751079928576
10gcja5,f,西门路113弄,121.74929805399346,31.046324768155102
10gcja6,f,西门路7号,121.74362214563703,31.047491591571568
10gcja7,f,西三里桥路8弄,121.50658775541832,31.19920091033991
10gcja8,f,西泰林路158弄,121.53155816547414,31.152527483648527
10gcja9,f,西泰林路850弄,121.54023001324556,31.142232641607904
10gcjaa,f,西泰林路901弄,121.53920402419915,31.144404269735322
10gcjab,f,西营路106号,121.48316417677259,31.16948949655651
10gcjac,f,西营路33弄,121.48494556495496,31.170995300169096
10gcjad,f,西营路62号,121.48341266106016,31.170119678179354
10gcjae,f,西营南路11弄,121.48487548920974,31.16175097062657
10gcjaf,f,西营南路67弄,121.48546633462338,31.15822156311018
10gcjag,f,西营南路68弄,121.48795923009264,31.15899297845109
10gcjah,f,西营南路6弄,121.48606977536873,31.16193279752149
10gcjai,f,溪兰路169弄,121.57767064724051,31.33351627154381
10gcjaj,f,霞玉路436弄,121.69502697103718,31.25704062693682
10gcjak,f,下南路115弄,121.54363264767025,31.16593968458426
10gcjal,f,下南路161弄,121.544365454923,31.167016646196213
10gcjam,f,下南路225弄,121.54281202426247,31.168234405408683
10gcjan,f,下南路309弄,121.54319129901187,31.16921122290171
10gcjao,f,下南路320弄,121.54066841367202,31.168817448674137
10gcjap,f,下南路339弄,121.54243283423779,31.16952729879225
10gcjaq,f,下南路474号,121.54010413466308,31.171834228844126
10gcjar,f,下南路500弄,121.53911020877105,31.171994133593074
10gcjas,f,下南路501弄,121.54102386847057,31.17214920964012
10gcjat,f,下南路526弄,121.53851216006866,31.171379795950564
10gcjau,f,下南路551弄,121.54203197487247,31.17332482207909
10gcjav,f,下沙街北桥弄,121.59297283821763,31.049594484631672
10gcjaw,f,夏碧路380弄,121.58431832582096,31.337284916547752
10gcjax,f,香楠路276弄,121.61441706173184,31.214402061494276
10gcjay,f,新场镇果园村,121.60317644357538,31.02439440241888
10gcjaz,f,新场镇金建村长桥,121.67389273373799,31.033054364487732
10gcjb0,f,新场镇仁义村范桥,121.63412341635215,31.055210448075908
10gcjb1,f,新场镇坦南村,121.65176728162119,31.071883445833137
10gcjb2,f,新场镇坦西村坦北,121.63371136832677,31.074013022325083
10gcjb3,f,新场镇王桥村杨辉,121.66334719710002,31.01429060768599
10gcjb4,f,新场镇新卫村,121.64003494903626,31.03949890772392
10gcjb5,f,新场镇祝桥村,121.6772377345504,31.06721938360304
10gcjb6,f,新川路856弄,121.68959645783322,31.190731061464575
10gcjb7,f,新德西路207弄,121.67380626292972,31.191117760654283
10gcjb8,f,新德西路508弄,121.66743982246632,31.19057702738885
10gcjb9,f,新环西路35弄,121.63830153443135,31.015894070676318
10gcjba,f,新环西路800弄,121.64013366601434,31.02542556523603
10gcjbb,f,新金桥路1568号,121.61896143440616,31.257263134788502
10gcjbc,f,新龙路203弄,121.62988373220419,31.31491635278404
10gcjbd,f,新龙路489弄,121.6328181873618,31.313100041989394
10gcjbe,f,新浦路199弄,121.53776872157506,31.16534470432659
10gcjbf,f,新浦路251弄,121.53549788948636,31.166865305602965
10gcjbg,f,新浦路346弄,121.53500104726139,31.171526503040383
10gcjbh,f,新浦路543弄,121.5305146410549,31.16962554239466
10gcjbi,f,新浦路587弄,121.53002450169684,31.167722625590837
10gcjbj,f,新浦路629弄,121.53058503036617,31.169909316642073
10gcjbk,f,新浦路673弄,121.53054710707958,31.169759547972166
10gcjbl,f,新浦路91弄,121.53970341115736,31.16403473996732
10gcjbm,f,新元南路172号工地生活区,121.4903666531771,31.200614423337207
10gcjbn,f,新元南路正茂路交界口工地生活区,121.54850169389863,31.20475945894445
10gcjbo,f,新园路251弄,121.63289611142544,31.317137783233544
10gcjbp,f,新园路436弄,121.63385891130906,31.312956789489334
10gcjbq,f,秀康路958弄,121.57093489437597,31.141948214432485
10gcjbr,f,秀浦路800弄,121.56983655703296,31.126056892081003
10gcjbs,f,秀沿路1168弄,121.58096935024442,31.131018699539453
10gcjbt,f,秀沿路2501弄,121.601331363431,31.1385354859551
10gcjbu,f,秀沿路2585弄,121.60555946982166,31.13861997750307
10gcjbv,f,秀沿路2875弄,121.61300485312768,31.138061103204663
10gcjbw,f,秀沿路3668号,121.61688784268394,31.13617917483058
10gcjbx,f,秀沿路苗桥路交界口工地生活区,121.54854478568589,31.204735912291653
10gcjby,f,秀沿西路258弄,121.52969505311277,31.129336097856008
10gcjbz,f,秀沿西路68弄,121.53731572088799,31.131277203565958
10gcjc0,f,宣桥镇光明村,121.71844234685146,31.079449379406785
10gcjc1,f,宣桥镇季桥村,121.6992464724111,31.061192371208985
10gcjc2,f,宣桥镇三灶村,121.71188716009661,31.06999452528734
10gcjc3,f,宣桥镇宣桥村,121.69952110591039,31.018486332535232
10gcjc4,f,宣桥镇腰路村丰乐,121.68933684497509,31.072078985587307
10gcjc5,f,宣桥镇张家桥村胡桥,121.6908210283421,31.038097810529965
10gcjc6,f,宣镇东路788弄,121.70207291787429,31.02386988183939
10gcjc7,f,学前二村,121.58410231173072,31.34648010098488
10gcjc8,f,雪野二路296号工地生活区,121.49339826520799,31.17997230837738
10gcjc9,f,严民路40弄,121.5274934099553,31.19274676482673
10gcjca,f,严木桥路198弄,121.80786292371354,30.956936592781794
10gcjcb,f,严桥路108弄,121.52669210946534,31.189835097216317
10gcjcc,f,严桥路150弄,121.52739416976013,31.18953433987254
10gcjcd,f,严桥路58弄,121.52636096168878,31.189226143317693
10gcjce,f,严杨路166弄,121.53065179296689,31.193659257561613
10gcjcf,f,严杨路30弄,121.52679465979952,31.192883733588396
10gcjcg,f,严杨路60弄,121.52824017930477,31.19350512092164
10gcjch,f,严镇路75弄,121.52921911666591,31.19162087221268
10gcjci,f,严中路269弄,121.53287366716191,31.19027164420047
10gcjcj,f,严中路373弄,121.53437793676896,31.189537221238915
10gcjck,f,严中路388弄,121.53227252401899,31.188956941366488
10gcjcl,f,盐朝公路67号,121.76358422504832,31.089931574574585
10gcjcm,f,杨高北路3839弄,121.60613626956663,31.286621693895988
10gcjcn,f,杨高南路1258号生活区,121.52988307407529,31.204603847358367
10gcjco,f,杨高南路3288弄,121.51584410622071,31.168162484797502
10gcjcp,f,杨高南路5055弄,121.5313411853706,31.149742382987537
10gcjcq,f,杨高南路5777弄,121.54543621353949,31.127627410800937
10gcjcr,f,杨高中路10弄,121.59821074471307,31.257737579503093
10gcjcs,f,杨莲路160弄,121.55004400512338,31.16517055519671
10gcjct,f,杨莲路鹏岳路交界口工地生活区,121.54864257952809,31.204873451139292
10gcjcu,f,杨南路1015弄,121.50698268434745,31.15288734461523
10gcjcv,f,杨南路1705弄,121.51483547193932,31.15593577774611
10gcjcw,f,杨南路694弄,121.50079472712149,31.150776548727862
10gcjcx,f,杨南路797弄,121.50084110037163,31.1534186076125
10gcjcy,f,杨南路826弄,121.50360815801656,31.151270904667417
10gcjcz,f,杨思路1121弄,121.50566690945695,31.164710643951793
10gcjd0,f,杨思路502弄,121.49512063976535,31.16075319977512
10gcjd1,f,杨思路855弄,121.49850022491663,31.16487010143693
10gcjd2,f,杨思路860弄,121.49871265091633,31.16220168849052
10gcjd3,f,杨思新村,121.49554263732917,31.163644648193483
10gcjd4,f,杨新路197弄,121.49231065420206,31.16298871735618
10gcjd5,f,杨新路20弄,121.49613155009018,31.16471911944656
10gcjd6,f,杨新路281弄,121.48804415924688,31.160913002671716
10gcjd7,f,杨新路77弄,121.49376738781234,31.16348616938271
10gcjd8,f,杨新路80弄,121.49396405385376,31.1638577679454
10gcjd9,f,洋泾镇路89弄,121.55014478055132,31.24172824335079
10gcjda,f,耀华路220弄,121.49114555439927,31.174916061831997
10gcjdb,f,耀华路30弄,121.49252865596543,31.173434980360106
10gcjdc,f,耀华路331弄,121.4856371812477,31.176160011358128
10gcjdd,f,耀华路414弄,121.48555262661283,31.172990759532386
10gcjde,f,耀华路421弄,121.48286137808668,31.173649408962408
10gcjdf,f,耀华路500弄,121.48221991731992,31.171179419133725
10gcjdg,f,耀华路528号,121.48180237773947,31.172115852333256
10gcjdh,f,耀华路550弄,121.48157378147786,31.171111588661724
10gcjdi,f,耀华路560号,121.48089725929209,31.171512600976254
10gcjdj,f,耀华路579弄,121.48077253311588,31.172175346634738
10gcjdk,f,耀华路87弄,121.49154081921604,31.178740207115524
10gcjdl,f,耀华路8号,121.49430428376027,31.178110019186843
10gcjdm,f,耀元路228弄,121.47444682069099,31.171454640426713
10gcjdn,f,益丰路55弄,121.62279809963637,31.20088416081943
10gcjdo,f,益江路286弄,121.63296743344185,31.20150432329928
10gcjdp,f,益江路299弄,121.63156943051995,31.197066575523273
10gcjdq,f,益江路396弄,121.62683932516295,31.198814775414192
10gcjdr,f,益江路511弄,121.62830714360308,31.196242005158545
10gcjds,f,懿行路971弄,121.51463476936385,31.125101946898752
10gcjdt,f,殷北路351弄,121.6273529311516,31.179944126269845
10gcjdu,f,银峰路549弄,121.68960150982359,31.266099020611716
10gcjdv,f,银峰路676弄,121.69080769113157,31.264818216592097
10gcjdw,f,银融路88弄,121.53379968071489,31.209116491690647
10gcjdx,f,银山路115弄,121.57785783048355,31.245059440210007
10gcjdy,f,银山路181号,121.58000911406342,31.244125438644947
10gcjdz,f,银山路342弄,121.58406595836733,31.244554366796073
10gcje0,f,银山路370弄,121.584432035746,31.244795247742665
10gcje1,f,银山路72弄,121.57848620569872,31.242479075036062
10gcje2,f,银霄路39弄,121.55910661064962,31.21267746984867
10gcje3,f,银樽路58弄,121.64803813762826,31.212787405439112
10gcje4,f,樱花路801弄,121.559888034207,31.209218828458475
10gcje5,f,樱花路802弄,121.5590377228334,31.20589818212462
10gcje6,f,迎春路1355弄,121.56299000365361,31.229034200098084
10gcje7,f,永安新村,121.5507561263966,31.248139170981887
10gcje8,f,永宁路33弄,121.61361113396921,31.271722002021576
10gcje9,f,永泰路1129弄,121.52405742201374,31.144025826846605
10gcjea,f,永泰路1299弄,121.52786000823436,31.144302615343836
10gcjeb,f,永泰路136弄,121.5042559803834,31.134642296515146
10gcjec,f,永泰路1960弄,121.54305594273052,31.14480073497528
10gcjed,f,永泰路2079弄,121.54209951840083,31.148807877713974
10gcjee,f,永泰路468弄,121.51221735239113,31.136255684887608
10gcjef,f,永泰路595弄,121.5149016252275,31.14103732017226
10gcjeg,f,永泰路630弄,121.51787867513242,31.137778059167754
10gcjeh,f,永泰路775弄,121.51963281162308,31.141961772214213
10gcjei,f,羽山路1000弄,121.55748877891979,31.237567667535316
10gcjej,f,羽山路600弄,121.54692220439227,31.23287046276431
10gcjek,f,玉盘北路288弄,121.67232666000783,31.22559487871244
10gcjel,f,玉泉街77弄,121.49527609653614,31.162624036430696
10gcjem,f,御衡路68弄,121.58180082852623,31.15403227432302
10gcjen,f,御桥路1679弄,121.56732872965843,31.158299317753183
10gcjeo,f,御桥路1978弄,121.57330719570203,31.15812671541635
10gcjep,f,御桥路2066弄,121.57541014883994,31.157970758249295
10gcjeq,f,御桥路288弄,121.53914631153829,31.145836118711422
10gcjer,f,御青路56弄,121.570007650671,31.1616306179126
10gcjes,f,御青路999弄,121.57394359130384,31.154402915596545
10gcjet,f,御山路360弄,121.56736193137614,31.155323070237117
10gcjeu,f,御水路150弄,121.57229817584988,31.16122967114258
10gcjev,f,御水路199弄,121.57489037265029,31.15998083505603
10gcjew,f,园二路299弄,121.63434296488415,31.317206802283348
10gcjex,f,园林路85弄,121.69736566034172,31.117528447012248
10gcjey,f,园洲路189弄,121.63610659372215,31.31507094637412
10gcjez,f,源深路600弄,121.53443949536378,31.23101757763903
10gcjf0,f,云端路1388弄,121.8174084613772,30.88766692747032
10gcjf1,f,云汉路1096弄,121.80397513947936,30.9113855824187
10gcjf2,f,云汉路977弄,121.80700934841659,30.91026008870728
10gcjf3,f,云莲路101弄,121.50606729639497,31.18304843295752
10gcjf4,f,云山路1050弄,121.57195949761586,31.24889698233506
10gcjf5,f,云山路1395弄,121.57702272479095,31.2440166444064
10gcjf6,f,云山路999弄,121.57291549057008,31.251207778486183
10gcjf7,f,云台路183弄,121.50438814288087,31.1794944622389
10gcjf8,f,云台路501弄,121.50678394854404,31.170541323076115
10gcjf9,f,云台路529弄,121.50737222472989,31.16889000478607
10gcjfa,f,云雅路395弄,121.6783615138881,31.242110679649528
10gcjfb,f,运通路728弄,121.70240459587646,31.20275092430195
10gcjfc,f,韵涛路36弄,121.58768448121297,31.102470310203966
10gcjfd,f,枣庄路552弄,121.57893571686853,31.251327466484724
10gcjfe,f,枣庄路658弄,121.57809679262871,31.250701890369957
10gcjff,f,枣庄路810弄,121.5802069190021,31.24878594802433
10gcjfg,f,枣庄路998弄,121.58175213969264,31.247491588376953
10gcjfh,f,张江路775弄,121.61806115725656,31.203023853824767
10gcjfi,f,张江镇韩荡村西丁家宅,121.60985785461648,31.181075334705127
10gcjfj,f,张江镇环东中心村桥弄金家宅,121.65483530744494,31.163333130157987
10gcjfk,f,张江镇环东中心村四灶姚家宅,121.66028832767718,31.19431164682888
10gcjfl,f,张江镇劳动村郑家宅,121.57861116988614,31.189965816971416
10gcjfm,f,张江镇沔北村曹家宅,121.63133341998592,31.169544953418793
10gcjfn,f,张江镇沔北村南诸家宅,121.6312938614662,31.169752910222016
10gcjfo,f,张江镇钱堂村立达宅,121.60129373991803,31.155442944052837
10gcjfp,f,张江镇新丰村龚家宅,121.64600949752325,31.160873719283817
10gcjfq,f,张江镇长元村曹家宅,121.64517462715547,31.166984605700836
10gcjfr,f,张江镇中心村安乐宅,121.63428240285745,31.17640082473873
10gcjfs,f,张江镇中心村小桥宅,121.63708370204851,31.169322993195834
10gcjft,f,张杨北路310弄,121.58867637096164,31.274602126048293
10gcjfu,f,张杨北路5428弄,121.57618898786187,31.34258966292749
10gcjfv,f,张杨北路5848弄,121.57397818865972,31.34795637721483
10gcjfw,f,张杨北路5911弄,121.57198676569901,31.348834175645422
10gcjfx,f,张杨路1050弄,121.53158925047615,31.230175843594324
10gcjfy,f,张杨路1673弄,121.54287822909298,31.236959989039
10gcjfz,f,张杨路2100弄,121.55458093810597,31.239887815679857
10gcjg0,f,张杨路2855弄,121.5636601470232,31.2468229001746
10gcjg1,f,张杨路2999弄,121.56769808731339,31.24897788019211
10gcjg2,f,张杨路310弄,121.51337694097977,31.225068531686567
10gcjg3,f,张杨路370弄,121.51445418617637,31.225745915590306
10gcjg4,f,张杨路3738号,121.58053641729393,31.25525572658581
10gcjg5,f,张杨路628弄,121.52040460601116,31.228034414370327
10gcjg6,f,张杨路951弄,121.52579173829054,31.23098038959643
10gcjg7,f,招远路19弄,121.51506916208312,31.236451036097368
10gcjg8,f,赵高公路587号,121.62616588145033,31.31689505305809
10gcjg9,f,赵高公路950-968号,121.63301121679265,31.307303009505695
10gcjga,f,赵高公路958号,121.62993882406127,31.3118106462456
10gcjgb,f,赵高路610号,121.62620047741443,31.316286789895255
10gcjgc,f,振兴东路12弄,121.49610419297777,31.16265186103994
10gcjgd,f,中科路2635弄,121.63452614026482,31.189747810811614
10gcjge,f,周邓公路6600弄,121.60323399577358,31.116487602336278
10gcjgf,f,周东路243弄,121.58578354078038,31.116375270772682
10gcjgg,f,周东南路388弄,121.59050570299131,31.0981313991852
10gcjgh,f,周汇路158弄,121.58473047488984,31.102819122983007
10gcjgi,f,周康路868弄,121.57304593249538,31.10139093211465
10gcjgj,f,周康路869弄,121.5751692274847,31.10265143476797
10gcjgk,f,周浦镇北庄村窑港,121.66580103244146,31.102698724553512
10gcjgl,f,周浦镇红桥村民治,121.63325211752873,31.102516957062022
10gcjgm,f,周浦镇里仁村,121.56776126390557,31.112161012750057
10gcjgn,f,周浦镇沈西村梅林,121.56567716702652,31.090175646823972
10gcjgo,f,周浦镇周南村,121.58408425793502,31.109120420032305
10gcjgp,f,周市路1321号,121.58314794255897,31.11353754583777
10gcjgq,f,周市路380弄,121.58154217099644,31.118074754850078
10gcjgr,f,周市路39弄,121.58207963104202,31.110347825138852
10gcjgs,f,周泰路32弄,121.60159257270323,31.10137867254145
10gcjgt,f,周星路500弄,121.57870998495942,31.103785115207597
10gcjgu,f,周秀路26弄,121.60528595070788,31.101629073237746
10gcjgv,f,周园路666弄,121.59298007757228,31.117747321361453
10gcjgw,f,周祝公路1218号,121.63940290488141,31.106311137760603
10gcjgx,f,周祝公路周泰北路交界口工地生活区,121.6600364861632,31.108508811940723
10gcjgy,f,洲德路博艺路交界口工地生活区,121.90160777890713,30.94831106818585
10gcjgz,f,竹柏路500弄,121.90415915957061,30.902505860425098
10gcjh0,f,祝桥镇邓三村张家宅,121.76501363440293,31.129928617256457
10gcjh1,f,祝桥镇高永村高宅,121.79539378589465,31.069807417118486
10gcjh2,f,祝桥镇共和村高家宅,121.73352301439586,31.17089015080187
10gcjh3,f,祝桥镇红星村红一,121.77077948546496,31.088848820090792
10gcjh4,f,祝桥镇金星村,121.77028694143456,31.112930548743616
10gcjh5,f,祝桥镇立新村金家宅,121.74708104083449,31.084714370533433
10gcjh6,f,祝桥镇立新村叶桥,121.73698358665641,31.082289745040622
10gcjh7,f,祝桥镇亭中村,121.77215969017081,31.097075297053372
10gcjh8,f,祝桥镇新东村东海,121.8040747284495,31.08995380931347
10gcjh9,f,祝桥镇新生村,121.74238858844431,31.174537443495474
10gcjha,f,祝桥镇星光村前进,121.75017264743349,31.118720691041805
10gcjhb,f,祝桥镇星火村,121.7628693790754,31.084605813839968
10gcjhc,f,祝桥镇义泓村,121.82971106104445,31.0742557214166
10gcjhd,f,祝桥镇中圩村陈家宅,121.75248506962583,31.15632334667095
10gcjhe,f,砖桥街1号,121.58486376338264,31.344158089681578
10gcjhf,f,梓康路188弄,121.56882666897339,31.12267945909669
10gcjhg,f,梓康路51弄,121.57299655126914,31.122264810850474
10gcjhh,f,紫叶路101弄,121.55157085725541,31.18311926868061
10gcjhi,f,紫叶路65弄,121.55111731072606,31.18381723822888
10gcjhj,f,紫叶路81弄,121.55122355015587,31.18355340758012
10gcjhk,f,邹平路191号工地生活区,121.51686227251714,31.171775774285862
10gcjhl,1,安澜路55号,121.48621642826446,31.215745265826573
10gcjhm,1,半淞园路387号,121.49500912765897,31.202005107506448
10gcjhn,1,半淞园路650号,121.49451667272783,31.198647186545042
10gcjho,1,半淞园路698弄,121.49368661447318,31.198286690992877
10gcjhp,1,保屯路211弄,121.4915362576641,31.203990050304263
10gcjhq,1,保屯路44号,121.49014725620164,31.206503787774295
10gcjhr,1,保屯路50弄,121.48963294698578,31.206250986997986
10gcjhs,1,保屯路99弄,121.49033822724955,31.20719506028447
10gcjht,1,北海路267弄,121.47808426286261,31.2300869648225
10gcjhu,1,北京东路200弄,121.48628975020053,31.24123480205856
10gcjhv,1,北京东路288弄,121.48394225667074,31.241367631288558
10gcjhw,1,北京东路316弄,121.48407987057949,31.241077784625645
10gcjhx,1,北京东路360弄,121.48333320955895,31.240484482114255
10gcjhy,1,北京东路431弄,121.4794687830304,31.239195065452368
10gcjhz,1,北京东路432号,121.48175302210589,31.24006356021932
10gcji0,1,北京东路460号,121.48120243001097,31.240054078453035
10gcji1,1,北京东路498号,121.48034778060224,31.23948033003692
10gcji2,1,北京西路206号,121.46984617497183,31.236204180912132
10gcji3,1,北京西路218弄,121.46940097186115,31.23610682503479
10gcji4,1,北京西路239弄,121.46959003562775,31.23513901523764
10gcji5,1,北京西路253号,121.46902825105104,31.23569355936204
10gcji6,1,北京西路256号,121.46892681473999,31.23576268121577
10gcji7,1,北京西路256弄,121.46558004733662,31.233945800920065
10gcji8,1,北京西路257号,121.46918354334456,31.235408675624214
10gcji9,1,曹家街62号,121.48656975040905,31.218511495864483
10gcjia,1,车站支路99弄,121.49263822408172,31.208299402529246
10gcjib,1,成都北路262弄,121.46793759841695,31.228568038940985
10gcjic,1,成都北路274弄,121.46728865330832,31.228498003182054
10gcjid,1,成都北路600号,121.46682967759436,31.23414927919387
10gcjie,1,成都南路108弄,121.4671373780169,31.221662347027785
10gcjif,1,成都南路132弄,121.46805722880268,31.221270854963954
10gcjig,1,长乐路161号,121.46310315377985,31.220947273369752
10gcjih,1,长乐路169弄,121.4623277411791,31.221056816819107
10gcjii,1,长乐路175号,121.46139397086493,31.220771889270324
10gcjij,1,长乐路306号,121.46399383056314,31.221353906568527
10gcjik,1,长乐路83弄,121.46823310001372,31.221818380510065
10gcjil,1,重庆北路106号,121.47034039291565,31.225625653027627
10gcjim,1,重庆北路128号,121.47015613500535,31.2258800998237
10gcjin,1,重庆北路177弄,121.46927294452081,31.2261152269405
10gcjio,1,重庆北路178号,121.47042743914479,31.22615613570069
10gcjip,1,重庆北路205号,121.46963383591643,31.226760062032707
10gcjiq,1,重庆北路212号,121.46982179046061,31.2271315322658
10gcjir,1,重庆北路216弄,121.47053004061169,31.22715423490052
10gcjis,1,重庆北路235号,121.46962082702557,31.22749119643969
10gcjit,1,重庆北路318弄,121.4693748596745,31.22880221231697
10gcjiu,1,重庆北路94弄,121.47053816906325,31.225430903945153
10gcjiv,1,重庆南路169弄,121.4723392929339,31.216974767023785
10gcjiw,1,重庆南路181号,121.4710716932953,31.21583118899584
10gcjix,1,重庆南路205弄,121.47150173377875,31.2144779627667
10gcjiy,1,重庆南路26弄,121.4714147233638,31.220236686718742
10gcjiz,1,重庆南路30弄,121.47131386926871,31.219773149629436
10gcjj0,1,打浦路29号,121.47113697226023,31.199193604502167
10gcjj1,1,打浦路316弄,121.47116778964705,31.199962461353717
10gcjj2,1,打浦路339弄,121.47195428707887,31.199762678580214
10gcjj3,1,打浦路500弄,121.47279418687711,31.19650038070746
10gcjj4,1,打浦路80弄,121.4695605557923,31.203557357890805
10gcjj5,1,打浦路90弄,121.47075963435837,31.202664453916185
10gcjj6,1,打浦路92号,121.47060884068306,31.202957902629034
10gcjj7,1,大夫坊27号,121.49655572969027,31.220886743118843
10gcjj8,1,大夫坊29号,121.49647033596655,31.220973471594785
10gcjj9,1,大沽路139弄,121.4715360757153,31.226397047272762
10gcjja,1,大沽路155号,121.47112639588367,31.22639948233362
10gcjjb,1,大沽路159号,121.47125106982418,31.226309291263433
10gcjjc,1,大沽路171号,121.4711334238925,31.22628275049103
10gcjjd,1,大沽路177号,121.4707430655947,31.22615481225642
10gcjje,1,大沽路183弄,121.47129292800645,31.225741254202642
10gcjjf,1,大沽路185号,121.47072827136708,31.225981099355884
10gcjjg,1,大沽路197号,121.47067619028384,31.225845597347657
10gcjjh,1,大沽路201号,121.47046494951697,31.226051652858892
10gcjji,1,大沽路252号,121.46949317385578,31.225904933306914
10gcjjj,1,大沽路254号,121.46923421042342,31.226172597614344
10gcjjk,1,大吉路26弄,121.48670239444316,31.214987123076718
10gcjjl,1,大吉路44弄,121.48168310019835,31.212934322287396
10gcjjm,1,大境路50号,121.48708450580295,31.225515422722893
10gcjjn,1,大林路110号,121.48663164095248,31.21280097324223
10gcjjo,1,大林路31弄,121.48730536260278,31.214659226368692
10gcjjp,1,大林路43弄,121.48756231827942,31.213796126168138
10gcjjq,1,大林路78号,121.48706428020512,31.212897791562344
10gcjjr,1,大兴街18号,121.48834280624638,31.213446333766278
10gcjjs,1,大兴街6号,121.48833069446744,31.213848478962994
10gcjjt,1,淡水路190号,121.47293888954606,31.217652118839887
10gcjju,1,淡水路205号,121.4731189761123,31.2175480810072
10gcjjv,1,淡水路210号,121.47298923641233,31.217576933831815
10gcjjw,1,淡水路213号,121.47349209539422,31.21747425063273
10gcjjx,1,淡水路214弄,121.47281702510227,31.21695957595399
10gcjjy,1,淡水路217号,121.47339400413644,31.217246817284533
10gcjjz,1,淡水路223弄,121.47320152021321,31.21675820752567
10gcjk0,1,淡水路225弄,121.47350663835387,31.216948065601184
10gcjk1,1,淡水路227弄,121.47325923976044,31.21662376375415
10gcjk2,1,淡水路246号,121.47335879065703,31.216733383475873
10gcjk3,1,淡水路250号,121.4731388776025,31.216562514076553
10gcjk4,1,淡水路266弄,121.47312551833541,31.216290188949166
10gcjk5,1,淡水路276号,121.47308618123579,31.21623014755963
10gcjk6,1,淡水路460弄,121.47374523500021,31.211099906070526
10gcjk7,1,滇池路116号,121.4878364521577,31.23973307790171
10gcjk8,1,东江阴街184号,121.49712715851084,31.21382406573261
10gcjk9,1,东江阴街226号,121.49680068691325,31.213925567383086
10gcjka,1,东街167弄,121.49707556455908,31.221941467259494
10gcjkb,1,东台路279号,121.48264967736348,31.217503281939305
10gcjkc,1,多稼路2号,121.50387535574524,31.210556941944716
10gcjkd,1,方浜西路63弄,121.48273047783867,31.22062106470813
10gcjke,1,方斜路409号,121.48324754305334,31.21469152064473
10gcjkf,1,方斜路524弄,121.48271392901317,31.213017437967753
10gcjkg,1,方斜路556弄,121.48271838021871,31.212429874702742
10gcjkh,1,凤阳路200弄,121.47151652548916,31.234887225785627
10gcjki,1,凤阳路228弄,121.47125576786614,31.234876923306974
10gcjkj,1,凤阳路358弄,121.46900917787224,31.233852300326863
10gcjkk,1,福建中路150号,121.4820426392929,31.233299735710506
10gcjkl,1,福建中路410号,121.47991928042812,31.237372867900124
10gcjkm,1,福州路384弄,121.48280562944558,31.234881632239656
10gcjkn,1,福州路531弄,121.48045949853444,31.233037600643502
10gcjko,1,福州路614弄,121.47907329724103,31.23314056003516
10gcjkp,1,福州路623号,121.47901510707801,31.23233037839654
10gcjkq,1,复兴东路248号,121.49952810595863,31.22056676505001
10gcjkr,1,复兴东路330号,121.49818016156681,31.220827062451367
10gcjks,1,复兴东路354号,121.49769409659409,31.22094456510138
10gcjkt,1,复兴东路404弄,121.49676820812068,31.221414818289386
10gcjku,1,复兴东路451弄,121.49626850268237,31.222339868646092
10gcjkv,1,复兴东路464弄,121.49598040251854,31.221420323743335
10gcjkw,1,复兴东路663弄,121.49214767289591,31.22232165900473
10gcjkx,1,复兴东路699号,121.49065457827314,31.22218563827212
10gcjky,1,复兴中路408弄,121.47343890205916,31.216457644188985
10gcjkz,1,复兴中路553弄,121.46665257564116,31.214859020074893
10gcjl0,1,复兴中路616弄,121.46390864856095,31.214717446553923
10gcjl1,1,高家横弄19弄,121.4890909055134,31.220810092520143
10gcjl2,1,牯岭路145弄,121.4713574813921,31.235811292083532
10gcjl3,1,牯岭路170号,121.47075670747849,31.236080183861066
10gcjl4,1,牯岭路178号,121.4705782204351,31.236041235783247
10gcjl5,1,牯岭路181号,121.47046330776152,31.23586163753387
10gcjl6,1,光启路105号,121.49431979735999,31.224031401214123
10gcjl7,1,光启路121号,121.4942087150637,31.223797478884194
10gcjl8,1,光启路129号,121.49439256159872,31.22371474969612
10gcjl9,1,光启路215号,121.49393812043917,31.22259296152194
10gcjla,1,光启路91号,121.49420155803737,31.224357144636688
10gcjlb,1,广东路138号,121.48811240661027,31.234015765529218
10gcjlc,1,广东路159号,121.48812885012245,31.23337759644979
10gcjld,1,广东路212号,121.48665095464926,31.233109729764653
10gcjle,1,广东路500号,121.48178325966961,31.232704494539714
10gcjlf,1,广东路540号,121.48110180976894,31.23222459073616
10gcjlg,1,广东路543号,121.48111204254239,31.2320177392032
10gcjlh,1,广东路548号,121.48100436772462,31.232320839663846
10gcjli,1,广东路574号,121.48069969062766,31.232042181536446
10gcjlj,1,广东路580号,121.48057096219455,31.231821630112204
10gcjlk,1,广东路624号,121.47968445953599,31.231407838845687
10gcjll,1,广东路642号,121.4794355655656,31.231492752751638
10gcjlm,1,广东路660号,121.4789837982513,31.231382545187472
10gcjln,1,广东路662号,121.47896103883073,31.23132218791207
10gcjlo,1,广福弄17弄,121.4574599959208,31.21144444611337
10gcjlp,1,广西北路109弄,121.47900012515957,31.23113737328229
10gcjlq,1,广西北路200号,121.47818080441907,31.232832659061415
10gcjlr,1,广西北路228号,121.47850412080317,31.233071297692046
10gcjls,1,广西北路228弄,121.47866017854571,31.233410009141135
10gcjlt,1,广西北路255弄,121.47728899681205,31.233871609480467
10gcjlu,1,广西北路425号,121.47653521155543,31.236380844020918
10gcjlv,1,广西北路428号,121.47671226918254,31.236102251956627
10gcjlw,1,广西北路429号,121.47668526972011,31.23639422318779
10gcjlx,1,广西北路495号,121.4761916032227,31.237245829808387
10gcjly,1,广西北路517号,121.4761625905937,31.23765429494275
10gcjlz,1,贵州路121号,121.47592769373809,31.23638184304194
10gcjm0,1,贵州路131弄,121.4757502598217,31.236424722525246
10gcjm1,1,贵州路151号,121.47589992239675,31.236795428331806
10gcjm2,1,贵州路153号,121.47608977790443,31.236791891359612
10gcjm3,1,贵州路155号,121.47597730902616,31.236835219492608
10gcjm4,1,贵州路157号,121.47606933188551,31.236726052875518
10gcjm5,1,贵州路161号,121.47618245565438,31.236662982622796
10gcjm6,1,贵州路82号,121.47635946851948,31.235399313048493
10gcjm7,1,国货路236号,121.49515052183958,31.20895185660077
10gcjm8,1,国货路370弄,121.49283808582737,31.208460647442745
10gcjm9,1,海潮路222弄,121.49710289798236,31.208209258842516
10gcjma,1,海潮路230弄,121.49745718180101,31.207851733420913
10gcjmb,1,海潮路93弄,121.4997813617024,31.210707443034565
10gcjmc,1,海南西弄105号,121.49643167778466,31.21108374284329
10gcjmd,1,海南西弄51弄,121.49728241934677,31.211276092550516
10gcjme,1,海南西弄52号,121.49748110557373,31.210994841806855
10gcjmf,1,汉口路126号,121.48777313931241,31.236524033974185
10gcjmg,1,汉口路130号,121.48733995992482,31.23687789225357
10gcjmh,1,汉口路429弄,121.4826597290549,31.234940494983377
10gcjmi,1,汉口路678号,121.47769849575664,31.23369305628074
10gcjmj,1,合肥路349弄,121.47347637792255,31.213675342595675
10gcjmk,1,和顺街26弄,121.49643057227318,31.220628159197453
10gcjml,1,和顺街45号,121.49692481729369,31.220643267268898
10gcjmm,1,和顺街49号,121.49663408908259,31.22062408777551
10gcjmn,1,河南南路368弄,121.48774368207032,31.223851325887853
10gcjmo,1,河南南路398弄,121.48835960143137,31.222666555360075
10gcjmp,1,河南南路555弄,121.49098274578566,31.220725682750295
10gcjmq,1,河南南路582弄,121.49034561615564,31.220390809500188
10gcjmr,1,河南南路612弄,121.49054962851294,31.2193135147602
10gcjms,1,河南南路703弄,121.49255936309498,31.216471832169287
10gcjmt,1,河南南路747号,121.49280587297693,31.215740175984998
10gcjmu,1,河南中路154号,121.48626438731762,31.233697105284072
10gcjmv,1,河南中路166弄,121.48493956271741,31.233848839886114
10gcjmw,1,河南中路170号,121.48624091124661,31.233916914132315
10gcjmx,1,河南中路46号,121.4862869219074,31.231779326394637
10gcjmy,1,河南中路541弄,121.48301995618861,31.239656886486753
10gcjmz,1,虎丘路9号,121.48724169447455,31.24104527439915
10gcjn0,1,淮海中路542弄,121.46885310317003,31.221254444163733
10gcjn1,1,淮海中路567弄,121.46844871246476,31.220299376098758
10gcjn2,1,淮海中路606弄,121.4672792177896,31.220435580544326
10gcjn3,1,淮海中路833弄,121.46269147273527,31.21802154234974
10gcjn4,1,黄陂南路506弄,121.47589110847294,31.218165137251468
10gcjn5,1,黄陂南路847弄,121.47878948296012,31.211394534812673
10gcjn6,1,黄陂南路863弄,121.47874035917086,31.210895149698135
10gcjn7,1,黄河路107弄,121.46935843137423,31.23375480136509
10gcjn8,1,黄河路111号,121.47046893054258,31.234699457445693
10gcjn9,1,黄河路115号,121.47062938069932,31.23480804460088
10gcjna,1,黄河路125弄,121.47037104813415,31.23511720909001
10gcjnb,1,黄河路155号,121.47031910549974,31.23554531207228
10gcjnc,1,黄河路163号,121.46980838678824,31.235790989324723
10gcjnd,1,黄河路199号,121.46946230828023,31.235986198641
10gcjne,1,黄河路205号,121.46974803132149,31.236147699467786
10gcjnf,1,黄河路215弄,121.46879748478617,31.236424937118752
10gcjng,1,黄河路217号,121.46972452261134,31.236503015073716
10gcjnh,1,黄河路221号,121.46954430597182,31.23649479898423
10gcjni,1,黄河路223弄,121.46953922231683,31.236694888757846
10gcjnj,1,黄河路229号,121.46946681751854,31.23646879477319
10gcjnk,1,黄河路231弄,121.46879833074036,31.236272558738854
10gcjnl,1,黄河路242号,121.4695707258424,31.237001168886177
10gcjnm,1,黄河路253弄,121.46727161045143,31.23715983781164
10gcjnn,1,黄河路257号,121.46940143507149,31.237185293324053
10gcjno,1,黄河路275号,121.46915880660478,31.237393544067697
10gcjnp,1,黄河路281弄,121.46876828276737,31.237161064544324
10gcjnq,1,黄家路88弄,121.4960909474175,31.215503591369412
10gcjnr,1,黄家阙路36号,121.48698825721468,31.215436141577854
10gcjns,1,黄家阙路68弄,121.48745393956007,31.214874487166338
10gcjnt,1,黄家阙路72弄,121.4875953838712,31.21503471440245
10gcjnu,1,黄家阙路88弄,121.4876025437318,31.214762303955194
10gcjnv,1,徽宁路10号,121.48903366734064,31.20978744573992
10gcjnw,1,徽宁路4号,121.48801947046066,31.209819137148543
10gcjnx,1,徽宁路501弄,121.48941834944607,31.21018313277762
10gcjny,1,徽宁路505号,121.4880173049814,31.20967841821192
10gcjnz,1,徽宁路511号,121.48792345826435,31.20946284131236
10gcjo0,1,徽宁路6弄,121.49569954859953,31.21160198845258
10gcjo1,1,会稽路38弄,121.48201787759926,31.22280034056053
10gcjo2,1,火腿弄12号,121.49609921640987,31.22097783202732
10gcjo3,1,火腿弄21号,121.49606024237946,31.221108073522377
10gcjo4,1,火腿弄55弄,121.49553512592685,31.221449311197514
10gcjo5,1,建德路1号,121.4682126989323,31.209805626066515
10gcjo6,1,建国东路143弄,121.47906075771493,31.21241068290201
10gcjo7,1,建国东路187号,121.4776684617569,31.212764775702247
10gcjo8,1,建国东路61弄,121.4799392073622,31.212974474797296
10gcjo9,1,建国西路91弄,121.4653104019247,31.20671680596813
10gcjoa,1,建国中路109号,121.46926715048562,31.209633559539405
10gcjob,1,建国中路115弄,121.4685800250811,31.20919036171412
10gcjoc,1,建国中路153号,121.46925691085487,31.207915993499594
10gcjod,1,建国中路155弄,121.46768190022742,31.208540992603712
10gcjoe,1,建国中路65弄,121.46975870423708,31.20953830549956
10gcjof,1,江滨路99号,121.47319817996764,31.19172549789358
10gcjog,1,江西中路130号,121.48774530066636,31.233792923975
10gcjoh,1,江西中路135弄,121.4865148296071,31.233339862963433
10gcjoi,1,江西中路24弄,121.48832269806589,31.23250158481345
10gcjoj,1,江西中路304号,121.48641047562806,31.238363278329036
10gcjok,1,江西中路368号,121.48612060430615,31.23981695236985
10gcjol,1,江西中路412弄,121.48591019229714,31.2414115932397
10gcjom,1,江西中路451号,121.48483752581834,31.241870784784474
10gcjon,1,江西中路452号,121.4850870509375,31.241552371247842
10gcjoo,1,江西中路460弄,121.48577413663193,31.241892358924197
10gcjop,1,江阴街259号,121.4900260866448,31.215396322001805
10gcjoq,1,江阴街308弄,121.4900409491861,31.213173111603627
10gcjor,1,江阴街355弄,121.48961423336473,31.2135197775226
10gcjos,1,江阴街401弄,121.49164500450335,31.21427914924905
10gcjot,1,江阴街406号,121.4885236599958,31.21270748527384
10gcjou,1,江阴路130弄,121.46883708488666,31.22975183868685
10gcjov,1,江阴路134号,121.46792088443657,31.229480252248816
10gcjow,1,江阴路88弄,121.4686579655384,31.230213477364224
10gcjox,1,江阴路96号,121.46873191988006,31.229783281593708
10gcjoy,1,金陵东路59号,121.49130936557296,31.231286952927242
10gcjoz,1,金陵东路67号,121.49100032654239,31.231246364194803
10gcjp0,1,金陵西路60号,121.47271380235593,31.223973545060506
10gcjp1,1,金坛路21号,121.49860690856359,31.21991861536158
10gcjp2,1,金坛路9号,121.49803661322015,31.21945067015632
10gcjp3,1,进贤路122弄,121.45971989425497,31.221681101958595
10gcjp4,1,进贤路138弄,121.45964103885757,31.221674058507453
10gcjp5,1,进贤路148弄,121.45949957736244,31.221729692676213
10gcjp6,1,进贤路156弄,121.45944502489978,31.222191341272232
10gcjp7,1,静修路114弄,121.48711109623311,31.21918227782776
10gcjp8,1,静修路126弄,121.48666127808649,31.219441492064707
10gcjp9,1,静修路95号,121.48693755122358,31.219654353278003
10gcjpa,1,九江路202号,121.48592324837367,31.236797339260114
10gcjpb,1,九江路210号,121.48584926895128,31.23679756591748
10gcjpc,1,九江路218弄,121.4861714661154,31.23732017370943
10gcjpd,1,九江路619号,121.47858018008988,31.23414245259994
10gcjpe,1,局门后路19号,121.48080658939439,31.208695474722333
10gcjpf,1,局门后路27号,121.4807640353258,31.20887762341285
10gcjpg,1,局门后路5号,121.48070370889735,31.20830612751878
10gcjph,1,局门后路77号,121.48069932303605,31.208700332209435
10gcjpi,1,局门后路85号,121.48080217667517,31.208351837004503
10gcjpj,1,局门路221号,121.48095890032286,31.20670794529635
10gcjpk,1,局门路241弄,121.48030113080894,31.207780538435753
10gcjpl,1,局门路434弄,121.48115613216137,31.202768115701602
10gcjpm,1,局门路436号,121.48145644441892,31.202901335918387
10gcjpn,1,局门路541号,121.48302531124502,31.20150290903763
10gcjpo,1,局门路599弄,121.48326649086232,31.20059765890474
10gcjpp,1,局门路699号,121.48050959393213,31.207711947480952
10gcjpq,1,巨鹿路299号,121.46264774075419,31.222683655690204
10gcjpr,1,巨鹿路383弄,121.45945618153556,31.222455532472075
10gcjps,1,聚奎新村,121.49629585169957,31.22325144675384
10gcjpt,1,丽园路1016弄,121.47232944504476,31.205443170274123
10gcjpu,1,丽园路1032弄,121.47225594602693,31.205184500941503
10gcjpv,1,丽园路148号,121.48733721726923,31.210120538988146
10gcjpw,1,丽园路27号,121.48992323175149,31.21125855804018
10gcjpx,1,丽园路333弄,121.48334873821827,31.21007263425111
10gcjpy,1,丽园路43弄,121.4894242448393,31.21128384037761
10gcjpz,1,丽园路45弄,121.48938136240925,31.211249159376244
10gcjq0,1,丽园路468号,121.48255543438421,31.208174360456074
10gcjq1,1,丽园路570号,121.48083162517175,31.206977618098424
10gcjq2,1,丽园路574弄,121.4810917329298,31.206831636628458
10gcjq3,1,丽园路68弄,121.48963972968411,31.210519076181466
10gcjq4,1,丽园路694弄,121.47958221877838,31.207005089100498
10gcjq5,1,丽园路710弄,121.47937156398453,31.206261674236384
10gcjq6,1,丽园路82弄,121.48119594070748,31.207556210998952
10gcjq7,1,丽园路842弄,121.47604629186588,31.205879198807477
10gcjq8,1,丽园路866弄,121.47588366518065,31.206286987550385
10gcjq9,1,丽园路879号,121.47546712115637,31.206731410437783
10gcjqa,1,丽园路881号,121.47555971987235,31.206782319905827
10gcjqb,1,丽园路887号,121.47501661511167,31.206647673588897
10gcjqc,1,灵济街27号,121.49553234684818,31.221483615498585
10gcjqd,1,灵济街44弄,121.49534168462706,31.221408531890333
10gcjqe,1,灵济街51号,121.49524962305986,31.221253003629467
10gcjqf,1,灵济街61号,121.49532290432013,31.220989156120574
10gcjqg,1,柳江街24弄,121.48952202680152,31.21955872445474
10gcjqh,1,六合路158号,121.47481730294597,31.23722080067882
10gcjqi,1,六合路98号,121.47490014075215,31.236456699603913
10gcjqj,1,龙华东路888弄,121.47129227374096,31.193256731533346
10gcjqk,1,鲁班路168弄,121.47303183315417,31.204835113259723
10gcjql,1,鲁班路299弄,121.47553624786696,31.20403349588229
10gcjqm,1,鲁班路400弄,121.47590566737523,31.200319042619984
10gcjqn,1,鲁班路721弄,121.47871168939027,31.197088181783247
10gcjqo,1,鲁班路738弄,121.47741680919633,31.194232016899342
10gcjqp,1,鲁班路776弄,121.47792178914848,31.19422215312411
10gcjqq,1,鲁班路778弄,121.47886470032125,31.19292658969706
10gcjqr,1,陆家浜路1060弄,121.48839265191383,31.211509250271117
10gcjqs,1,陆家浜路1088号,121.48795345837456,31.211797469119087
10gcjqt,1,陆家浜路1396号,121.482571832132,31.21088239737578
10gcjqu,1,陆家浜路305弄,121.50069652340308,31.211682775568754
10gcjqv,1,陆家浜路413弄,121.49963261686646,31.212397930473816
10gcjqw,1,陆家浜路468弄,121.49756851376387,31.210636031427796
10gcjqx,1,陆家浜路688弄,121.4957466537761,31.212232366637487
10gcjqy,1,陆家浜路976号,121.49014300702915,31.21197987822859
10gcjqz,1,马当路254号,121.47449654487806,31.218064816650582
10gcjr0,1,马当路278弄,121.4737340566146,31.217694757769173
10gcjr1,1,马当路306弄,121.47484741285403,31.21718198393911
10gcjr2,1,马当路310号,121.47488889694786,31.217424781665
10gcjr3,1,马当路357弄,121.47606958237391,31.21326406399804
10gcjr4,1,马当路446号,121.47506018075194,31.213807997396867
10gcjr5,1,茂名南路159弄,121.46231450953002,31.216298770124496
10gcjr6,1,茂名南路169弄,121.46247162788676,31.21521464682639
10gcjr7,1,茂名南路9弄,121.46171587928549,31.222815957675696
10gcjr8,1,蒙自路218号,121.47756098479397,31.205629590180152
10gcjr9,1,蒙自路255号,121.47857737250213,31.20455948533629
10gcjra,1,蒙自路345弄,121.4788605407877,31.20429928428966
10gcjrb,1,蒙自路440弄,121.47870304055773,31.202031619219017
10gcjrc,1,蒙自路490弄,121.47954101482084,31.2005161770207
10gcjrd,1,蒙自路501弄,121.48018895800796,31.20138472438528
10gcjre,1,蒙自路601弄,121.48082998864926,31.199731427513722
10gcjrf,1,梦花街93弄,121.4881596374281,31.21922123089094
10gcjrg,1,面筋弄38号,121.49827051981939,31.220580750653575
10gcjrh,1,面筋弄42号,121.49802884939359,31.220469260063815
10gcjri,1,面筋弄44号,121.49823004768412,31.220565036015593
10gcjrj,1,面筋弄48号,121.49803322278655,31.22082274600291
10gcjrk,1,苗江路758号,121.4965022886672,31.197713966799828
10gcjrl,1,南昌路102弄,121.46873978810021,31.219377317880063
10gcjrm,1,南昌路127弄,121.46371178174769,31.217398968071553
10gcjrn,1,南昌路136弄,121.46775884676715,31.21885134497879
10gcjro,1,南昌路244弄,121.46492531118031,31.217940998735024
10gcjrp,1,南昌路284号,121.46280320636986,31.21722577709833
10gcjrq,1,南昌路74弄,121.46923883874737,31.21934446683233
10gcjrr,1,南车站路30弄,121.48964036707144,31.21170323293205
10gcjrs,1,南车站路450弄,121.49324626378139,31.20538384801909
10gcjrt,1,南车站路555号,121.4953584784351,31.20384412720542
10gcjru,1,南车站路67弄,121.49051072233262,31.211310060313398
10gcjrv,1,南京东路627号,121.47893857646613,31.234766039208132
10gcjrw,1,南京东路720号,121.47654338030466,31.235669175571857
10gcjrx,1,南京东路766号,121.47605245100814,31.234948989284433
10gcjry,1,南京西路240弄,121.45953351947978,31.227598966363132
10gcjrz,1,南京西路479弄,121.46818516713242,31.230193616567608
10gcjs0,1,南塘浜路18弄,121.4774039378955,31.204820794916674
10gcjs1,1,南塘浜路93弄,121.47394562337259,31.20411056475802
10gcjs2,1,宁安路123弄,121.48661345919317,31.21601605377736
10gcjs3,1,宁安路99弄,121.4860376811783,31.21627318601564
10gcjs4,1,宁波路120弄,121.4847338289711,31.239846261469044
10gcjs5,1,宁波路201号,121.48334182728702,31.238959485508907
10gcjs6,1,宁波路214号,121.48330173808442,31.239007244823963
10gcjs7,1,宁波路284弄,121.48170438031408,31.238973836265515
10gcjs8,1,宁波路457弄,121.47912232063032,31.2374164177281
10gcjs9,1,宁波路557号,121.47670652804123,31.236081034914182
10gcjsa,1,宁波路560号,121.47683695494877,31.236859392301536
10gcjsb,1,宁波路561号,121.47709256768495,31.236740513584323
10gcjsc,1,宁波路587弄,121.47644851944328,31.236478373263072
10gcjsd,1,宁波路620弄,121.47570011906387,31.236569417898796
10gcjse,1,宁波路626号,121.47551852191536,31.236442907384713
10gcjsf,1,宁波路63弄,121.48580792531918,31.239342640222077
10gcjsg,1,宁波路645号,121.47542130357452,31.236335472598135
10gcjsh,1,宁波路74弄,121.48508511217389,31.239759288773516
10gcjsi,1,牛庄路585号,121.4789430118508,31.23794274054507
10gcjsj,1,牛庄路692号,121.47701833801321,31.237541853518746
10gcjsk,1,牛庄路728号,121.47600952291076,31.237304245197738
10gcjsl,1,牛庄路735号,121.47618711570162,31.237464874910476
10gcjsm,1,牛庄路775号,121.47551811842273,31.236996109634223
10gcjsn,1,牌楼路29号,121.48624041560903,31.21390887703895
10gcjso,1,牌楼路41弄,121.48678829791668,31.213854127300078
10gcjsp,1,蓬莱路186号,121.49133084984038,31.21812090289787
10gcjsq,1,蓬莱路199弄,121.49085162290551,31.21811108542945
10gcjsr,1,蓬莱路212弄,121.4907754398818,31.217918146205296
10gcjss,1,蓬莱路291号,121.48948126353666,31.217180695354543
10gcjst,1,蓬莱路303弄,121.48928801578,31.21722374251955
10gcjsu,1,蓬莱路309号,121.48915057038116,31.21723354920482
10gcjsv,1,蓬莱路311号,121.48889732754206,31.21715093293863
10gcjsw,1,蓬莱路402弄,121.48752801797353,31.21612301277847
10gcjsx,1,蓬莱路421弄,121.48743055357534,31.216386985435626
10gcjsy,1,平望街15弄,121.47905305434398,31.231671291702373
10gcjsz,1,平望街22号,121.47933134571807,31.231905532305905
10gcjt0,1,平望街36弄,121.47906958292351,31.232095248495696
10gcjt1,1,平望街6弄,121.47955022467262,31.231652241530156
10gcjt2,1,普育东路101弄,121.49605979673395,31.209847282770546
10gcjt3,1,普育东路200弄,121.49571459598997,31.20810254316079
10gcjt4,1,普育东路26号,121.49595397600865,31.210997583630586
10gcjt5,1,普育东路28号,121.4960714039274,31.21093039031044
10gcjt6,1,普育西支路71号,121.49279457891984,31.21220543136265
10gcjt7,1,乔家路3号,121.49594863670589,31.21764701145829
10gcjt8,1,青岛路11号,121.46889142146064,31.2373128849313
10gcjt9,1,青岛路15号,121.46874758214454,31.237307507908692
10gcjta,1,青岛路17号,121.4687346602295,31.23755707420421
10gcjtb,1,青岛路21号,121.46885188101953,31.237574168886674
10gcjtc,1,青岛路23号,121.4685543895762,31.23721809348741
10gcjtd,1,青岛路25号,121.46878345146014,31.237495478953957
10gcjte,1,青岛路31号,121.46852952911794,31.237392095324903
10gcjtf,1,青岛路37号,121.46852012587613,31.237456129405018
10gcjtg,1,青岛路39号,121.46843884501817,31.237448111580917
10gcjth,1,青岛路43号,121.46848499235657,31.237469707512385
10gcjti,1,青岛路51号,121.46823342961167,31.23722938080399
10gcjtj,1,青岛路53号,121.46818298397937,31.23736975815832
10gcjtk,1,青岛路57号,121.46829427795366,31.23736475092547
10gcjtl,1,青岛路66弄,121.46780975370393,31.238016179173698
10gcjtm,1,青岛路67号,121.46778206541761,31.23710412596738
10gcjtn,1,青岛路77号,121.46790973064351,31.236970578996672
10gcjto,1,瞿溪路1003弄,121.47720309387692,31.199561855161402
10gcjtp,1,瞿溪路1072弄,121.47409204948056,31.19882288944332
10gcjtq,1,瞿溪路1111弄,121.47384557362957,31.200443310492133
10gcjtr,1,瞿溪路112号,121.49531169582411,31.207146732328148
10gcjts,1,瞿溪路1145弄,121.47294607761873,31.1989889255019
10gcjtt,1,瞿溪路115号,121.49514921706295,31.206961387190955
10gcjtu,1,瞿溪路1162号,121.47331596979936,31.19870144461828
10gcjtv,1,瞿溪路117号,121.49494970989717,31.20705239898079
10gcjtw,1,瞿溪路1195号,121.47154821441531,31.198209293148825
10gcjtx,1,瞿溪路1200弄,121.47260520881711,31.197223131179882
10gcjty,1,瞿溪路120弄,121.49564270844407,31.20666902622761
10gcjtz,1,瞿溪路121号,121.49463603666844,31.206679687296088
10gcju0,1,瞿溪路123号,121.49432811453283,31.206410776762617
10gcju1,1,瞿溪路1254弄,121.47073505980569,31.197326510100908
10gcju2,1,瞿溪路126号,121.49396605061862,31.20604370311522
10gcju3,1,瞿溪路128号,121.49413619686673,31.205788974594903
10gcju4,1,瞿溪路129号,121.49363626533884,31.20632055215628
10gcju5,1,瞿溪路560号,121.48652271149437,31.201564961427007
10gcju6,1,瞿溪路566号,121.48607821844111,31.201425845037452
10gcju7,1,瞿溪路659号,121.48385732305667,31.20203307916809
10gcju8,1,瞿溪路6号,121.47815981496572,31.20038178631461
10gcju9,1,瞿溪路883弄,121.47854919282,31.201650719333998
10gcjua,1,瞿溪路884号,121.47895580736657,31.200313395396766
10gcjub,1,瞿溪路937弄,121.47753181198016,31.200422930376362
10gcjuc,1,人民路958弄,121.48306249534612,31.223722444881513
