[{"SH_ID_36":"10g8qjs","区36":"d","地址":"爱辉路61号","lng":121.45647309743342,"lat":31.32849750454061,"确诊日期36":"v"},{"SH_ID_36":"10g8qfd","区36":"d","地址":"白沙园路333弄","lng":121.42913503386309,"lat":31.391803132059007,"确诊日期36":"v"},{"SH_ID_36":"10g8qh0","区36":"d","地址":"白杨村","lng":121.3962761472136,"lat":31.342061689983428,"确诊日期36":"v"},{"SH_ID_36":"10g8qk6","区36":"d","地址":"宝城一村","lng":121.48928812290274,"lat":31.4084875583374,"确诊日期36":"v"},{"SH_ID_36":"10g8qfp","区36":"d","地址":"宝钢二村","lng":121.4841936857204,"lat":31.403869057823805,"确诊日期36":"v"},{"SH_ID_36":"10g8qjd","区36":"d","地址":"宝菊路133弄","lng":121.36522211232358,"lat":31.342787421634693,"确诊日期36":"v"},{"SH_ID_36":"10g8qks","区36":"d","地址":"宝林八村","lng":121.4938712069285,"lat":31.406744870505456,"确诊日期36":"v"},{"SH_ID_36":"10g8qld","区36":"d","地址":"宝林六村","lng":121.49878241216358,"lat":31.40270851455968,"确诊日期36":"v"},{"SH_ID_36":"10g8qkr","区36":"d","地址":"宝林路462弄","lng":121.48301181659285,"lat":31.3998646072665,"确诊日期36":"v"},{"SH_ID_36":"10g8qi0","区36":"d","地址":"宝泉路1号","lng":121.43048664461936,"lat":31.41348879192188,"确诊日期36":"v"},{"SH_ID_36":"10g8qgr","区36":"d","地址":"宝山三村","lng":121.49721374397649,"lat":31.39340879110836,"确诊日期36":"v"},{"SH_ID_36":"10g8qk4","区36":"d","地址":"宝山一村","lng":121.50291192157158,"lat":31.396658406588863,"确诊日期36":"v"},{"SH_ID_36":"10g8qhn","区36":"d","地址":"宝杨路1800号","lng":121.47518223947655,"lat":31.392566725927313,"确诊日期36":"v"},{"SH_ID_36":"10g8qg8","区36":"d","地址":"宝杨路1850号","lng":121.4758639138125,"lat":31.391918259802946,"确诊日期36":"v"},{"SH_ID_36":"10g8qdn","区36":"d","地址":"宝杨路2121号","lng":121.4553862781946,"lat":31.38403710592561,"确诊日期36":"v"},{"SH_ID_36":"10g8qgm","区36":"d","地址":"北宗村","lng":121.40310505990448,"lat":31.388148003769977,"确诊日期36":"v"},{"SH_ID_36":"10g8qkc","区36":"d","地址":"蔡家弄村","lng":121.36595741719304,"lat":31.372960427814018,"确诊日期36":"v"},{"SH_ID_36":"10g8qjh","区36":"d","地址":"场北路107号","lng":121.43596793793755,"lat":31.334239263213796,"确诊日期36":"v"},{"SH_ID_36":"10g8qfx","区36":"d","地址":"场北路548号","lng":121.4282585047509,"lat":31.332028844989765,"确诊日期36":"v"},{"SH_ID_36":"10g8qlz","区36":"d","地址":"场北路551弄","lng":121.4271298048497,"lat":31.332683021584,"确诊日期36":"v"},{"SH_ID_36":"10g8qhd","区36":"d","地址":"场中路3426弄","lng":121.48125300547296,"lat":31.31144576931237,"确诊日期36":"v"},{"SH_ID_36":"10g8ql8","区36":"d","地址":"场中路3658弄","lng":121.42653654773855,"lat":31.30176445128769,"确诊日期36":"v"},{"SH_ID_36":"10g8qh1","区36":"d","地址":"陈川路555弄","lng":121.33278205440082,"lat":31.47817855617144,"确诊日期36":"v"},{"SH_ID_36":"10g8qlr","区36":"d","地址":"陈家行村","lng":121.35067952015676,"lat":31.327302933009086,"确诊日期36":"v"},{"SH_ID_36":"10g8qj3","区36":"d","地址":"陈巷村","lng":121.4740582567349,"lat":31.37657569917651,"确诊日期36":"v"},{"SH_ID_36":"10g8qk2","区36":"d","地址":"陈行村","lng":121.34408038430324,"lat":31.47843310324135,"确诊日期36":"v"},{"SH_ID_36":"10g8qi2","区36":"d","地址":"陈镇路158号","lng":121.34236157074216,"lat":31.480738153442495,"确诊日期36":"v"},{"SH_ID_36":"10g8qki","区36":"d","地址":"城西二村","lng":121.43424179220243,"lat":31.39357831330515,"确诊日期36":"v"},{"SH_ID_36":"10g8qe0","区36":"d","地址":"城银路555弄","lng":121.34982562217435,"lat":31.314703370738282,"确诊日期36":"v"},{"SH_ID_36":"10g8qim","区36":"d","地址":"城银路655弄","lng":121.34938221382741,"lat":31.315811313586728,"确诊日期36":"v"},{"SH_ID_36":"10g8qi4","区36":"d","地址":"城银路700号","lng":121.34693562818205,"lat":31.314225107301088,"确诊日期36":"v"},{"SH_ID_36":"10g8qkv","区36":"d","地址":"川念路58号","lng":121.37672697981729,"lat":31.481828355653093,"确诊日期36":"v"},{"SH_ID_36":"10g8qg7","区36":"d","地址":"春雷路354弄","lng":121.43345988523986,"lat":31.411868797080835,"确诊日期36":"v"},{"SH_ID_36":"10g8qfq","区36":"d","地址":"春雷路364号","lng":121.4333917790538,"lat":31.41156243710865,"确诊日期36":"v"},{"SH_ID_36":"10g8qlv","区36":"d","地址":"大华路1355弄","lng":121.41997167159656,"lat":31.284539585071357,"确诊日期36":"v"},{"SH_ID_36":"10g8qe7","区36":"d","地址":"大华路1380弄","lng":121.41379188737082,"lat":31.285273942003478,"确诊日期36":"v"},{"SH_ID_36":"10g8qjv","区36":"d","地址":"大华路455弄","lng":121.41582004811991,"lat":31.271240493513755,"确诊日期36":"v"},{"SH_ID_36":"10g8qe2","区36":"d","地址":"大华路988弄","lng":121.41321691755073,"lat":31.27870010395301,"确诊日期36":"v"},{"SH_ID_36":"10g8qk0","区36":"d","地址":"德都路165弄","lng":121.42675318192674,"lat":31.409202912886176,"确诊日期36":"v"},{"SH_ID_36":"10g8qdd","区36":"d","地址":"德都路168弄","lng":121.42499316300152,"lat":31.409231213304647,"确诊日期36":"v"},{"SH_ID_36":"10g8qge","区36":"d","地址":"德都路88弄","lng":121.42518486612698,"lat":31.406640295561907,"确诊日期36":"v"},{"SH_ID_36":"10g8qf4","区36":"d","地址":"电台路599弄","lng":121.39192338723498,"lat":31.356826154232877,"确诊日期36":"v"},{"SH_ID_36":"10g8qe3","区36":"d","地址":"电台南路11号","lng":121.39523745563969,"lat":31.34796489458032,"确诊日期36":"v"},{"SH_ID_36":"10g8qgy","区36":"d","地址":"东街村","lng":121.43767386924534,"lat":31.382461568607336,"确诊日期36":"v"},{"SH_ID_36":"10g8qk3","区36":"d","地址":"段泾村","lng":121.39643208590478,"lat":31.421620297614933,"确诊日期36":"v"},{"SH_ID_36":"10g8qga","区36":"d","地址":"繁荣村","lng":121.36167690578809,"lat":31.408257566282206,"确诊日期36":"v"},{"SH_ID_36":"10g8qm2","区36":"d","地址":"飞云路171号","lng":121.3344030565499,"lat":31.463395953723918,"确诊日期36":"v"},{"SH_ID_36":"10g8qj1","区36":"d","地址":"丰皓路633弄","lng":121.39004782602063,"lat":31.30529740930071,"确诊日期36":"v"},{"SH_ID_36":"10g8qix","区36":"d","地址":"丰皓路658弄","lng":121.38887096017935,"lat":31.306486400799436,"确诊日期36":"v"},{"SH_ID_36":"10g8qhe","区36":"d","地址":"富南路199弄","lng":121.36607383903022,"lat":31.38984456825881,"确诊日期36":"v"},{"SH_ID_36":"10g8qjw","区36":"d","地址":"高境二村","lng":121.47891647437007,"lat":31.32222918341579,"确诊日期36":"v"},{"SH_ID_36":"10g8qep","区36":"d","地址":"高境路477弄","lng":121.47187610789803,"lat":31.323776067358388,"确诊日期36":"v"},{"SH_ID_36":"10g8qlb","区36":"d","地址":"高境路501号","lng":121.47373971056648,"lat":31.324456721116704,"确诊日期36":"v"},{"SH_ID_36":"10g8qkj","区36":"d","地址":"高逸路201弄","lng":121.48955722185758,"lat":31.325402515776652,"确诊日期36":"v"},{"SH_ID_36":"10g8qjy","区36":"d","地址":"高跃路133弄","lng":121.47212786695853,"lat":31.31812431686473,"确诊日期36":"v"},{"SH_ID_36":"10g8qg0","区36":"d","地址":"共富二村","lng":121.43193202282905,"lat":31.35026204629228,"确诊日期36":"v"},{"SH_ID_36":"10g8qhu","区36":"d","地址":"共富路228弄","lng":121.42897819838873,"lat":31.34944652899409,"确诊日期36":"v"},{"SH_ID_36":"10g8qkl","区36":"d","地址":"共富路305弄","lng":121.42864463082894,"lat":31.34952689312195,"确诊日期36":"v"},{"SH_ID_36":"10g8qhq","区36":"d","地址":"共富路351弄","lng":121.4243015221364,"lat":31.350474205084087,"确诊日期36":"v"},{"SH_ID_36":"10g8qi6","区36":"d","地址":"共富路476弄","lng":121.42518819718474,"lat":31.34511604311339,"确诊日期36":"v"},{"SH_ID_36":"10g8qlk","区36":"d","地址":"共富路99弄","lng":121.43325481988143,"lat":31.351191740734382,"确诊日期36":"v"},{"SH_ID_36":"10g8qla","区36":"d","地址":"共富四村","lng":121.42477689192235,"lat":31.34973581663789,"确诊日期36":"v"},{"SH_ID_36":"10g8qhh","区36":"d","地址":"共富一村","lng":121.43319805570741,"lat":31.350809201614044,"确诊日期36":"v"},{"SH_ID_36":"10g8qf1","区36":"d","地址":"共和三村","lng":121.45882028779927,"lat":31.321835975876187,"确诊日期36":"v"},{"SH_ID_36":"10g8qf5","区36":"d","地址":"共和四村","lng":121.45523838626615,"lat":31.32049424796407,"确诊日期36":"v"},{"SH_ID_36":"10g8qkk","区36":"d","地址":"共和新路4701号","lng":121.45231807740029,"lat":31.318277499396014,"确诊日期36":"v"},{"SH_ID_36":"10g8qid","区36":"d","地址":"共和新路4703弄","lng":121.44883682997745,"lat":31.319029006410926,"确诊日期36":"v"},{"SH_ID_36":"10g8qey","区36":"d","地址":"共和新路4719弄","lng":121.44946611467878,"lat":31.319504502172286,"确诊日期36":"v"},{"SH_ID_36":"10g8qjp","区36":"d","地址":"共和新路5288号","lng":121.44141642807922,"lat":31.327368605174062,"确诊日期36":"v"},{"SH_ID_36":"10g8qdk","区36":"d","地址":"共和新路5308弄","lng":121.4421910650865,"lat":31.327944953477942,"确诊日期36":"v"},{"SH_ID_36":"10g8qeu","区36":"d","地址":"共康六村","lng":121.44114838504328,"lat":31.32476299471543,"确诊日期36":"v"},{"SH_ID_36":"10g8ql0","区36":"d","地址":"共康路1089号","lng":121.42270795837476,"lat":31.3207899230118,"确诊日期36":"v"},{"SH_ID_36":"10g8qhl","区36":"d","地址":"共康路421号","lng":121.43817241873525,"lat":31.32216704839469,"确诊日期36":"v"},{"SH_ID_36":"10g8qhb","区36":"d","地址":"共祥路168号","lng":121.41570009814083,"lat":31.402352129377714,"确诊日期36":"v"},{"SH_ID_36":"10g8qkf","区36":"d","地址":"顾北东路155弄","lng":121.4119441700363,"lat":31.36100672858654,"确诊日期36":"v"},{"SH_ID_36":"10g8qke","区36":"d","地址":"顾太路98号","lng":121.39893109221367,"lat":31.344077664745242,"确诊日期36":"v"},{"SH_ID_36":"10g8qhs","区36":"d","地址":"广福村","lng":121.33964415399758,"lat":31.348333060822615,"确诊日期36":"v"},{"SH_ID_36":"10g8qet","区36":"d","地址":"国权北路111号","lng":121.49171244802173,"lat":31.327518214578124,"确诊日期36":"v"},{"SH_ID_36":"10g8qer","区36":"d","地址":"国权北路351弄","lng":121.49613917037843,"lat":31.31516205872505,"确诊日期36":"v"},{"SH_ID_36":"10g8qkp","区36":"d","地址":"国权北路639号","lng":121.4962715472821,"lat":31.327320528042588,"确诊日期36":"v"},{"SH_ID_36":"10g8qdg","区36":"d","地址":"国权北路829弄","lng":121.49716944157538,"lat":31.32746821079989,"确诊日期36":"v"},{"SH_ID_36":"10g8qgg","区36":"d","地址":"海滨新村","lng":121.49327865882798,"lat":31.37704360129899,"确诊日期36":"v"},{"SH_ID_36":"10g8qju","区36":"d","地址":"海江二村","lng":121.50302531328425,"lat":31.393024547670507,"确诊日期36":"v"},{"SH_ID_36":"10g8qll","区36":"d","地址":"海星村","lng":121.35612158097966,"lat":31.48385400033276,"确诊日期36":"v"},{"SH_ID_36":"10g8qfm","区36":"d","地址":"涵青路100弄","lng":121.40259573408518,"lat":31.332940576793103,"确诊日期36":"v"},{"SH_ID_36":"10g8qe8","区36":"d","地址":"涵青路398弄","lng":121.39680367395754,"lat":31.332741702996387,"确诊日期36":"v"},{"SH_ID_36":"10g8qg5","区36":"d","地址":"合众村","lng":121.34964098976477,"lat":31.460656223835304,"确诊日期36":"v"},{"SH_ID_36":"10g8qiw","区36":"d","地址":"恒高路127弄","lng":121.46878961872976,"lat":31.326044063229872,"确诊日期36":"v"},{"SH_ID_36":"10g8qlf","区36":"d","地址":"恒高路83弄","lng":121.4712668344722,"lat":31.325879675637395,"确诊日期36":"v"},{"SH_ID_36":"10g8qlh","区36":"d","地址":"呼兰路445号","lng":121.45355098677297,"lat":31.346549161707404,"确诊日期36":"v"},{"SH_ID_36":"10g8qlj","区36":"d","地址":"呼兰路515弄","lng":121.44976389094808,"lat":31.34679201557191,"确诊日期36":"v"},{"SH_ID_36":"10g8qem","区36":"d","地址":"呼玛二村","lng":121.44662784599709,"lat":31.34087730910751,"确诊日期36":"v"},{"SH_ID_36":"10g8ql3","区36":"d","地址":"呼玛路376号","lng":121.4420120185402,"lat":31.330629324931262,"确诊日期36":"v"},{"SH_ID_36":"10g8qjo","区36":"d","地址":"呼玛路779号","lng":121.44048161952755,"lat":31.336448127229364,"确诊日期36":"v"},{"SH_ID_36":"10g8qh7","区36":"d","地址":"呼玛路818号","lng":121.44169838407419,"lat":31.3356075128211,"确诊日期36":"v"},{"SH_ID_36":"10g8qkw","区36":"d","地址":"呼玛三村","lng":121.4414011581774,"lat":31.339276365453156,"确诊日期36":"v"},{"SH_ID_36":"10g8qfr","区36":"d","地址":"呼玛四村","lng":121.44512796781035,"lat":31.343801930877323,"确诊日期36":"v"},{"SH_ID_36":"10g8qdy","区36":"d","地址":"呼玛一村","lng":121.45200195402299,"lat":31.341899859881856,"确诊日期36":"v"},{"SH_ID_36":"10g8qed","区36":"d","地址":"虎林路504号","lng":121.45705491374908,"lat":31.338843050038196,"确诊日期36":"v"},{"SH_ID_36":"10g8qgs","区36":"d","地址":"虎林路800弄","lng":121.45374523982109,"lat":31.343732001869398,"确诊日期36":"v"},{"SH_ID_36":"10g8qf6","区36":"d","地址":"沪太路1500弄","lng":121.4241389041923,"lat":31.278525549375022,"确诊日期36":"v"},{"SH_ID_36":"10g8qji","区36":"d","地址":"沪太路2009号","lng":121.41459651679666,"lat":31.298291438824133,"确诊日期36":"v"},{"SH_ID_36":"10g8qe9","区36":"d","地址":"沪太路2588弄","lng":121.40876427904382,"lat":31.31013118887544,"确诊日期36":"v"},{"SH_ID_36":"10g8qk8","区36":"d","地址":"沪太路3633号","lng":121.40831141686552,"lat":31.326846525746735,"确诊日期36":"v"},{"SH_ID_36":"10g8ql9","区36":"d","地址":"沪太路5555号","lng":121.3737803359141,"lat":31.364124896704237,"确诊日期36":"v"},{"SH_ID_36":"10g8qj8","区36":"d","地址":"沪太路6395号","lng":121.35944021909022,"lat":31.38382894095488,"确诊日期36":"v"},{"SH_ID_36":"10g8qjl","区36":"d","地址":"沪太路6497号","lng":121.35888822889534,"lat":31.385673772224376,"确诊日期36":"v"},{"SH_ID_36":"10g8qh3","区36":"d","地址":"花红村","lng":121.33986434111272,"lat":31.490135240923372,"确诊日期36":"v"},{"SH_ID_36":"10g8qf2","区36":"d","地址":"花园宅路52弄","lng":121.42586837773274,"lat":31.329016701116757,"确诊日期36":"v"},{"SH_ID_36":"10g8qiq","区36":"d","地址":"华和路602弄","lng":121.39806768456052,"lat":31.291499277205464,"确诊日期36":"v"},{"SH_ID_36":"10g8qf0","区36":"d","地址":"华灵路1681弄","lng":121.40953091806641,"lat":31.28131608764183,"确诊日期36":"v"},{"SH_ID_36":"10g8qel","区36":"d","地址":"华灵路1895弄","lng":121.40252183542714,"lat":31.282543003453455,"确诊日期36":"v"},{"SH_ID_36":"10g8qgi","区36":"d","地址":"华灵路1900弄","lng":121.40453142726307,"lat":31.277636202916902,"确诊日期36":"v"},{"SH_ID_36":"10g8qf3","区36":"d","地址":"华灵路410弄","lng":121.42272509439039,"lat":31.272997872436587,"确诊日期36":"v"},{"SH_ID_36":"10g8qip","区36":"d","地址":"华灵路591弄","lng":121.42364736663461,"lat":31.275139444006072,"确诊日期36":"v"},{"SH_ID_36":"10g8qe6","区36":"d","地址":"华灵路881弄","lng":121.42245450671118,"lat":31.279691721672247,"确诊日期36":"v"},{"SH_ID_36":"10g8qgu","区36":"d","地址":"环镇北路1118弄","lng":121.390765617884,"lat":31.30733106920605,"确诊日期36":"v"},{"SH_ID_36":"10g8qdw","区36":"d","地址":"环镇北路1366弄","lng":121.38580704787724,"lat":31.307707315899368,"确诊日期36":"v"},{"SH_ID_36":"10g8qlt","区36":"d","地址":"环镇北路161号","lng":121.41085023114519,"lat":31.308330204120967,"确诊日期36":"v"},{"SH_ID_36":"10g8qej","区36":"d","地址":"环镇北路655弄","lng":121.40496513524768,"lat":31.309988606045412,"确诊日期36":"v"},{"SH_ID_36":"10g8qdx","区36":"d","地址":"环镇北路699弄","lng":121.40225792330352,"lat":31.30948474013149,"确诊日期36":"v"},{"SH_ID_36":"10g8qg3","区36":"d","地址":"环镇南路858弄","lng":121.39647333971453,"lat":31.296601969984575,"确诊日期36":"v"},{"SH_ID_36":"10g8qfc","区36":"d","地址":"吉浦路369弄","lng":121.4895379982909,"lat":31.3112068836794,"确诊日期36":"v"},{"SH_ID_36":"10g8qe4","区36":"d","地址":"吉浦路615弄","lng":121.49315944407324,"lat":31.317266434829236,"确诊日期36":"v"},{"SH_ID_36":"10g8qdj","区36":"d","地址":"江杨北路1568弄","lng":121.43578842460354,"lat":31.39880771707817,"确诊日期36":"v"},{"SH_ID_36":"10g8qif","区36":"d","地址":"江杨村","lng":121.466372062098,"lat":31.32093172978247,"确诊日期36":"v"},{"SH_ID_36":"10g8qir","区36":"d","地址":"江杨南路1098号","lng":121.46568431825713,"lat":31.326755141651304,"确诊日期36":"v"},{"SH_ID_36":"10g8qie","区36":"d","地址":"江杨南路1803号","lng":121.46591903239215,"lat":31.340081604267105,"确诊日期36":"v"},{"SH_ID_36":"10g8qi3","区36":"d","地址":"江杨南路2058号","lng":121.46164786575983,"lat":31.342610481490162,"确诊日期36":"v"},{"SH_ID_36":"10g8qln","区36":"d","地址":"江杨南路2088号","lng":121.46348192561321,"lat":31.343618079206042,"确诊日期36":"v"},{"SH_ID_36":"10g8qkm","区36":"d","地址":"江杨南路2500弄","lng":121.45735887749845,"lat":31.35047038190093,"确诊日期36":"v"},{"SH_ID_36":"10g8qjz","区36":"d","地址":"江杨南路2546弄","lng":121.46010813270685,"lat":31.35061380576339,"确诊日期36":"v"},{"SH_ID_36":"10g8qi9","区36":"d","地址":"江杨南路2550弄","lng":121.4608257420765,"lat":31.35089332656456,"确诊日期36":"v"},{"SH_ID_36":"10g8qgj","区36":"d","地址":"教育路555弄","lng":121.39492428911991,"lat":31.35729112468904,"确诊日期36":"v"},{"SH_ID_36":"10g8qdl","区36":"d","地址":"锦秋路1188弄","lng":121.3839409207553,"lat":31.319444048523707,"确诊日期36":"v"},{"SH_ID_36":"10g8qlg","区36":"d","地址":"锦秋路1505弄","lng":121.37259797340863,"lat":31.319636715582938,"确诊日期36":"v"},{"SH_ID_36":"10g8qm0","区36":"d","地址":"锦秋路1588弄","lng":121.37527176377435,"lat":31.31681750192472,"确诊日期36":"v"},{"SH_ID_36":"10g8qhx","区36":"d","地址":"菊盛路218号","lng":121.37207963273038,"lat":31.35247740464741,"确诊日期36":"v"},{"SH_ID_36":"10g8qiu","区36":"d","地址":"菊太路1198弄","lng":121.35862180516222,"lat":31.34643693001404,"确诊日期36":"v"},{"SH_ID_36":"10g8qiz","区36":"d","地址":"菊太路308号","lng":121.37290610178108,"lat":31.35280624962791,"确诊日期36":"v"},{"SH_ID_36":"10g8qdo","区36":"d","地址":"聚丰园路188弄","lng":121.38264140645487,"lat":31.314874076716002,"确诊日期36":"v"},{"SH_ID_36":"10g8qi8","区36":"d","地址":"聚丰园路388弄","lng":121.3788733777445,"lat":31.313215831446165,"确诊日期36":"v"},{"SH_ID_36":"10g8qky","区36":"d","地址":"聚丰园路628弄","lng":121.37384731519549,"lat":31.31110808901346,"确诊日期36":"v"},{"SH_ID_36":"10g8qds","区36":"d","地址":"聚源桥村","lng":121.38512570940475,"lat":31.439521025359575,"确诊日期36":"v"},{"SH_ID_36":"10g8qhi","区36":"d","地址":"康家村","lng":121.43168163594062,"lat":31.316269808887196,"确诊日期36":"v"},{"SH_ID_36":"10g8qes","区36":"d","地址":"莲花山路517弄","lng":121.44522216843788,"lat":31.361866351983277,"确诊日期36":"v"},{"SH_ID_36":"10g8qh9","区36":"d","地址":"联合村","lng":121.32358144761723,"lat":31.406077190199557,"确诊日期36":"v"},{"SH_ID_36":"10g8qgp","区36":"d","地址":"罗东路600弄","lng":121.37043569111978,"lat":31.435669645897008,"确诊日期36":"v"},{"SH_ID_36":"10g8qfb","区36":"d","地址":"罗和路118弄","lng":121.34179348193878,"lat":31.381577939125,"确诊日期36":"v"},{"SH_ID_36":"10g8qka","区36":"d","地址":"罗南二村","lng":121.36635278535701,"lat":31.387601160507014,"确诊日期36":"v"},{"SH_ID_36":"10g8qe1","区36":"d","地址":"罗南路368弄","lng":121.34105722892954,"lat":31.389350555202622,"确诊日期36":"v"},{"SH_ID_36":"10g8qm6","区36":"d","地址":"罗太路237号","lng":121.34533210577466,"lat":31.408707508426655,"确诊日期36":"v"},{"SH_ID_36":"10g8qgf","区36":"d","地址":"罗溪路121号","lng":121.35033329523814,"lat":31.413191070573,"确诊日期36":"v"},{"SH_ID_36":"10g8qh6","区36":"d","地址":"罗智路258弄","lng":121.34690204745971,"lat":31.38589720323694,"确诊日期36":"v"},{"SH_ID_36":"10g8qiv","区36":"d","地址":"毛家路409弄","lng":121.38690713794715,"lat":31.426639194616904,"确诊日期36":"v"},{"SH_ID_36":"10g8qkt","区36":"d","地址":"茂盛村","lng":121.39919305860059,"lat":31.410433932107754,"确诊日期36":"v"},{"SH_ID_36":"10g8qkz","区36":"d","地址":"梅林路666弄","lng":121.43637723929176,"lat":31.368924373335673,"确诊日期36":"v"},{"SH_ID_36":"10g8qdt","区36":"d","地址":"湄浦村","lng":121.42589326766571,"lat":31.38755122399791,"确诊日期36":"v"},{"SH_ID_36":"10g8qgv","区36":"d","地址":"美丹路1058弄","lng":121.33730079323078,"lat":31.395495766687528,"确诊日期36":"v"},{"SH_ID_36":"10g8qgk","区36":"d","地址":"美丹路222号","lng":121.35159745991736,"lat":31.402355997514025,"确诊日期36":"v"},{"SH_ID_36":"10g8qek","区36":"d","地址":"美兰湖路333弄","lng":121.36034659946128,"lat":31.396805300862034,"确诊日期36":"v"},{"SH_ID_36":"10g8qjm","区36":"d","地址":"美平路1060弄","lng":121.3361519465074,"lat":31.387147592264295,"确诊日期36":"v"},{"SH_ID_36":"10g8qea","区36":"d","地址":"美平路288弄","lng":121.34796996987278,"lat":31.390825832951506,"确诊日期36":"v"},{"SH_ID_36":"10g8qgb","区36":"d","地址":"美平路428弄","lng":121.34553777654067,"lat":31.389618373371658,"确诊日期36":"v"},{"SH_ID_36":"10g8qj2","区36":"d","地址":"美平路500弄","lng":121.3426968378128,"lat":31.38985169962244,"确诊日期36":"v"},{"SH_ID_36":"10g8qfn","区36":"d","地址":"美秀路558弄","lng":121.3439971916527,"lat":31.381782733567846,"确诊日期36":"v"},{"SH_ID_36":"10g8qjr","区36":"d","地址":"密山路500弄","lng":121.48172730801258,"lat":31.40147612455397,"确诊日期36":"v"},{"SH_ID_36":"10g8qdr","区36":"d","地址":"牡丹江路1599号","lng":121.48500533835309,"lat":31.401833875924513,"确诊日期36":"v"},{"SH_ID_36":"10g8qgc","区36":"d","地址":"南陈路278弄","lng":121.39435018582337,"lat":31.31021108414705,"确诊日期36":"v"},{"SH_ID_36":"10g8qi1","区36":"d","地址":"南大路138弄","lng":121.40239664125819,"lat":31.30040825706047,"确诊日期36":"v"},{"SH_ID_36":"10g8qdf","区36":"d","地址":"南大路363号","lng":121.38917917798854,"lat":31.299897039555436,"确诊日期36":"v"},{"SH_ID_36":"10g8qkn","区36":"d","地址":"南大路60号","lng":121.40310077194505,"lat":31.299857071389987,"确诊日期36":"v"},{"SH_ID_36":"10g8qgo","区36":"d","地址":"南大路86弄","lng":121.40610967932331,"lat":31.29975788539194,"确诊日期36":"v"},{"SH_ID_36":"10g8qjq","区36":"d","地址":"南蕰藻路776弄","lng":121.4216591713985,"lat":31.335724009345682,"确诊日期36":"v"},{"SH_ID_36":"10g8qm7","区36":"d","地址":"南蕰藻路800弄","lng":121.4229017570595,"lat":31.336845925053378,"确诊日期36":"v"},{"SH_ID_36":"10g8qeg","区36":"d","地址":"潘广路1765弄","lng":121.36801138198999,"lat":31.364984595393125,"确诊日期36":"v"},{"SH_ID_36":"10g8qgw","区36":"d","地址":"潘沪路69弄","lng":121.33664010779809,"lat":31.48012213271302,"确诊日期36":"v"},{"SH_ID_36":"10g8qhf","区36":"d","地址":"潘桥村","lng":121.32664619117665,"lat":31.454962018258556,"确诊日期36":"v"},{"SH_ID_36":"10g8qhg","区36":"d","地址":"潘新路106号","lng":121.33182373028124,"lat":31.486590674594922,"确诊日期36":"v"},{"SH_ID_36":"10g8qj9","区36":"d","地址":"潘新路118弄","lng":121.33013981284911,"lat":31.487217100122106,"确诊日期36":"v"},{"SH_ID_36":"10g8qg6","区36":"d","地址":"潘新路558弄","lng":121.32313727481278,"lat":31.48523625159138,"确诊日期36":"v"},{"SH_ID_36":"10g8qkh","区36":"d","地址":"盘古路388弄","lng":121.48285942880804,"lat":31.407841813081486,"确诊日期36":"v"},{"SH_ID_36":"10g8qfg","区36":"d","地址":"盘古路712号","lng":121.4703730797239,"lat":31.402882293208325,"确诊日期36":"v"},{"SH_ID_36":"10g8qli","区36":"d","地址":"炮台村","lng":121.49637099111301,"lat":31.387269534130667,"确诊日期36":"v"},{"SH_ID_36":"10g8qg9","区36":"d","地址":"祁北东路85弄","lng":121.35318988788843,"lat":31.42495856343839,"确诊日期36":"v"},{"SH_ID_36":"10g8qfs","区36":"d","地址":"祁华路300弄","lng":121.371064965137,"lat":31.322499357504217,"确诊日期36":"v"},{"SH_ID_36":"10g8qko","区36":"d","地址":"祁连山路1819弄","lng":121.38034922414397,"lat":31.298627160041683,"确诊日期36":"v"},{"SH_ID_36":"10g8qhv","区36":"d","地址":"祁连山路2233弄","lng":121.38226275193976,"lat":31.30736073730661,"确诊日期36":"v"},{"SH_ID_36":"10g8qen","区36":"d","地址":"祁连山路2828弄","lng":121.38058290710799,"lat":31.3171663459397,"确诊日期36":"v"},{"SH_ID_36":"10g8qgx","区36":"d","地址":"祁连四村","lng":121.38259703308015,"lat":31.31699669690028,"确诊日期36":"v"},{"SH_ID_36":"10g8qeh","区36":"d","地址":"祁连一村","lng":121.38033730114192,"lat":31.313553227540346,"确诊日期36":"v"},{"SH_ID_36":"10g8qjx","区36":"d","地址":"羌家村","lng":121.38609340328277,"lat":31.357568129562253,"确诊日期36":"v"},{"SH_ID_36":"10g8qih","区36":"d","地址":"勤丰村","lng":121.39245208718623,"lat":31.41469826887143,"确诊日期36":"v"},{"SH_ID_36":"10g8qfi","区36":"d","地址":"三门路485弄","lng":121.49428317914135,"lat":31.31392750412394,"确诊日期36":"v"},{"SH_ID_36":"10g8qf7","区36":"d","地址":"三门路489弄","lng":121.49246730390286,"lat":31.313352333272388,"确诊日期36":"v"},{"SH_ID_36":"10g8qly","区36":"d","地址":"三泉路1859弄","lng":121.43623720110376,"lat":31.329975322408394,"确诊日期36":"v"},{"SH_ID_36":"10g8qh5","区36":"d","地址":"三星村","lng":121.35049539791379,"lat":31.310973978981163,"确诊日期36":"v"},{"SH_ID_36":"10g8qdc","区36":"d","地址":"上大路688号","lng":121.39086368096835,"lat":31.310813289030296,"确诊日期36":"v"},{"SH_ID_36":"10g8qm8","区36":"d","地址":"沈家桥村","lng":121.38994886893101,"lat":31.450716807770586,"确诊日期36":"v"},{"SH_ID_36":"10g8qdv","区36":"d","地址":"沈巷村","lng":121.41125913214005,"lat":31.4196052341202,"确诊日期36":"v"},{"SH_ID_36":"10g8qj6","区36":"d","地址":"石太路3512弄","lng":121.3427582925004,"lat":31.42961724765028,"确诊日期36":"v"},{"SH_ID_36":"10g8ql7","区36":"d","地址":"市一路88号","lng":121.35598686468397,"lat":31.419101048042425,"确诊日期36":"v"},{"SH_ID_36":"10g8qgd","区36":"d","地址":"双城路803弄","lng":121.48542666243445,"lat":31.388871364547303,"确诊日期36":"v"},{"SH_ID_36":"10g8qlm","区36":"d","地址":"水产路2399号","lng":121.4450828237289,"lat":31.36717373746,"确诊日期36":"v"},{"SH_ID_36":"10g8qk9","区36":"d","地址":"水产路2600弄","lng":121.44228101197969,"lat":31.36476321658945,"确诊日期36":"v"},{"SH_ID_36":"10g8qjf","区36":"d","地址":"水产西路664号","lng":121.4188002445464,"lat":31.356539974531767,"确诊日期36":"v"},{"SH_ID_36":"10g8qef","区36":"d","地址":"泗塘八村","lng":121.45719906246754,"lat":31.32981983060798,"确诊日期36":"v"},{"SH_ID_36":"10g8qje","区36":"d","地址":"泗塘二村","lng":121.4561176770125,"lat":31.337123898816774,"确诊日期36":"v"},{"SH_ID_36":"10g8qkq","区36":"d","地址":"泗塘三村","lng":121.45590960938243,"lat":31.333959687926757,"确诊日期36":"v"},{"SH_ID_36":"10g8qma","区36":"d","地址":"泗塘四村","lng":121.4601127932806,"lat":31.336780795707874,"确诊日期36":"v"},{"SH_ID_36":"10g8qe5","区36":"d","地址":"泗塘一村","lng":121.45183237800677,"lat":31.33795278931374,"确诊日期36":"v"},{"SH_ID_36":"10g8qjt","区36":"d","地址":"松兰路1166弄","lng":121.44333265210021,"lat":31.384842507492504,"确诊日期36":"v"},{"SH_ID_36":"10g8qfw","区36":"d","地址":"松兰路879号","lng":121.4448456269822,"lat":31.379454466884038,"确诊日期36":"v"},{"SH_ID_36":"10g8qf9","区36":"d","地址":"淞南八村","lng":121.48166310260558,"lat":31.335038080089507,"确诊日期36":"v"},{"SH_ID_36":"10g8qkx","区36":"d","地址":"淞南六村","lng":121.48428540224265,"lat":31.34003596795159,"确诊日期36":"v"},{"SH_ID_36":"10g8qgq","区36":"d","地址":"淞南七村","lng":121.4816934328159,"lat":31.333160060017466,"确诊日期36":"v"},{"SH_ID_36":"10g8qf8","区36":"d","地址":"淞南四村","lng":121.49080127761637,"lat":31.34849325150881,"确诊日期36":"v"},{"SH_ID_36":"10g8qfk","区36":"d","地址":"淞南五村","lng":121.48493979984131,"lat":31.338965978021704,"确诊日期36":"v"},{"SH_ID_36":"10g8qfl","区36":"d","地址":"淞南新村","lng":121.48286714678055,"lat":31.345214501684744,"确诊日期36":"v"},{"SH_ID_36":"10g8qfj","区36":"d","地址":"淞南一村","lng":121.48460505220311,"lat":31.342370895555973,"确诊日期36":"v"},{"SH_ID_36":"10g8qj4","区36":"d","地址":"淞桥东路111号","lng":121.49430801193577,"lat":31.37150417531448,"确诊日期36":"v"},{"SH_ID_36":"10g8qde","区36":"d","地址":"淞塘路98弄","lng":121.48880305057507,"lat":31.334835352811123,"确诊日期36":"v"},{"SH_ID_36":"10g8qgl","区36":"d","地址":"淞兴西路85号","lng":121.49131571820729,"lat":31.369681056687696,"确诊日期36":"v"},{"SH_ID_36":"10g8qm9","区36":"d","地址":"苏家浜路388弄","lng":121.39122774760398,"lat":31.363219186506832,"确诊日期36":"v"},{"SH_ID_36":"10g8qja","区36":"d","地址":"绥化路260弄","lng":121.4295539023386,"lat":31.405589569092278,"确诊日期36":"v"},{"SH_ID_36":"10g8qjk","区36":"d","地址":"绥化路265弄","lng":121.42772486386627,"lat":31.40657292345673,"确诊日期36":"v"},{"SH_ID_36":"10g8qhj","区36":"d","地址":"塔源路150弄","lng":121.39827615354594,"lat":31.44608281994041,"确诊日期36":"v"},{"SH_ID_36":"10g8qio","区36":"d","地址":"塔源路58弄","lng":121.40268503068602,"lat":31.448306733534213,"确诊日期36":"v"},{"SH_ID_36":"10g8ql1","区36":"d","地址":"泰和路1000号","lng":121.48018437208624,"lat":31.368546541931146,"确诊日期36":"v"},{"SH_ID_36":"10g8ql4","区36":"d","地址":"泰和路1288号","lng":121.46378121735452,"lat":31.364183801832425,"确诊日期36":"v"},{"SH_ID_36":"10g8qjc","区36":"d","地址":"泰和路1810号","lng":121.44887074669879,"lat":31.35082485209631,"确诊日期36":"v"},{"SH_ID_36":"10g8qic","区36":"d","地址":"泰和路2038号","lng":121.43866438715342,"lat":31.355494937792518,"确诊日期36":"v"},{"SH_ID_36":"10g8qgz","区36":"d","地址":"泰和西路3381弄","lng":121.40679615000825,"lat":31.351327689839454,"确诊日期36":"v"},{"SH_ID_36":"10g8qex","区36":"d","地址":"泰和西路3499弄","lng":121.40246039820327,"lat":31.349900997347085,"确诊日期36":"v"},{"SH_ID_36":"10g8qil","区36":"d","地址":"泰和西路3527弄","lng":121.39999471837314,"lat":31.34775240142359,"确诊日期36":"v"},{"SH_ID_36":"10g8qij","区36":"d","地址":"泰联路111号","lng":121.43949416510053,"lat":31.350807962102976,"确诊日期36":"v"},{"SH_ID_36":"10g8qfv","区36":"d","地址":"塘后路285弄","lng":121.50488246718568,"lat":31.39669070768851,"确诊日期36":"v"},{"SH_ID_36":"10g8qhm","区36":"d","地址":"塘南街57号","lng":121.43089153797641,"lat":31.41929091790426,"确诊日期36":"v"},{"SH_ID_36":"10g8qlo","区36":"d","地址":"塘西街56号","lng":121.34272328941898,"lat":31.414018327122413,"确诊日期36":"v"},{"SH_ID_36":"10g8ql2","区36":"d","地址":"天家路200弄","lng":121.33788886518232,"lat":31.38396729514479,"确诊日期36":"v"},{"SH_ID_36":"10g8qk7","区36":"d","地址":"铁城路1555号","lng":121.45174481052076,"lat":31.356600952033304,"确诊日期36":"v"},{"SH_ID_36":"10g8qgt","区36":"d","地址":"铁峰路2268弄","lng":121.45209262107758,"lat":31.400678040499873,"确诊日期36":"v"},{"SH_ID_36":"10g8qjg","区36":"d","地址":"铁山路55号","lng":121.46778842206812,"lat":31.362934708452233,"确诊日期36":"v"},{"SH_ID_36":"10g8qdm","区36":"d","地址":"铁山路69号","lng":121.46954358840593,"lat":31.364079479504074,"确诊日期36":"v"},{"SH_ID_36":"10g8qez","区36":"d","地址":"通河八村","lng":121.44734140895046,"lat":31.32955162202454,"确诊日期36":"v"},{"SH_ID_36":"10g8qhp","区36":"d","地址":"通河二村","lng":121.44693284377492,"lat":31.333671988305433,"确诊日期36":"v"},{"SH_ID_36":"10g8qhc","区36":"d","地址":"通河九村","lng":121.44784375436062,"lat":31.327585505640723,"确诊日期36":"v"},{"SH_ID_36":"10g8qiy","区36":"d","地址":"通河六村","lng":121.45186203825727,"lat":31.33102108131641,"确诊日期36":"v"},{"SH_ID_36":"10g8qk1","区36":"d","地址":"通河路233号","lng":121.44914942132276,"lat":31.329952600609715,"确诊日期36":"v"},{"SH_ID_36":"10g8qhy","区36":"d","地址":"通河七村","lng":121.45202907613853,"lat":31.329224522723834,"确诊日期36":"v"},{"SH_ID_36":"10g8qdz","区36":"d","地址":"通河三村","lng":121.44480859193585,"lat":31.335307637935166,"确诊日期36":"v"},{"SH_ID_36":"10g8qeo","区36":"d","地址":"通河四村","lng":121.44524555020202,"lat":31.33075325404055,"确诊日期36":"v"},{"SH_ID_36":"10g8qfh","区36":"d","地址":"通河一村","lng":121.44699130902575,"lat":31.333632955534206,"确诊日期36":"v"},{"SH_ID_36":"10g8qff","区36":"d","地址":"通南路328弄","lng":121.4711992267248,"lat":31.334206136403115,"确诊日期36":"v"},{"SH_ID_36":"10g8qig","区36":"d","地址":"通南路369号","lng":121.46828062930841,"lat":31.336065551910657,"确诊日期36":"v"},{"SH_ID_36":"10g8qfa","区36":"d","地址":"同济路333号","lng":121.48751578233578,"lat":31.384053135121974,"确诊日期36":"v"},{"SH_ID_36":"10g8qlu","区36":"d","地址":"同济路343号","lng":121.48614233761538,"lat":31.385992516314655,"确诊日期36":"v"},{"SH_ID_36":"10g8qm1","区36":"d","地址":"纬地路358弄","lng":121.39755240790183,"lat":31.327700091207795,"确诊日期36":"v"},{"SH_ID_36":"10g8qit","区36":"d","地址":"蕰川路516号","lng":121.4334910872496,"lat":31.352843908834902,"确诊日期36":"v"},{"SH_ID_36":"10g8qdu","区36":"d","地址":"汶水路1585弄","lng":121.4157726876724,"lat":31.289701208064976,"确诊日期36":"v"},{"SH_ID_36":"10g8qjn","区36":"d","地址":"五星村","lng":121.34684214646275,"lat":31.304837675463432,"确诊日期36":"v"},{"SH_ID_36":"10g8qgh","区36":"d","地址":"西埝村","lng":121.36455870421432,"lat":31.384172077342715,"确诊日期36":"v"},{"SH_ID_36":"10g8qjb","区36":"d","地址":"萧云路99弄","lng":121.3374065590113,"lat":31.43689723039032,"确诊日期36":"v"},{"SH_ID_36":"10g8qg2","区36":"d","地址":"肖泾村","lng":121.32368373766961,"lat":31.46536303403743,"确诊日期36":"v"},{"SH_ID_36":"10g8qh4","区36":"d","地址":"新川沙路503弄","lng":121.34679026409397,"lat":31.479051705631562,"确诊日期36":"v"},{"SH_ID_36":"10g8qdq","区36":"d","地址":"新村路665弄","lng":121.4164283791035,"lat":31.265427191725202,"确诊日期36":"v"},{"SH_ID_36":"10g8qeb","区36":"d","地址":"新沪路837弄","lng":121.41659007985923,"lat":31.27083681256079,"确诊日期36":"v"},{"SH_ID_36":"10g8qj0","区36":"d","地址":"新陆村","lng":121.32845245077888,"lat":31.49513432406864,"确诊日期36":"v"},{"SH_ID_36":"10g8qg1","区36":"d","地址":"新苗村","lng":121.31598719134335,"lat":31.48337769218693,"确诊日期36":"v"},{"SH_ID_36":"10g8qin","区36":"d","地址":"行知路356弄","lng":121.4153544056153,"lat":31.28579042267636,"确诊日期36":"v"},{"SH_ID_36":"10g8qlq","区36":"d","地址":"行知路569弄","lng":121.41205469190247,"lat":31.283559403627187,"确诊日期36":"v"},{"SH_ID_36":"10g8qdh","区36":"d","地址":"行知路572弄","lng":121.412014375296,"lat":31.28436559314716,"确诊日期36":"v"},{"SH_ID_36":"10g8qlc","区36":"d","地址":"阳曲路1388弄","lng":121.46108508823947,"lat":31.326392975322854,"确诊日期36":"v"},{"SH_ID_36":"10g8qj7","区36":"d","地址":"杨泰路338弄","lng":121.44020307133904,"lat":31.37230478891937,"确诊日期36":"v"},{"SH_ID_36":"10g8qle","区36":"d","地址":"杨泰路99弄","lng":121.45102839322799,"lat":31.366822909633484,"确诊日期36":"v"},{"SH_ID_36":"10g8qgn","区36":"d","地址":"杨桃路185弄","lng":121.43869820955065,"lat":31.371956853037048,"确诊日期36":"v"},{"SH_ID_36":"10g8qht","区36":"d","地址":"杨鑫路311号","lng":121.44176300286532,"lat":31.36848458787697,"确诊日期36":"v"},{"SH_ID_36":"10g8qik","区36":"d","地址":"杨鑫路98弄","lng":121.45042589750726,"lat":31.37187864021172,"确诊日期36":"v"},{"SH_ID_36":"10g8qha","区36":"d","地址":"洋桥村","lng":121.30516558114735,"lat":31.496678198165554,"确诊日期36":"v"},{"SH_ID_36":"10g8qfy","区36":"d","地址":"一二八纪念东路518弄","lng":121.47860928867372,"lat":31.328350819659963,"确诊日期36":"v"},{"SH_ID_36":"10g8qlx","区36":"d","地址":"一二八纪念路55弄","lng":121.46639927933364,"lat":31.32888797012435,"确诊日期36":"v"},{"SH_ID_36":"10g8qdp","区36":"d","地址":"一二八纪念路811弄","lng":121.44947986674623,"lat":31.3261348434331,"确诊日期36":"v"},{"SH_ID_36":"10g8qls","区36":"d","地址":"依兰路37号","lng":121.42286730304329,"lat":31.359459195928874,"确诊日期36":"v"},{"SH_ID_36":"10g8qkg","区36":"d","地址":"逸仙路1238弄","lng":121.48191562437425,"lat":31.315280718353964,"确诊日期36":"v"},{"SH_ID_36":"10g8qhz","区36":"d","地址":"逸仙路1588弄","lng":121.48367259508119,"lat":31.322061331782738,"确诊日期36":"v"},{"SH_ID_36":"10g8qk5","区36":"d","地址":"逸仙路3861号","lng":121.50216374559345,"lat":31.35237195146482,"确诊日期36":"v"},{"SH_ID_36":"10g8qlw","区36":"d","地址":"毅翔村","lng":121.3663715605307,"lat":31.356619138107842,"确诊日期36":"v"},{"SH_ID_36":"10g8qm4","区36":"d","地址":"永顺路81弄","lng":121.34917919565389,"lat":31.412207941957913,"确诊日期36":"v"},{"SH_ID_36":"10g8qia","区36":"d","地址":"友谊路1151号","lng":121.4601140822675,"lat":31.397132748935352,"确诊日期36":"v"},{"SH_ID_36":"10g8qi7","区36":"d","地址":"友谊路1899弄","lng":121.44814751195386,"lat":31.393583653844953,"确诊日期36":"v"},{"SH_ID_36":"10g8qfe","区36":"d","地址":"郁江巷路129弄","lng":121.47883107155141,"lat":31.3428226733294,"确诊日期36":"v"},{"SH_ID_36":"10g8qg4","区36":"d","地址":"远景村","lng":121.33757753944509,"lat":31.403980277005346,"确诊日期36":"v"},{"SH_ID_36":"10g8qhw","区36":"d","地址":"月城路299弄","lng":121.43375182420868,"lat":31.37783518088676,"确诊日期36":"v"},{"SH_ID_36":"10g8qii","区36":"d","地址":"月春路591号","lng":121.38859540295114,"lat":31.41257187373755,"确诊日期36":"v"},{"SH_ID_36":"10g8qft","区36":"d","地址":"月富路218弄","lng":121.410340453465,"lat":31.42636963176564,"确诊日期36":"v"},{"SH_ID_36":"10g8qho","区36":"d","地址":"月富路88弄","lng":121.40987736335086,"lat":31.428840272873682,"确诊日期36":"v"},{"SH_ID_36":"10g8qm5","区36":"d","地址":"月罗路307弄","lng":121.4111960188848,"lat":31.418512895626172,"确诊日期36":"v"},{"SH_ID_36":"10g8qlp","区36":"d","地址":"月浦九村","lng":121.42229188889205,"lat":31.416733044316867,"确诊日期36":"v"},{"SH_ID_36":"10g8qkd","区36":"d","地址":"月浦六村恒高路128弄","lng":121.47053679599864,"lat":31.323656848142594,"确诊日期36":"v"},{"SH_ID_36":"10g8qdi","区36":"d","地址":"月浦十村","lng":121.43066435357828,"lat":31.4148035988372,"确诊日期36":"v"},{"SH_ID_36":"10g8qib","区36":"d","地址":"月浦五村","lng":121.42666826688121,"lat":31.417831807792627,"确诊日期36":"v"},{"SH_ID_36":"10g8qkb","区36":"d","地址":"月新南路852号","lng":121.3981455672711,"lat":31.41434760052582,"确诊日期36":"v"},{"SH_ID_36":"10g8qm3","区36":"d","地址":"长春村","lng":121.38852502416731,"lat":31.4075876373053,"确诊日期36":"v"},{"SH_ID_36":"10g8qjj","区36":"d","地址":"长江路415弄","lng":121.48932851097348,"lat":31.355434223158777,"确诊日期36":"v"},{"SH_ID_36":"10g8qev","区36":"d","地址":"长江路440弄","lng":121.49086708445053,"lat":31.34839573830586,"确诊日期36":"v"},{"SH_ID_36":"10g8qhk","区36":"d","地址":"长江路848弄","lng":121.485624944318,"lat":31.34669424867306,"确诊日期36":"v"},{"SH_ID_36":"10g8qei","区36":"d","地址":"长江南路180号","lng":121.4848831572242,"lat":31.333176811923078,"确诊日期36":"v"},{"SH_ID_36":"10g8qfz","区36":"d","地址":"长江西路1160弄","lng":121.45953518872591,"lat":31.338249612630108,"确诊日期36":"v"},{"SH_ID_36":"10g8qfu","区36":"d","地址":"长江西路1380号","lng":121.45439492880688,"lat":31.336592686773955,"确诊日期36":"v"},{"SH_ID_36":"10g8qhr","区36":"d","地址":"长江西路2700号","lng":121.42895407834413,"lat":31.32706348950947,"确诊日期36":"v"},{"SH_ID_36":"10g8qew","区36":"d","地址":"长江西路380号","lng":121.47612542787941,"lat":31.34287559069153,"确诊日期36":"v"},{"SH_ID_36":"10g8qeq","区36":"d","地址":"长临路1118弄","lng":121.43186639243405,"lat":31.326266190978945,"确诊日期36":"v"},{"SH_ID_36":"10g8qh2","区36":"d","地址":"长逸路388弄","lng":121.4904316136868,"lat":31.33695842193119,"确诊日期36":"v"},{"SH_ID_36":"10g8qj5","区36":"d","地址":"兆南路88弄","lng":121.39816098984241,"lat":31.301732589110202,"确诊日期36":"v"},{"SH_ID_36":"10g8qi5","区36":"d","地址":"真北路4333弄","lng":121.40484279794705,"lat":31.29279314014874,"确诊日期36":"v"},{"SH_ID_36":"10g8ql5","区36":"d","地址":"真大路333弄","lng":121.40263016460683,"lat":31.289174610501703,"确诊日期36":"v"},{"SH_ID_36":"10g8qec","区36":"d","地址":"真华路1030弄","lng":121.41234614015528,"lat":31.275647346254516,"确诊日期36":"v"},{"SH_ID_36":"10g8qee","区36":"d","地址":"真华路1615弄","lng":121.41015938110402,"lat":31.286488403845496,"确诊日期36":"v"},{"SH_ID_36":"10g8qh8","区36":"d","地址":"真华路1801弄","lng":121.41067500983375,"lat":31.289367869755576,"确诊日期36":"v"},{"SH_ID_36":"10g8qfo","区36":"d","地址":"镇泰路299号","lng":121.44155160723159,"lat":31.382088875588533,"确诊日期36":"v"},{"SH_ID_36":"10g8qis","区36":"d","地址":"朱家弄村","lng":121.38742454551024,"lat":31.340833554590564,"确诊日期36":"v"},{"SH_ID_36":"10g8ql6","区36":"d","地址":"竹韵路58弄","lng":121.44517460120788,"lat":31.364108880187374,"确诊日期36":"v"},{"SH_ID_36":"10g8qku","区36":"d","地址":"走马塘路1228号","lng":121.37200731698053,"lat":31.304683803713637,"确诊日期36":"v"},{"SH_ID_36":"10g8rn5","区36":"u","地址":"创建村","lng":121.61290547290085,"lat":31.428670700686784,"确诊日期36":"v"},{"SH_ID_36":"10g8rng","区36":"u","地址":"春风村","lng":121.60833719032686,"lat":31.619584678752265,"确诊日期36":"v"},{"SH_ID_36":"10g8rn7","区36":"u","地址":"丰产村","lng":121.70399756624856,"lat":31.386194512595672,"确诊日期36":"v"},{"SH_ID_36":"10g8rn9","区36":"u","地址":"凤卫路161号","lng":121.6907266471363,"lat":31.38815933378669,"确诊日期36":"v"},{"SH_ID_36":"10g8rn3","区36":"u","地址":"建新村","lng":121.63378232386451,"lat":31.425218334097114,"确诊日期36":"v"},{"SH_ID_36":"10g8rn1","区36":"u","地址":"江南大道","lng":121.73780667938783,"lat":31.368488884847654,"确诊日期36":"v"},{"SH_ID_36":"10g8rnf","区36":"u","地址":"前哨公路42弄","lng":121.87449773209629,"lat":31.524807298144378,"确诊日期36":"v"},{"SH_ID_36":"10g8rnd","区36":"u","地址":"卫星村","lng":121.71812772633871,"lat":31.53766851009019,"确诊日期36":"v"},{"SH_ID_36":"10g8rn6","区36":"u","地址":"先进村","lng":121.68927423771567,"lat":31.392246623088575,"确诊日期36":"v"},{"SH_ID_36":"10g8rnc","区36":"u","地址":"向化村","lng":121.72917292433802,"lat":31.52587383361084,"确诊日期36":"v"},{"SH_ID_36":"10g8rn4","区36":"u","地址":"新港村","lng":121.44310523206403,"lat":31.737020665581845,"确诊日期36":"v"},{"SH_ID_36":"10g8rne","区36":"u","地址":"裕安路116号","lng":121.83312981657231,"lat":31.527398635541612,"确诊日期36":"v"},{"SH_ID_36":"10g8rna","区36":"u","地址":"圆展路120弄","lng":121.77759339305716,"lat":31.35881204132191,"确诊日期36":"v"},{"SH_ID_36":"10g8rn2","区36":"u","地址":"长橘路500弄","lng":121.69566231732036,"lat":31.39672879934649,"确诊日期36":"v"},{"SH_ID_36":"10g8rnb","区36":"u","地址":"长凯路277号","lng":121.7349610550548,"lat":31.375415039174076,"确诊日期36":"v"},{"SH_ID_36":"10g8rn8","区36":"u","地址":"长明村","lng":121.7370262072672,"lat":31.383515069975328,"确诊日期36":"v"},{"SH_ID_36":"10g8rky","区36":"k","地址":"安邬路188号","lng":121.39771175652511,"lat":30.962406366476245,"确诊日期36":"v"},{"SH_ID_36":"10g8rkz","区36":"k","地址":"八字桥路218弄","lng":121.46383051667975,"lat":30.938296171099026,"确诊日期36":"v"},{"SH_ID_36":"10g8rl0","区36":"k","地址":"八字桥路288弄","lng":121.46236524729386,"lat":30.937163773759195,"确诊日期36":"v"},{"SH_ID_36":"10g8rl1","区36":"k","地址":"北丁村","lng":121.56946027911303,"lat":30.95661988095254,"确诊日期36":"v"},{"SH_ID_36":"10g8rl2","区36":"k","地址":"北行路555弄","lng":121.50756780191693,"lat":30.970550937071025,"确诊日期36":"v"},{"SH_ID_36":"10g8rl3","区36":"k","地址":"贝港南区","lng":121.44597485511207,"lat":30.907807184780605,"确诊日期36":"v"},{"SH_ID_36":"10g8rl4","区36":"k","地址":"川南奉公路8060弄","lng":121.72372929894755,"lat":30.940080165903876,"确诊日期36":"v"},{"SH_ID_36":"10g8rl6","区36":"k","地址":"大桥村","lng":121.71199504505638,"lat":30.955827616666763,"确诊日期36":"v"},{"SH_ID_36":"10g8rl7","区36":"k","地址":"大叶公路2058弄","lng":121.38678456248152,"lat":30.95160570446414,"确诊日期36":"v"},{"SH_ID_36":"10g8rl8","区36":"k","地址":"大叶公路6712号","lng":121.5660828380469,"lat":30.978887007685515,"确诊日期36":"v"},{"SH_ID_36":"10g8rl9","区36":"k","地址":"德丰路69弄","lng":121.49168463765365,"lat":30.926273107488015,"确诊日期36":"v"},{"SH_ID_36":"10g8rla","区36":"k","地址":"灯塔村","lng":121.42469816608074,"lat":30.98457633476793,"确诊日期36":"v"},{"SH_ID_36":"10g8rl5","区36":"k","地址":"定康路205弄","lng":121.50396397611847,"lat":30.923555437582014,"确诊日期36":"v"},{"SH_ID_36":"10g8rlb","区36":"k","地址":"奉城东街45弄","lng":121.64726909361066,"lat":30.916322714960746,"确诊日期36":"v"},{"SH_ID_36":"10g8rlc","区36":"k","地址":"奉粮路2号","lng":121.64998424946857,"lat":30.91783280776328,"确诊日期36":"v"},{"SH_ID_36":"10g8rld","区36":"k","地址":"奉云路899弄","lng":121.62411415754868,"lat":30.930301810558746,"确诊日期36":"v"},{"SH_ID_36":"10g8rle","区36":"k","地址":"富竹路39弄","lng":121.46172165874594,"lat":30.928971880265177,"确诊日期36":"v"},{"SH_ID_36":"10g8rlf","区36":"k","地址":"港极路568弄","lng":121.72076693066855,"lat":30.899004825080223,"确诊日期36":"v"},{"SH_ID_36":"10g8rlg","区36":"k","地址":"工业路1550号","lng":121.50600032059099,"lat":30.99152301568222,"确诊日期36":"v"},{"SH_ID_36":"10g8rlh","区36":"k","地址":"光钱路510号","lng":121.50849779513477,"lat":30.905381325794984,"确诊日期36":"v"},{"SH_ID_36":"10g8rli","区36":"k","地址":"光钱路600弄","lng":121.50981731163564,"lat":30.9084236417749,"确诊日期36":"v"},{"SH_ID_36":"10g8rlj","区36":"k","地址":"国顺路318弄","lng":121.46095129865832,"lat":30.933134056760455,"确诊日期36":"v"},{"SH_ID_36":"10g8rlk","区36":"k","地址":"国顺路369弄","lng":121.45857496275019,"lat":30.931865506164677,"确诊日期36":"v"},{"SH_ID_36":"10g8rll","区36":"k","地址":"海旗路1518弄","lng":121.73794549707245,"lat":30.894703436931806,"确诊日期36":"v"},{"SH_ID_36":"10g8rlm","区36":"k","地址":"海兴路1750号","lng":121.573083320864,"lat":30.857425156288507,"确诊日期36":"v"},{"SH_ID_36":"10g8rln","区36":"k","地址":"洪西村","lng":121.67147495713812,"lat":30.927778546282497,"确诊日期36":"v"},{"SH_ID_36":"10g8rlo","区36":"k","地址":"鸿乐路155弄","lng":121.42979735450758,"lat":30.98833442891846,"确诊日期36":"v"},{"SH_ID_36":"10g8rlp","区36":"k","地址":"沪杭公路113号","lng":121.43149531820366,"lat":30.99263337393615,"确诊日期36":"v"},{"SH_ID_36":"10g8rlq","区36":"k","地址":"沪杭公路149弄","lng":121.43185387682102,"lat":30.991648130833173,"确诊日期36":"v"},{"SH_ID_36":"10g8rlr","区36":"k","地址":"沪杭公路32弄","lng":121.42591251691164,"lat":30.993148191209784,"确诊日期36":"v"},{"SH_ID_36":"10g8rls","区36":"k","地址":"沪杭公路768号","lng":121.44018270053385,"lat":30.969775311385483,"确诊日期36":"v"},{"SH_ID_36":"10g8rlt","区36":"k","地址":"环城南路1309弄","lng":121.44704365807387,"lat":30.901278040729206,"确诊日期36":"v"},{"SH_ID_36":"10g8rlu","区36":"k","地址":"汇安村","lng":121.40232112296239,"lat":30.960057720819403,"确诊日期36":"v"},{"SH_ID_36":"10g8rlv","区36":"k","地址":"嘉园路1258号","lng":121.49210798174883,"lat":30.97506201801248,"确诊日期36":"v"},{"SH_ID_36":"10g8rlw","区36":"k","地址":"江海村","lng":121.44516050960758,"lat":30.89434091870727,"确诊日期36":"v"},{"SH_ID_36":"10g8rlx","区36":"k","地址":"金碧路1959弄","lng":121.51322010840161,"lat":30.974239422965674,"确诊日期36":"v"},{"SH_ID_36":"10g8rly","区36":"k","地址":"金港村","lng":121.45536630157851,"lat":30.97994140780205,"确诊日期36":"v"},{"SH_ID_36":"10g8rlz","区36":"k","地址":"金汇村","lng":121.50125336786756,"lat":30.98891846713707,"确诊日期36":"v"},{"SH_ID_36":"10g8rm0","区36":"k","地址":"六墩村","lng":121.46614412483567,"lat":30.894200820465596,"确诊日期36":"v"},{"SH_ID_36":"10g8rm1","区36":"k","地址":"龙尖村","lng":121.73271363834729,"lat":30.898613179898643,"确诊日期36":"v"},{"SH_ID_36":"10g8rm2","区36":"k","地址":"明星村","lng":121.55301955376571,"lat":30.981741621540344,"确诊日期36":"v"},{"SH_ID_36":"10g8rm3","区36":"k","地址":"南渡村","lng":121.4515805936867,"lat":30.99965588267562,"确诊日期36":"v"},{"SH_ID_36":"10g8rm4","区36":"k","地址":"南奉公路142号","lng":121.63569106323482,"lat":30.91239582763815,"确诊日期36":"v"},{"SH_ID_36":"10g8rm5","区36":"k","地址":"南奉公路2729号","lng":121.58372615702329,"lat":30.923527830275038,"确诊日期36":"v"},{"SH_ID_36":"10g8rm6","区36":"k","地址":"南奉公路4428号","lng":121.54812141466817,"lat":30.92708963002499,"确诊日期36":"v"},{"SH_ID_36":"10g8rm7","区36":"k","地址":"平海村","lng":121.73349654576533,"lat":30.885240975047076,"确诊日期36":"v"},{"SH_ID_36":"10g8rm8","区36":"k","地址":"清宁路359弄","lng":121.51402577530848,"lat":30.941685599513818,"确诊日期36":"v"},{"SH_ID_36":"10g8rm9","区36":"k","地址":"三桥村","lng":121.43938969476335,"lat":30.86068120398555,"确诊日期36":"v"},{"SH_ID_36":"10g8rma","区36":"k","地址":"三团港村","lng":121.72219461945609,"lat":30.88393715264752,"确诊日期36":"v"},{"SH_ID_36":"10g8rmb","区36":"k","地址":"陶宅村","lng":121.55215590295101,"lat":30.948042802762586,"确诊日期36":"v"},{"SH_ID_36":"10g8rmc","区36":"k","地址":"湾张村","lng":121.52995187785744,"lat":30.920370722560065,"确诊日期36":"v"},{"SH_ID_36":"10g8rmd","区36":"k","地址":"万顺路2475弄","lng":121.51530802379455,"lat":30.96601150052352,"确诊日期36":"v"},{"SH_ID_36":"10g8rme","区36":"k","地址":"万顺路2968弄","lng":121.51637834387662,"lat":30.970820246984314,"确诊日期36":"v"},{"SH_ID_36":"10g8rmf","区36":"k","地址":"吴塘路527弄","lng":121.44438428835431,"lat":30.95956170471616,"确诊日期36":"v"},{"SH_ID_36":"10g8rmg","区36":"k","地址":"吴塘路799弄","lng":121.44420862506755,"lat":30.961150839157987,"确诊日期36":"v"},{"SH_ID_36":"10g8rmh","区36":"k","地址":"五宅村","lng":121.48768155698578,"lat":30.992730165284648,"确诊日期36":"v"},{"SH_ID_36":"10g8rmi","区36":"k","地址":"西闸公路1678弄","lng":121.43104250085202,"lat":30.985813630880486,"确诊日期36":"v"},{"SH_ID_36":"10g8rmk","区36":"k","地址":"小荡村","lng":121.7040230677891,"lat":30.97744669953487,"确诊日期36":"v"},{"SH_ID_36":"10g8rmj","区36":"k","地址":"肖塘路146弄","lng":121.43774542758794,"lat":30.962614078823833,"确诊日期36":"v"},{"SH_ID_36":"10g8rml","区36":"k","地址":"新强村","lng":121.52510508011652,"lat":30.97517751234271,"确诊日期36":"v"},{"SH_ID_36":"10g8rmm","区36":"k","地址":"新叶村","lng":121.3766312559832,"lat":30.958388755814244,"确诊日期36":"v"},{"SH_ID_36":"10g8rmn","区36":"k","地址":"新张村","lng":121.53105361115443,"lat":30.877230387540873,"确诊日期36":"v"},{"SH_ID_36":"10g8rmo","区36":"k","地址":"姚家村","lng":121.57944664223982,"lat":30.91707589541149,"确诊日期36":"v"},{"SH_ID_36":"10g8rmp","区36":"k","地址":"耀光小区","lng":121.39673716170019,"lat":30.961318302035465,"确诊日期36":"v"},{"SH_ID_36":"10g8rmq","区36":"k","地址":"永南路1688号","lng":121.51670374274332,"lat":31.00616651201072,"确诊日期36":"v"},{"SH_ID_36":"10g8rmr","区36":"k","地址":"永欣新村","lng":121.45045000999576,"lat":30.914094839545427,"确诊日期36":"v"},{"SH_ID_36":"10g8rms","区36":"k","地址":"育秀八区","lng":121.46818006272495,"lat":30.908612163295548,"确诊日期36":"v"},{"SH_ID_36":"10g8rmt","区36":"k","地址":"育秀路438弄","lng":121.46325950754202,"lat":30.908455530466437,"确诊日期36":"v"},{"SH_ID_36":"10g8rmu","区36":"k","地址":"岳和村","lng":121.56968324787782,"lat":30.931103246813326,"确诊日期36":"v"},{"SH_ID_36":"10g8rmv","区36":"k","地址":"运河北路1098弄","lng":121.44757297735644,"lat":30.925229743940985,"确诊日期36":"v"},{"SH_ID_36":"10g8rmw","区36":"k","地址":"运河北路1351弄","lng":121.43927212636376,"lat":30.91815878501061,"确诊日期36":"v"},{"SH_ID_36":"10g8rmx","区36":"k","地址":"张塘村","lng":121.37405837016915,"lat":30.950319089577828,"确诊日期36":"v"},{"SH_ID_36":"10g8rmy","区36":"k","地址":"正嘉路299号","lng":121.77122600116927,"lat":30.87553402948393,"确诊日期36":"v"},{"SH_ID_36":"10g8rmz","区36":"k","地址":"周家村","lng":121.59864990034058,"lat":30.98778056851483,"确诊日期36":"v"},{"SH_ID_36":"10g8rn0","区36":"k","地址":"资福村","lng":121.60333038525727,"lat":30.966616270098218,"确诊日期36":"v"},{"SH_ID_36":"10g8pxf","区36":"9","地址":"安国路21号","lng":121.50664098315498,"lat":31.258501882834057,"确诊日期36":"v"},{"SH_ID_36":"10g8pxg","区36":"9","地址":"安国路223弄","lng":121.50593368199375,"lat":31.259188110546006,"确诊日期36":"v"},{"SH_ID_36":"10g8pxh","区36":"9","地址":"安国路56号","lng":121.50834749118523,"lat":31.257502377724762,"确诊日期36":"v"},{"SH_ID_36":"10g8pxi","区36":"9","地址":"安国路76号","lng":121.5080700088483,"lat":31.25757785537718,"确诊日期36":"v"},{"SH_ID_36":"10g8pxj","区36":"9","地址":"巴林路61弄","lng":121.49500642048108,"lat":31.287173940864665,"确诊日期36":"v"},{"SH_ID_36":"10g8pxk","区36":"9","地址":"宝安路159号","lng":121.48782175899058,"lat":31.264863920656275,"确诊日期36":"v"},{"SH_ID_36":"10g8pxl","区36":"9","地址":"保定路425弄","lng":121.5121043790003,"lat":31.255788015116963,"确诊日期36":"v"},{"SH_ID_36":"10g8pxn","区36":"9","地址":"保定路437号","lng":121.50783456815441,"lat":31.26016024926812,"确诊日期36":"v"},{"SH_ID_36":"10g8pxo","区36":"9","地址":"保定路520弄","lng":121.50714413356043,"lat":31.260999616764515,"确诊日期36":"v"},{"SH_ID_36":"10g8pxp","区36":"9","地址":"北宝兴路71号","lng":121.4673817597627,"lat":31.271741364538855,"确诊日期36":"v"},{"SH_ID_36":"10g8pxq","区36":"9","地址":"北苏州路410号","lng":121.48339983298966,"lat":31.24300841369559,"确诊日期36":"v"},{"SH_ID_36":"10g8pxt","区36":"9","地址":"车站北路500弄","lng":121.47339514925164,"lat":31.2973105817701,"确诊日期36":"v"},{"SH_ID_36":"10g8pxu","区36":"9","地址":"车站北路624弄","lng":121.46848354969477,"lat":31.297412869121153,"确诊日期36":"v"},{"SH_ID_36":"10g8pxv","区36":"9","地址":"车站北路625弄","lng":121.47031040564771,"lat":31.297021063693204,"确诊日期36":"v"},{"SH_ID_36":"10g8pxw","区36":"9","地址":"车站北路715弄","lng":121.46609890975436,"lat":31.296379878021234,"确诊日期36":"v"},{"SH_ID_36":"10g8pxx","区36":"9","地址":"车站北路727弄","lng":121.46520895232173,"lat":31.29682727371314,"确诊日期36":"v"},{"SH_ID_36":"10g8pxy","区36":"9","地址":"车站南路407弄","lng":121.47333727875734,"lat":31.29434117872902,"确诊日期36":"v"},{"SH_ID_36":"10g8pxz","区36":"9","地址":"车站西路288弄","lng":121.48280670214888,"lat":31.299472939936386,"确诊日期36":"v"},{"SH_ID_36":"10g8py0","区36":"9","地址":"车站西路300弄","lng":121.48256586856019,"lat":31.299786823667745,"确诊日期36":"v"},{"SH_ID_36":"10g8py1","区36":"9","地址":"车站西路303弄","lng":121.48290077079453,"lat":31.30009192044753,"确诊日期36":"v"},{"SH_ID_36":"10g8py2","区36":"9","地址":"车站西路305弄","lng":121.48311089489445,"lat":31.300045177494233,"确诊日期36":"v"},{"SH_ID_36":"10g8py3","区36":"9","地址":"车站西路307弄","lng":121.48339252192821,"lat":31.301198561733624,"确诊日期36":"v"},{"SH_ID_36":"10g8py4","区36":"9","地址":"池沟路16号","lng":121.4789502511525,"lat":31.30108001702771,"确诊日期36":"v"},{"SH_ID_36":"10g8py5","区36":"9","地址":"赤峰路365弄","lng":121.49183951687687,"lat":31.28220075408008,"确诊日期36":"v"},{"SH_ID_36":"10g8py6","区36":"9","地址":"赤峰路370弄","lng":121.49285826779229,"lat":31.2828550419282,"确诊日期36":"v"},{"SH_ID_36":"10g8py7","区36":"9","地址":"川公路171弄","lng":121.48059839599316,"lat":31.25612199034226,"确诊日期36":"v"},{"SH_ID_36":"10g8py8","区36":"9","地址":"大连路919弄","lng":121.50549001720515,"lat":31.266071263047518,"确诊日期36":"v"},{"SH_ID_36":"10g8py9","区36":"9","地址":"大连路975弄","lng":121.50521234881977,"lat":31.267556184556803,"确诊日期36":"v"},{"SH_ID_36":"10g8pya","区36":"9","地址":"大连西路11号","lng":121.49859643397939,"lat":31.276606429610926,"确诊日期36":"v"},{"SH_ID_36":"10g8pyb","区36":"9","地址":"大连西路155号","lng":121.49701611737548,"lat":31.27615265025245,"确诊日期36":"v"},{"SH_ID_36":"10g8pyc","区36":"9","地址":"大连西路165弄","lng":121.49596981958948,"lat":31.27634419051416,"确诊日期36":"v"},{"SH_ID_36":"10g8pyd","区36":"9","地址":"大连西路201弄","lng":121.49346233372682,"lat":31.27564454419282,"确诊日期36":"v"},{"SH_ID_36":"10g8pye","区36":"9","地址":"大连西路215弄","lng":121.49132167223804,"lat":31.275381313963514,"确诊日期36":"v"},{"SH_ID_36":"10g8pyf","区36":"9","地址":"大连西路23号","lng":121.49844221532089,"lat":31.275968530270852,"确诊日期36":"v"},{"SH_ID_36":"10g8pyg","区36":"9","地址":"大连西路615号","lng":121.49856278054156,"lat":31.27651257092331,"确诊日期36":"v"},{"SH_ID_36":"10g8pyh","区36":"9","地址":"大连西路621号","lng":121.48132151053576,"lat":31.274746011703467,"确诊日期36":"v"},{"SH_ID_36":"10g8pyi","区36":"9","地址":"大连西路661号","lng":121.48022654376958,"lat":31.274946607008637,"确诊日期36":"v"},{"SH_ID_36":"10g8pyj","区36":"9","地址":"大名路700号","lng":121.49380597384611,"lat":31.24634526756269,"确诊日期36":"v"},{"SH_ID_36":"10g8pyk","区36":"9","地址":"大名路72号","lng":121.49101475579269,"lat":31.245166998738796,"确诊日期36":"v"},{"SH_ID_36":"10g8pyl","区36":"9","地址":"丹徒路213弄","lng":121.50306185417267,"lat":31.253919988113797,"确诊日期36":"v"},{"SH_ID_36":"10g8pym","区36":"9","地址":"丹徒路215弄","lng":121.50199998448998,"lat":31.25603943390107,"确诊日期36":"v"},{"SH_ID_36":"10g8pyn","区36":"9","地址":"东宝兴路258弄","lng":121.48208067620277,"lat":31.257287736160457,"确诊日期36":"v"},{"SH_ID_36":"10g8pyo","区36":"9","地址":"东汉阳路309弄","lng":121.49447213881706,"lat":31.252022622401952,"确诊日期36":"v"},{"SH_ID_36":"10g8pyp","区36":"9","地址":"东江湾路221号","lng":121.47941637441846,"lat":31.267939790302442,"确诊日期36":"v"},{"SH_ID_36":"10g8pyq","区36":"9","地址":"东江湾路570弄","lng":121.48042035783251,"lat":31.2741565557762,"确诊日期36":"v"},{"SH_ID_36":"10g8pyr","区36":"9","地址":"东江湾路580弄","lng":121.47995539849559,"lat":31.27416435876433,"确诊日期36":"v"},{"SH_ID_36":"10g8pys","区36":"9","地址":"东江湾路590号","lng":121.4803886921045,"lat":31.274877523495558,"确诊日期36":"v"},{"SH_ID_36":"10g8pyt","区36":"9","地址":"东江湾路62号","lng":121.48040966439359,"lat":31.265548249192825,"确诊日期36":"v"},{"SH_ID_36":"10g8pyu","区36":"9","地址":"东江湾路70弄","lng":121.48110796007487,"lat":31.265829054569164,"确诊日期36":"v"},{"SH_ID_36":"10g8pyv","区36":"9","地址":"东体育会路100弄","lng":121.48192423060748,"lat":31.274375898103003,"确诊日期36":"v"},{"SH_ID_36":"10g8pyw","区36":"9","地址":"东体育会路1091号","lng":121.49014050188018,"lat":31.28738300646458,"确诊日期36":"v"},{"SH_ID_36":"10g8pyx","区36":"9","地址":"东体育会路10号","lng":121.48050325225282,"lat":31.274832075753455,"确诊日期36":"v"},{"SH_ID_36":"10g8pyy","区36":"9","地址":"东体育会路115弄","lng":121.48216077448191,"lat":31.273977498867993,"确诊日期36":"v"},{"SH_ID_36":"10g8pyz","区36":"9","地址":"东体育会路119弄","lng":121.48220759426444,"lat":31.273092867962454,"确诊日期36":"v"},{"SH_ID_36":"10g8pz0","区36":"9","地址":"东体育会路29号","lng":121.48069949330815,"lat":31.27423653228452,"确诊日期36":"v"},{"SH_ID_36":"10g8pz1","区36":"9","地址":"东体育会路70弄","lng":121.48142684483912,"lat":31.274568214589042,"确诊日期36":"v"},{"SH_ID_36":"10g8pz2","区36":"9","地址":"东体育会路75号","lng":121.48099909575407,"lat":31.274195854670946,"确诊日期36":"v"},{"SH_ID_36":"10g8pz3","区36":"9","地址":"东体育会路83号","lng":121.48194311359342,"lat":31.273653333603175,"确诊日期36":"v"},{"SH_ID_36":"10g8pz4","区36":"9","地址":"东体育会路87号","lng":121.48131913577748,"lat":31.27382986839234,"确诊日期36":"v"},{"SH_ID_36":"10g8pz5","区36":"9","地址":"东体育会支路65弄","lng":121.4811520549668,"lat":31.273460022743638,"确诊日期36":"v"},{"SH_ID_36":"10g8pz6","区36":"9","地址":"东余杭路1025号","lng":121.50501001475915,"lat":31.25868927316235,"确诊日期36":"v"},{"SH_ID_36":"10g8pz7","区36":"9","地址":"东余杭路1051弄","lng":121.50536246737535,"lat":31.2588874645969,"确诊日期36":"v"},{"SH_ID_36":"10g8pz8","区36":"9","地址":"东余杭路1107弄","lng":121.506313007762,"lat":31.259718546601857,"确诊日期36":"v"},{"SH_ID_36":"10g8pz9","区36":"9","地址":"东余杭路1320号","lng":121.50857356152488,"lat":31.260744774523474,"确诊日期36":"v"},{"SH_ID_36":"10g8pza","区36":"9","地址":"东余杭路211弄","lng":121.49292165345169,"lat":31.25249478016121,"确诊日期36":"v"},{"SH_ID_36":"10g8pzb","区36":"9","地址":"东余杭路218号","lng":121.49299550932871,"lat":31.251682751586078,"确诊日期36":"v"},{"SH_ID_36":"10g8pzc","区36":"9","地址":"东余杭路222号","lng":121.49342380456369,"lat":31.251798747753153,"确诊日期36":"v"},{"SH_ID_36":"10g8pzd","区36":"9","地址":"东长治路299弄","lng":121.49475550735721,"lat":31.248917816826484,"确诊日期36":"v"},{"SH_ID_36":"10g8pze","区36":"9","地址":"峨嵋路366弄","lng":121.49040551807846,"lat":31.251925611305257,"确诊日期36":"v"},{"SH_ID_36":"10g8pzf","区36":"9","地址":"飞虹路187弄","lng":121.50212807843599,"lat":31.261986068059276,"确诊日期36":"v"},{"SH_ID_36":"10g8pzg","区36":"9","地址":"飞虹路288弄","lng":121.50342206267764,"lat":31.26519585318113,"确诊日期36":"v"},{"SH_ID_36":"10g8pzh","区36":"9","地址":"丰镇路14弄","lng":121.47776588562225,"lat":31.30478701956222,"确诊日期36":"v"},{"SH_ID_36":"10g8pzi","区36":"9","地址":"丰镇路2弄","lng":121.48067891072418,"lat":31.304956951736234,"确诊日期36":"v"},{"SH_ID_36":"10g8pzj","区36":"9","地址":"丰镇路66号","lng":121.47566816803523,"lat":31.304387904497993,"确诊日期36":"v"},{"SH_ID_36":"10g8pzk","区36":"9","地址":"高阳路475弄","lng":121.49974364153607,"lat":31.255780885015344,"确诊日期36":"v"},{"SH_ID_36":"10g8pzl","区36":"9","地址":"高阳路669号","lng":121.49794004449257,"lat":31.25855153248018,"确诊日期36":"v"},{"SH_ID_36":"10g8pzm","区36":"9","地址":"公平路755号","lng":121.50467786620254,"lat":31.254774586967354,"确诊日期36":"v"},{"SH_ID_36":"10g8pzn","区36":"9","地址":"公平路761号","lng":121.49971531110646,"lat":31.259287025718535,"确诊日期36":"v"},{"SH_ID_36":"10g8pzo","区36":"9","地址":"广灵四路140弄","lng":121.47960122464161,"lat":31.286485848819897,"确诊日期36":"v"},{"SH_ID_36":"10g8pzp","区36":"9","地址":"广灵一路263号","lng":121.47952493607686,"lat":31.285529769007283,"确诊日期36":"v"},{"SH_ID_36":"10g8pzq","区36":"9","地址":"广粤路1401弄","lng":121.46607306357897,"lat":31.302345007369873,"确诊日期36":"v"},{"SH_ID_36":"10g8pzr","区36":"9","地址":"广粤路1404弄","lng":121.46722078265307,"lat":31.295842640292733,"确诊日期36":"v"},{"SH_ID_36":"10g8pzs","区36":"9","地址":"广粤路53弄","lng":121.46392909262566,"lat":31.281863005567065,"确诊日期36":"v"},{"SH_ID_36":"10g8pzt","区36":"9","地址":"广粤路577弄","lng":121.46681798424164,"lat":31.294156314880116,"确诊日期36":"v"},{"SH_ID_36":"10g8pzu","区36":"9","地址":"广中路133号","lng":121.47765412504667,"lat":31.276556903324806,"确诊日期36":"v"},{"SH_ID_36":"10g8pzv","区36":"9","地址":"广中路368弄","lng":121.47292069013065,"lat":31.27828290438349,"确诊日期36":"v"},{"SH_ID_36":"10g8pzw","区36":"9","地址":"广中路44号","lng":121.47898410558881,"lat":31.275524750964845,"确诊日期36":"v"},{"SH_ID_36":"10g8pzx","区36":"9","地址":"广中路45弄","lng":121.47917080313886,"lat":31.276216731900043,"确诊日期36":"v"},{"SH_ID_36":"10g8pzy","区36":"9","地址":"广中路554号","lng":121.46969515830673,"lat":31.279228004969962,"确诊日期36":"v"},{"SH_ID_36":"10g8pzz","区36":"9","地址":"广中路558号","lng":121.46831439041537,"lat":31.279527584642555,"确诊日期36":"v"},{"SH_ID_36":"10g8q00","区36":"9","地址":"广中路581弄","lng":121.46621871739542,"lat":31.281146681819024,"确诊日期36":"v"},{"SH_ID_36":"10g8q01","区36":"9","地址":"广中支路26号","lng":121.47613334507929,"lat":31.273987210204,"确诊日期36":"v"},{"SH_ID_36":"10g8q02","区36":"9","地址":"哈尔滨路229号","lng":121.49034332397245,"lat":31.256487005406314,"确诊日期36":"v"},{"SH_ID_36":"10g8q03","区36":"9","地址":"海伦路555弄","lng":121.4868141741404,"lat":31.258369980275113,"确诊日期36":"v"},{"SH_ID_36":"10g8q04","区36":"9","地址":"海伦路88弄","lng":121.49628832105114,"lat":31.25635449135831,"确诊日期36":"v"},{"SH_ID_36":"10g8q05","区36":"9","地址":"海门路609号","lng":121.49984583739918,"lat":31.257307465360338,"确诊日期36":"v"},{"SH_ID_36":"10g8q06","区36":"9","地址":"海宁路100号","lng":121.48930372364018,"lat":31.253527667718505,"确诊日期36":"v"},{"SH_ID_36":"10g8q07","区36":"9","地址":"海宁路105号","lng":121.4906741357239,"lat":31.25263425187605,"确诊日期36":"v"},{"SH_ID_36":"10g8q08","区36":"9","地址":"海宁路55号","lng":121.49050484256921,"lat":31.251806714506113,"确诊日期36":"v"},{"SH_ID_36":"10g8q09","区36":"9","地址":"海宁路5号","lng":121.49176583798625,"lat":31.253288402830567,"确诊日期36":"v"},{"SH_ID_36":"10g8q0a","区36":"9","地址":"横浜路158弄","lng":121.47872419159326,"lat":31.263126133533223,"确诊日期36":"v"},{"SH_ID_36":"10g8q0b","区36":"9","地址":"虹关路323弄","lng":121.49663316609903,"lat":31.265000331663423,"确诊日期36":"v"},{"SH_ID_36":"10g8q0c","区36":"9","地址":"虹湾路313弄","lng":121.47083778021545,"lat":31.31200732184114,"确诊日期36":"v"},{"SH_ID_36":"10g8q0d","区36":"9","地址":"虹湾路55弄","lng":121.47467160702737,"lat":31.3127095258366,"确诊日期36":"v"},{"SH_ID_36":"10g8q0e","区36":"9","地址":"虹湾路86弄","lng":121.47441715371036,"lat":31.313059127153057,"确诊日期36":"v"},{"SH_ID_36":"10g8q0f","区36":"9","地址":"虹镇老街269号","lng":121.50381616634186,"lat":31.267749205739293,"确诊日期36":"v"},{"SH_ID_36":"10g8q0g","区36":"9","地址":"花园路118弄","lng":121.47432512975647,"lat":31.271023582081327,"确诊日期36":"v"},{"SH_ID_36":"10g8q0h","区36":"9","地址":"花园路131弄","lng":121.47902776418383,"lat":31.26965145290686,"确诊日期36":"v"},{"SH_ID_36":"10g8q0i","区36":"9","地址":"华昌路68弄","lng":121.47891522533827,"lat":31.262406568696402,"确诊日期36":"v"},{"SH_ID_36":"10g8q0j","区36":"9","地址":"黄渡路103弄","lng":121.48141184341799,"lat":31.268201946737722,"确诊日期36":"v"},{"SH_ID_36":"10g8q0k","区36":"9","地址":"黄渡路65号","lng":121.48176390799334,"lat":31.267140839083297,"确诊日期36":"v"},{"SH_ID_36":"10g8q0l","区36":"9","地址":"黄渡路67弄","lng":121.48222625882511,"lat":31.267165624281205,"确诊日期36":"v"},{"SH_ID_36":"10g8q0m","区36":"9","地址":"辉河路25弄","lng":121.49932208019457,"lat":31.287452381695648,"确诊日期36":"v"},{"SH_ID_36":"10g8q0n","区36":"9","地址":"惠民路238号","lng":121.5138758459968,"lat":31.254070090883637,"确诊日期36":"v"},{"SH_ID_36":"10g8q0o","区36":"9","地址":"惠民路250弄","lng":121.51446078803997,"lat":31.254380544447372,"确诊日期36":"v"},{"SH_ID_36":"10g8q0p","区36":"9","地址":"霍山路68号","lng":121.51019124561557,"lat":31.25333667632584,"确诊日期36":"v"},{"SH_ID_36":"10g8q0q","区36":"9","地址":"江杨南路55弄","lng":121.46972829312512,"lat":31.309646251906518,"确诊日期36":"v"},{"SH_ID_36":"10g8q0r","区36":"9","地址":"九龙路473号","lng":121.49149771976022,"lat":31.251961329435332,"确诊日期36":"v"},{"SH_ID_36":"10g8q0s","区36":"9","地址":"九龙路515号","lng":121.49156063240326,"lat":31.25231891090928,"确诊日期36":"v"},{"SH_ID_36":"10g8q0t","区36":"9","地址":"奎照路11弄","lng":121.47097282117761,"lat":31.300370272717604,"确诊日期36":"v"},{"SH_ID_36":"10g8q0u","区36":"9","地址":"奎照路1号","lng":121.4693938562714,"lat":31.29974690968769,"确诊日期36":"v"},{"SH_ID_36":"10g8q0v","区36":"9","地址":"奎照路790弄","lng":121.46895395793638,"lat":31.299641525871927,"确诊日期36":"v"},{"SH_ID_36":"10g8q0w","区36":"9","地址":"昆明路155弄","lng":121.50801409629739,"lat":31.256195959745153,"确诊日期36":"v"},{"SH_ID_36":"10g8q0x","区36":"9","地址":"昆明路80弄","lng":121.50734139436183,"lat":31.255302227098152,"确诊日期36":"v"},{"SH_ID_36":"10g8q0y","区36":"9","地址":"溧阳路1114弄","lng":121.48783257988332,"lat":31.261671751415136,"确诊日期36":"v"},{"SH_ID_36":"10g8q0z","区36":"9","地址":"溧阳路1156弄","lng":121.48764455187522,"lat":31.26186348799092,"确诊日期36":"v"},{"SH_ID_36":"10g8q10","区36":"9","地址":"溧阳路1333弄","lng":121.48566449893185,"lat":31.264036996309443,"确诊日期36":"v"},{"SH_ID_36":"10g8q11","区36":"9","地址":"溧阳路1365号","lng":121.4854240873305,"lat":31.26377790244315,"确诊日期36":"v"},{"SH_ID_36":"10g8q12","区36":"9","地址":"溧阳路1377弄","lng":121.4850793940651,"lat":31.26430277267609,"确诊日期36":"v"},{"SH_ID_36":"10g8q13","区36":"9","地址":"溧阳路375号","lng":121.49211051284713,"lat":31.250890304563285,"确诊日期36":"v"},{"SH_ID_36":"10g8q14","区36":"9","地址":"溧阳路491号","lng":121.49252276686178,"lat":31.252788396370406,"确诊日期36":"v"},{"SH_ID_36":"10g8q15","区36":"9","地址":"溧阳路501号","lng":121.49219900239008,"lat":31.252771150909528,"确诊日期36":"v"},{"SH_ID_36":"10g8q16","区36":"9","地址":"凉城路341弄","lng":121.46950026092892,"lat":31.280415924209038,"确诊日期36":"v"},{"SH_ID_36":"10g8q17","区36":"9","地址":"凉城路450弄","lng":121.47072606321063,"lat":31.28869010242555,"确诊日期36":"v"},{"SH_ID_36":"10g8q18","区36":"9","地址":"凉城路465弄","lng":121.46967908513595,"lat":31.289394491726398,"确诊日期36":"v"},{"SH_ID_36":"10g8q19","区36":"9","地址":"凉城路500弄","lng":121.4714826236199,"lat":31.290546092543348,"确诊日期36":"v"},{"SH_ID_36":"10g8q1a","区36":"9","地址":"凉城路539弄","lng":121.47033937195972,"lat":31.289340681193675,"确诊日期36":"v"},{"SH_ID_36":"10g8q1b","区36":"9","地址":"凉城路585弄","lng":121.4708806458299,"lat":31.293186864117438,"确诊日期36":"v"},{"SH_ID_36":"10g8q1c","区36":"9","地址":"凉城路589弄","lng":121.4687140157847,"lat":31.294255755414188,"确诊日期36":"v"},{"SH_ID_36":"10g8q1d","区36":"9","地址":"凉城路815弄","lng":121.47030133763596,"lat":31.298212612482793,"确诊日期36":"v"},{"SH_ID_36":"10g8q1e","区36":"9","地址":"凉城路838弄","lng":121.47319996026994,"lat":31.29930909694827,"确诊日期36":"v"},{"SH_ID_36":"10g8q1f","区36":"9","地址":"凉城三村","lng":121.47250715132652,"lat":31.29151653140654,"确诊日期36":"v"},{"SH_ID_36":"10g8q1g","区36":"9","地址":"临平北路89弄","lng":121.49236738887365,"lat":31.26459429748361,"确诊日期36":"v"},{"SH_ID_36":"10g8q1h","区36":"9","地址":"临平路133弄","lng":121.49923172196615,"lat":31.2608926693921,"确诊日期36":"v"},{"SH_ID_36":"10g8q1i","区36":"9","地址":"临平路20弄","lng":121.49922836117173,"lat":31.260114983658706,"确诊日期36":"v"},{"SH_ID_36":"10g8q1j","区36":"9","地址":"临平路250弄","lng":121.488420705985,"lat":31.27765551273458,"确诊日期36":"v"},{"SH_ID_36":"10g8q1k","区36":"9","地址":"临平路25弄","lng":121.4975444093386,"lat":31.261428515523495,"确诊日期36":"v"},{"SH_ID_36":"10g8q1l","区36":"9","地址":"临平路60弄","lng":121.49729094880014,"lat":31.260920675208087,"确诊日期36":"v"},{"SH_ID_36":"10g8q1m","区36":"9","地址":"柳营路127弄","lng":121.4682604841668,"lat":31.270742121170038,"确诊日期36":"v"},{"SH_ID_36":"10g8q1n","区36":"9","地址":"柳营路135号","lng":121.46798508495503,"lat":31.271130464845204,"确诊日期36":"v"},{"SH_ID_36":"10g8q1o","区36":"9","地址":"洛阳新村","lng":121.47970779590143,"lat":31.283662467772924,"确诊日期36":"v"},{"SH_ID_36":"10g8q1p","区36":"9","地址":"旅顺路45号","lng":121.49599629831363,"lat":31.248464483809464,"确诊日期36":"v"},{"SH_ID_36":"10g8q1q","区36":"9","地址":"马厂路63号","lng":121.4958987947764,"lat":31.24835657201062,"确诊日期36":"v"},{"SH_ID_36":"10g8q1r","区36":"9","地址":"密云路250弄","lng":121.48844799527959,"lat":31.277739560967895,"确诊日期36":"v"},{"SH_ID_36":"10g8q1s","区36":"9","地址":"密云路471弄","lng":121.49513389058006,"lat":31.282977229973252,"确诊日期36":"v"},{"SH_ID_36":"10g8q1t","区36":"9","地址":"欧阳路545弄","lng":121.48767965234008,"lat":31.27343294785125,"确诊日期36":"v"},{"SH_ID_36":"10g8q1u","区36":"9","地址":"欧阳路568号","lng":121.48599224850746,"lat":31.273811928174588,"确诊日期36":"v"},{"SH_ID_36":"10g8q1v","区36":"9","地址":"曲阳路118弄","lng":121.49448573236755,"lat":31.27129693751573,"确诊日期36":"v"},{"SH_ID_36":"10g8q1w","区36":"9","地址":"曲阳路487弄","lng":121.48949602324318,"lat":31.274165473620442,"确诊日期36":"v"},{"SH_ID_36":"10g8q1x","区36":"9","地址":"曲阳路630弄","lng":121.49525120120238,"lat":31.284682889621195,"确诊日期36":"v"},{"SH_ID_36":"10g8q1y","区36":"9","地址":"曲阳路810号","lng":121.49120393016565,"lat":31.287437296954273,"确诊日期36":"v"},{"SH_ID_36":"10g8q1z","区36":"9","地址":"曲阳路820弄","lng":121.49165538551378,"lat":31.287304822303017,"确诊日期36":"v"},{"SH_ID_36":"10g8q20","区36":"9","地址":"曲阳路980号","lng":121.49094850462794,"lat":31.291739901799453,"确诊日期36":"v"},{"SH_ID_36":"10g8q21","区36":"9","地址":"瑞虹路13号","lng":121.4972906148951,"lat":31.26060108295859,"确诊日期36":"v"},{"SH_ID_36":"10g8q22","区36":"9","地址":"瑞虹路233弄","lng":121.49952760656467,"lat":31.263804720442554,"确诊日期36":"v"},{"SH_ID_36":"10g8q23","区36":"9","地址":"瑞虹路30号","lng":121.49727335226183,"lat":31.260919862098312,"确诊日期36":"v"},{"SH_ID_36":"10g8q24","区36":"9","地址":"瑞虹路438弄","lng":121.5003756584335,"lat":31.268180392226586,"确诊日期36":"v"},{"SH_ID_36":"10g8q25","区36":"9","地址":"三门路1279号","lng":121.46901934173242,"lat":31.311420572033857,"确诊日期36":"v"},{"SH_ID_36":"10g8q26","区36":"9","地址":"三门路743弄","lng":121.48107687433657,"lat":31.314096279424433,"确诊日期36":"v"},{"SH_ID_36":"10g8q27","区36":"9","地址":"山阴路156弄","lng":121.48458452660901,"lat":31.266389677762287,"确诊日期36":"v"},{"SH_ID_36":"10g8q28","区36":"9","地址":"山阴路226弄","lng":121.48432179663872,"lat":31.26750381134894,"确诊日期36":"v"},{"SH_ID_36":"10g8q29","区36":"9","地址":"山阴路320号","lng":121.48510920373292,"lat":31.26932766256978,"确诊日期36":"v"},{"SH_ID_36":"10g8q2a","区36":"9","地址":"山阴路343弄","lng":121.48573897403335,"lat":31.269466529902655,"确诊日期36":"v"},{"SH_ID_36":"10g8q2b","区36":"9","地址":"山阴路44弄","lng":121.4847110324657,"lat":31.264881563549988,"确诊日期36":"v"},{"SH_ID_36":"10g8q2c","区36":"9","地址":"山阴路57弄","lng":121.48489940943736,"lat":31.26441754460517,"确诊日期36":"v"},{"SH_ID_36":"10g8q2d","区36":"9","地址":"商丘路200号","lng":121.4966006456319,"lat":31.25161350372764,"确诊日期36":"v"},{"SH_ID_36":"10g8q2e","区36":"9","地址":"商丘路399弄","lng":121.49530253681712,"lat":31.2530148122949,"确诊日期36":"v"},{"SH_ID_36":"10g8q2f","区36":"9","地址":"水电路1132弄","lng":121.47683811498283,"lat":31.287866176410216,"确诊日期36":"v"},{"SH_ID_36":"10g8q2g","区36":"9","地址":"水电路1239号","lng":121.47739105674447,"lat":31.291509404683573,"确诊日期36":"v"},{"SH_ID_36":"10g8q2h","区36":"9","地址":"水电路1312弄","lng":121.47443973896594,"lat":31.291806245847482,"确诊日期36":"v"},{"SH_ID_36":"10g8q2i","区36":"9","地址":"水电路1350号","lng":121.47624341885434,"lat":31.294346038382095,"确诊日期36":"v"},{"SH_ID_36":"10g8q2j","区36":"9","地址":"水电路1381弄","lng":121.47717595852542,"lat":31.29771246857075,"确诊日期36":"v"},{"SH_ID_36":"10g8q2k","区36":"9","地址":"水电路1421弄","lng":121.47763798698585,"lat":31.2992138696787,"确诊日期36":"v"},{"SH_ID_36":"10g8q2l","区36":"9","地址":"水电路1661弄","lng":121.47648416645346,"lat":31.30364167962085,"确诊日期36":"v"},{"SH_ID_36":"10g8q2m","区36":"9","地址":"水电路737弄","lng":121.47804344203223,"lat":31.284602354601795,"确诊日期36":"v"},{"SH_ID_36":"10g8q2n","区36":"9","地址":"水电路818弄","lng":121.4764052213643,"lat":31.286411160131014,"确诊日期36":"v"},{"SH_ID_36":"10g8q2o","区36":"9","地址":"四川北路1515弄","lng":121.48330247651224,"lat":31.25538053683189,"确诊日期36":"v"},{"SH_ID_36":"10g8q2p","区36":"9","地址":"四川北路1906弄","lng":121.48438734905912,"lat":31.26206877793021,"确诊日期36":"v"},{"SH_ID_36":"10g8q2q","区36":"9","地址":"四川北路1999弄","lng":121.48351084843331,"lat":31.264083341240422,"确诊日期36":"v"},{"SH_ID_36":"10g8q2r","区36":"9","地址":"四川北路2211号","lng":121.48198466842945,"lat":31.268463751364866,"确诊日期36":"v"},{"SH_ID_36":"10g8q2s","区36":"9","地址":"四川北路615号","lng":121.48312220723378,"lat":31.264433221672252,"确诊日期36":"v"},{"SH_ID_36":"10g8q2t","区36":"9","地址":"四平路581号","lng":121.49592720094812,"lat":31.269837819403218,"确诊日期36":"v"},{"SH_ID_36":"10g8q2u","区36":"9","地址":"四平路59号","lng":121.48777935251026,"lat":31.25773943232694,"确诊日期36":"v"},{"SH_ID_36":"10g8q2v","区36":"9","地址":"四平路758弄","lng":121.49896639198909,"lat":31.271047350104073,"确诊日期36":"v"},{"SH_ID_36":"10g8q2w","区36":"9","地址":"四平路827号","lng":121.50006008925648,"lat":31.27454539443438,"确诊日期36":"v"},{"SH_ID_36":"10g8q2x","区36":"9","地址":"太平桥支路15号","lng":121.49453966560064,"lat":31.261847393217042,"确诊日期36":"v"},{"SH_ID_36":"10g8q2y","区36":"9","地址":"唐山路577弄","lng":121.5049577060915,"lat":31.25627488923135,"确诊日期36":"v"},{"SH_ID_36":"10g8q2z","区36":"9","地址":"唐山路708弄","lng":121.50822366313947,"lat":31.25656229691862,"确诊日期36":"v"},{"SH_ID_36":"10g8q30","区36":"9","地址":"唐山路778号","lng":121.50822079252947,"lat":31.258266360197084,"确诊日期36":"v"},{"SH_ID_36":"10g8q31","区36":"9","地址":"唐山路799弄","lng":121.50798513390562,"lat":31.25910004944473,"确诊日期36":"v"},{"SH_ID_36":"10g8q32","区36":"9","地址":"塘沽路219号","lng":121.49014295919505,"lat":31.248172791123483,"确诊日期36":"v"},{"SH_ID_36":"10g8q33","区36":"9","地址":"塘沽路310号","lng":121.48897050723781,"lat":31.248007598217754,"确诊日期36":"v"},{"SH_ID_36":"10g8q34","区36":"9","地址":"天宝路15弄","lng":121.4957802197932,"lat":31.260614552460087,"确诊日期36":"v"},{"SH_ID_36":"10g8q35","区36":"9","地址":"天宝路358弄","lng":121.49882498263128,"lat":31.267170957403852,"确诊日期36":"v"},{"SH_ID_36":"10g8q36","区36":"9","地址":"天宝路466弄","lng":121.49696414346157,"lat":31.26720577167694,"确诊日期36":"v"},{"SH_ID_36":"10g8q37","区36":"9","地址":"天宝路828弄","lng":121.49968931720755,"lat":31.270490179679687,"确诊日期36":"v"},{"SH_ID_36":"10g8q38","区36":"9","地址":"天宝路902号","lng":121.50009326867325,"lat":31.273265954195782,"确诊日期36":"v"},{"SH_ID_36":"10g8q39","区36":"9","地址":"天宝西路231弄","lng":121.49622873646862,"lat":31.274587279605974,"确诊日期36":"v"},{"SH_ID_36":"10g8q3a","区36":"9","地址":"天宝西路242弄","lng":121.49507375184054,"lat":31.27397400317766,"确诊日期36":"v"},{"SH_ID_36":"10g8q3b","区36":"9","地址":"天宝西路5弄","lng":121.4968595054883,"lat":31.274642953294922,"确诊日期36":"v"},{"SH_ID_36":"10g8q3c","区36":"9","地址":"天虹路330号","lng":121.49694073980845,"lat":31.26403185370617,"确诊日期36":"v"},{"SH_ID_36":"10g8q3d","区36":"9","地址":"甜爱路128弄","lng":121.48370542289176,"lat":31.267832746683098,"确诊日期36":"v"},{"SH_ID_36":"10g8q3e","区36":"9","地址":"通州路415弄","lng":121.49399127007429,"lat":31.25854817016877,"确诊日期36":"v"},{"SH_ID_36":"10g8q3f","区36":"9","地址":"通州路419弄","lng":121.49354538449187,"lat":31.2583992101441,"确诊日期36":"v"},{"SH_ID_36":"10g8q3g","区36":"9","地址":"同丰路666弄","lng":121.46824480619068,"lat":31.272653390066445,"确诊日期36":"v"},{"SH_ID_36":"10g8q3h","区36":"9","地址":"同丰路718号","lng":121.46629531497845,"lat":31.27308695960276,"确诊日期36":"v"},{"SH_ID_36":"10g8q3i","区36":"9","地址":"同鸣路159号","lng":121.47624598703723,"lat":31.26884231071194,"确诊日期36":"v"},{"SH_ID_36":"10g8q3j","区36":"9","地址":"同心路159号","lng":121.47748266716876,"lat":31.26689383566612,"确诊日期36":"v"},{"SH_ID_36":"10g8q3k","区36":"9","地址":"同心路232弄","lng":121.47615418325897,"lat":31.266769367235426,"确诊日期36":"v"},{"SH_ID_36":"10g8q3l","区36":"9","地址":"同心路338弄","lng":121.47444725920901,"lat":31.268237772924323,"确诊日期36":"v"},{"SH_ID_36":"10g8q3m","区36":"9","地址":"同心路651号","lng":121.4729890842481,"lat":31.269274642056484,"确诊日期36":"v"},{"SH_ID_36":"10g8q3n","区36":"9","地址":"同心路765弄","lng":121.47194300585448,"lat":31.271353859600477,"确诊日期36":"v"},{"SH_ID_36":"10g8q3o","区36":"9","地址":"同心路799号","lng":121.47155772220954,"lat":31.271178728714847,"确诊日期36":"v"},{"SH_ID_36":"10g8q3p","区36":"9","地址":"万安路354号","lng":121.48386606756104,"lat":31.30186873610865,"确诊日期36":"v"},{"SH_ID_36":"10g8q3q","区36":"9","地址":"万安路356号","lng":121.48405117397368,"lat":31.301876238243473,"确诊日期36":"v"},{"SH_ID_36":"10g8q3r","区36":"9","地址":"文治路30弄","lng":121.4818142413097,"lat":31.298395855810014,"确诊日期36":"v"},{"SH_ID_36":"10g8q3s","区36":"9","地址":"汶水东路650弄","lng":121.47626844466978,"lat":31.288593280315173,"确诊日期36":"v"},{"SH_ID_36":"10g8q3t","区36":"9","地址":"汶水东路717弄","lng":121.46847332193624,"lat":31.293272528389256,"确诊日期36":"v"},{"SH_ID_36":"10g8q3u","区36":"9","地址":"吴家湾路136弄","lng":121.48540812854496,"lat":31.2931631507561,"确诊日期36":"v"},{"SH_ID_36":"10g8q3v","区36":"9","地址":"吴家湾路138弄","lng":121.4850971548477,"lat":31.29419782972584,"确诊日期36":"v"},{"SH_ID_36":"10g8q3w","区36":"9","地址":"吴家湾路52弄","lng":121.48582870544271,"lat":31.2928597328875,"确诊日期36":"v"},{"SH_ID_36":"10g8q3x","区36":"9","地址":"吴淞路258号","lng":121.48996350860715,"lat":31.248986179156606,"确诊日期36":"v"},{"SH_ID_36":"10g8q3y","区36":"9","地址":"梧州路218弄","lng":121.4937593384919,"lat":31.254903830598117,"确诊日期36":"v"},{"SH_ID_36":"10g8q3z","区36":"9","地址":"梧州路299弄","lng":121.4923058668964,"lat":31.255879344976204,"确诊日期36":"v"},{"SH_ID_36":"10g8q40","区36":"9","地址":"武进路242号","lng":121.48606144119172,"lat":31.252455148956898,"确诊日期36":"v"},{"SH_ID_36":"10g8q41","区36":"9","地址":"物华路118弄","lng":121.49402985196603,"lat":31.259778321334124,"确诊日期36":"v"},{"SH_ID_36":"10g8q42","区36":"9","地址":"物华路276号","lng":121.49220399889158,"lat":31.262328006241034,"确诊日期36":"v"},{"SH_ID_36":"10g8q43","区36":"9","地址":"西宝兴路949弄","lng":121.46957255884665,"lat":31.270165263636635,"确诊日期36":"v"},{"SH_ID_36":"10g8q44","区36":"9","地址":"西江湾路122号","lng":121.47873213396775,"lat":31.26719245756651,"确诊日期36":"v"},{"SH_ID_36":"10g8q45","区36":"9","地址":"西江湾路476弄","lng":121.47907186968813,"lat":31.27259533759187,"确诊日期36":"v"},{"SH_ID_36":"10g8q46","区36":"9","地址":"西江湾路574号","lng":121.4796024810833,"lat":31.274415416201077,"确诊日期36":"v"},{"SH_ID_36":"10g8q47","区36":"9","地址":"西江湾路700弄","lng":121.48035176666458,"lat":31.27617681455604,"确诊日期36":"v"},{"SH_ID_36":"10g8q48","区36":"9","地址":"祥德路274弄","lng":121.49010214001954,"lat":31.27156027121378,"确诊日期36":"v"},{"SH_ID_36":"10g8q49","区36":"9","地址":"祥德路450弄","lng":121.49359016191045,"lat":31.272982905283246,"确诊日期36":"v"},{"SH_ID_36":"10g8q4a","区36":"9","地址":"祥德路55弄","lng":121.48902402594675,"lat":31.27087373402142,"确诊日期36":"v"},{"SH_ID_36":"10g8q4b","区36":"9","地址":"新港路69号","lng":121.50500014410974,"lat":31.26875334255427,"确诊日期36":"v"},{"SH_ID_36":"10g8q4c","区36":"9","地址":"新嘉路14号","lng":121.48917190845373,"lat":31.257203087568158,"确诊日期36":"v"},{"SH_ID_36":"10g8q4d","区36":"9","地址":"新建路155弄","lng":121.49792263524259,"lat":31.253002111527167,"确诊日期36":"v"},{"SH_ID_36":"10g8q4e","区36":"9","地址":"新市北路1525弄","lng":121.48199412168105,"lat":31.30752229059662,"确诊日期36":"v"},{"SH_ID_36":"10g8q4f","区36":"9","地址":"新市南路1100弄","lng":121.47990468759134,"lat":31.298519443911264,"确诊日期36":"v"},{"SH_ID_36":"10g8q4g","区36":"9","地址":"新市南路1148弄","lng":121.48057680563679,"lat":31.29900029881065,"确诊日期36":"v"},{"SH_ID_36":"10g8q4h","区36":"9","地址":"新市南路515弄","lng":121.48121721185953,"lat":31.291132801336417,"确诊日期36":"v"},{"SH_ID_36":"10g8q4i","区36":"9","地址":"新市南路590弄","lng":121.48069474090707,"lat":31.29486327835736,"确诊日期36":"v"},{"SH_ID_36":"10g8q4j","区36":"9","地址":"新市南路918弄","lng":121.48009330517989,"lat":31.29658718618832,"确诊日期36":"v"},{"SH_ID_36":"10g8q4k","区36":"9","地址":"新市南路960弄","lng":121.4799825325908,"lat":31.29743090074703,"确诊日期36":"v"},{"SH_ID_36":"10g8q4l","区36":"9","地址":"友谊二村","lng":121.47960036145801,"lat":31.285074148689358,"确诊日期36":"v"},{"SH_ID_36":"10g8q4m","区36":"9","地址":"友谊一村","lng":121.47879363804434,"lat":31.284737311281084,"确诊日期36":"v"},{"SH_ID_36":"10g8q4n","区36":"9","地址":"玉田新村","lng":121.49503128660578,"lat":31.27972714292112,"确诊日期36":"v"},{"SH_ID_36":"10g8q4o","区36":"9","地址":"岳州路50号","lng":121.4980938567348,"lat":31.256534024706895,"确诊日期36":"v"},{"SH_ID_36":"10g8q4p","区36":"9","地址":"运光路18弄","lng":121.49324197451129,"lat":31.29266754230307,"确诊日期36":"v"},{"SH_ID_36":"10g8q4q","区36":"9","地址":"运光路60弄","lng":121.4937538488992,"lat":31.29087213063358,"确诊日期36":"v"},{"SH_ID_36":"10g8q4r","区36":"9","地址":"运光路63弄","lng":121.49574779084693,"lat":31.28991978137629,"确诊日期36":"v"},{"SH_ID_36":"10g8q4s","区36":"9","地址":"乍浦路336号","lng":121.48691522247255,"lat":31.249899145834988,"确诊日期36":"v"},{"SH_ID_36":"10g8pxr","区36":"9","地址":"长春路126弄","lng":121.48592734239186,"lat":31.26025496247124,"确诊日期36":"v"},{"SH_ID_36":"10g8pxs","区36":"9","地址":"长阳路138弄","lng":121.51056951450009,"lat":31.254499349118717,"确诊日期36":"v"},{"SH_ID_36":"10g8q4t","区36":"9","地址":"中山北一路1102号","lng":121.48611726105236,"lat":31.289345130868405,"确诊日期36":"v"},{"SH_ID_36":"10g8q4u","区36":"9","地址":"中山北一路188号","lng":121.47825580466285,"lat":31.273459073394626,"确诊日期36":"v"},{"SH_ID_36":"10g8q4v","区36":"9","地址":"中山北一路48号","lng":121.47544390804663,"lat":31.26923730564256,"确诊日期36":"v"},{"SH_ID_36":"10g8pxm","区36":"9","地址":"周家嘴路1050号","lng":121.50700277651035,"lat":31.261672476080694,"确诊日期36":"v"},{"SH_ID_36":"10g8q4w","区36":"9","地址":"周家嘴路86弄","lng":121.49407659943239,"lat":31.252998785570846,"确诊日期36":"v"},{"SH_ID_36":"10g8q4x","区36":"9","地址":"周家嘴路981弄","lng":121.50488433991167,"lat":31.261960246761554,"确诊日期36":"v"},{"SH_ID_36":"10g8oqu","区36":"1","地址":"白渡路258弄","lng":121.50104429050212,"lat":31.219664590516064,"确诊日期36":"v"},{"SH_ID_36":"10g8oqv","区36":"1","地址":"白河路21弄","lng":121.47191371415423,"lat":31.235285136337076,"确诊日期36":"v"},{"SH_ID_36":"10g8oqw","区36":"1","地址":"保屯路211弄","lng":121.49133602876941,"lat":31.20375030807917,"确诊日期36":"v"},{"SH_ID_36":"10g8oqx","区36":"1","地址":"保屯路50弄","lng":121.48966239974587,"lat":31.206128733750443,"确诊日期36":"v"},{"SH_ID_36":"10g8oqy","区36":"1","地址":"北海路265弄","lng":121.47829946189586,"lat":31.230412687038847,"确诊日期36":"v"},{"SH_ID_36":"10g8oqz","区36":"1","地址":"北海路267弄","lng":121.47825518179052,"lat":31.230207745415882,"确诊日期36":"v"},{"SH_ID_36":"10g8or0","区36":"1","地址":"北京东路135弄","lng":121.48764226880242,"lat":31.24027534876881,"确诊日期36":"v"},{"SH_ID_36":"10g8or1","区36":"1","地址":"北京东路360弄","lng":121.48323547709259,"lat":31.240587232229675,"确诊日期36":"v"},{"SH_ID_36":"10g8or2","区36":"1","地址":"北京东路528号","lng":121.48025081316803,"lat":31.239613436665515,"确诊日期36":"v"},{"SH_ID_36":"10g8or3","区36":"1","地址":"北京东路567号","lng":121.47961027902973,"lat":31.23928855350655,"确诊日期36":"v"},{"SH_ID_36":"10g8or4","区36":"1","地址":"北京东路816号","lng":121.47487393502666,"lat":31.238012606012216,"确诊日期36":"v"},{"SH_ID_36":"10g8or5","区36":"1","地址":"北京西路239弄","lng":121.4697134420148,"lat":31.235224113553542,"确诊日期36":"v"},{"SH_ID_36":"10g8or6","区36":"1","地址":"北孔家弄23弄","lng":121.48533873511816,"lat":31.221270601418055,"确诊日期36":"v"},{"SH_ID_36":"10g8or7","区36":"1","地址":"曹家街45号","lng":121.4865255925322,"lat":31.218853650079424,"确诊日期36":"v"},{"SH_ID_36":"10g8or8","区36":"1","地址":"曹市弄57弄","lng":121.48905266890263,"lat":31.218751817223218,"确诊日期36":"v"},{"SH_ID_36":"10g8ord","区36":"1","地址":"车站支路30号","lng":121.49375269967695,"lat":31.208269688203764,"确诊日期36":"v"},{"SH_ID_36":"10g8ore","区36":"1","地址":"车站支路34号","lng":121.49373222975844,"lat":31.208206482333534,"确诊日期36":"v"},{"SH_ID_36":"10g8orf","区36":"1","地址":"车站支路9弄","lng":121.4933949222661,"lat":31.208867119515673,"确诊日期36":"v"},{"SH_ID_36":"10g8org","区36":"1","地址":"成都北路262弄","lng":121.46783176479542,"lat":31.22876837607088,"确诊日期36":"v"},{"SH_ID_36":"10g8orh","区36":"1","地址":"成都南路120号","lng":121.46783682402385,"lat":31.221496679436004,"确诊日期36":"v"},{"SH_ID_36":"10g8ori","区36":"1","地址":"成都南路132弄","lng":121.46766738123885,"lat":31.22121150109496,"确诊日期36":"v"},{"SH_ID_36":"10g8orp","区36":"1","地址":"打浦路258弄","lng":121.47068048356705,"lat":31.200342575997784,"确诊日期36":"v"},{"SH_ID_36":"10g8orq","区36":"1","地址":"打浦路299弄","lng":121.47261125899234,"lat":31.201451143933483,"确诊日期36":"v"},{"SH_ID_36":"10g8orr","区36":"1","地址":"打浦路29号","lng":121.47111649103202,"lat":31.199171728877534,"确诊日期36":"v"},{"SH_ID_36":"10g8ors","区36":"1","地址":"打浦路303弄","lng":121.47169664281036,"lat":31.199864561007935,"确诊日期36":"v"},{"SH_ID_36":"10g8ort","区36":"1","地址":"打浦路316弄","lng":121.47101195782345,"lat":31.200121720193216,"确诊日期36":"v"},{"SH_ID_36":"10g8oru","区36":"1","地址":"打浦路318号","lng":121.47159744160689,"lat":31.19958056743675,"确诊日期36":"v"},{"SH_ID_36":"10g8orv","区36":"1","地址":"打浦路339弄","lng":121.47189922219071,"lat":31.199613720552307,"确诊日期36":"v"},{"SH_ID_36":"10g8orw","区36":"1","地址":"打浦路398弄","lng":121.47223411134873,"lat":31.197487147405678,"确诊日期36":"v"},{"SH_ID_36":"10g8orx","区36":"1","地址":"打浦路470弄","lng":121.47273482263931,"lat":31.196818595154333,"确诊日期36":"v"},{"SH_ID_36":"10g8ory","区36":"1","地址":"打浦路500弄","lng":121.47294959954961,"lat":31.196443648618278,"确诊日期36":"v"},{"SH_ID_36":"10g8orz","区36":"1","地址":"打浦路80弄","lng":121.46979994794445,"lat":31.203534271046056,"确诊日期36":"v"},{"SH_ID_36":"10g8os0","区36":"1","地址":"大夫坊26号","lng":121.49633028547724,"lat":31.22133924578394,"确诊日期36":"v"},{"SH_ID_36":"10g8os1","区36":"1","地址":"大沽路181号","lng":121.47073006161891,"lat":31.226140784272456,"确诊日期36":"v"},{"SH_ID_36":"10g8os2","区36":"1","地址":"大沽路183弄","lng":121.47124496119586,"lat":31.22589441677368,"确诊日期36":"v"},{"SH_ID_36":"10g8os3","区36":"1","地址":"大沽路186弄","lng":121.47106567842044,"lat":31.226704687326638,"确诊日期36":"v"},{"SH_ID_36":"10g8os4","区36":"1","地址":"大吉路44弄","lng":121.48173959564758,"lat":31.212886707056096,"确诊日期36":"v"},{"SH_ID_36":"10g8os5","区36":"1","地址":"大境路50号","lng":121.48688194863095,"lat":31.22541480174395,"确诊日期36":"v"},{"SH_ID_36":"10g8os6","区36":"1","地址":"大林路37号","lng":121.48742817750087,"lat":31.21387981357303,"确诊日期36":"v"},{"SH_ID_36":"10g8os7","区36":"1","地址":"大林路85号","lng":121.48684261999477,"lat":31.213406817924817,"确诊日期36":"v"},{"SH_ID_36":"10g8os8","区36":"1","地址":"淡水路214弄","lng":121.47272744118794,"lat":31.21694198646626,"确诊日期36":"v"},{"SH_ID_36":"10g8os9","区36":"1","地址":"淡水路222号","lng":121.47333413199928,"lat":31.21740251894635,"确诊日期36":"v"},{"SH_ID_36":"10g8osa","区36":"1","地址":"淡水路322弄","lng":121.47295704483332,"lat":31.214979821795545,"确诊日期36":"v"},{"SH_ID_36":"10g8osb","区36":"1","地址":"淡水路345弄","lng":121.47462783338354,"lat":31.21327817332734,"确诊日期36":"v"},{"SH_ID_36":"10g8osc","区36":"1","地址":"淡水路442弄","lng":121.47303389940681,"lat":31.21213319136287,"确诊日期36":"v"},{"SH_ID_36":"10g8osd","区36":"1","地址":"淡水路89弄","lng":121.47302834250704,"lat":31.221452240808773,"确诊日期36":"v"},{"SH_ID_36":"10g8ose","区36":"1","地址":"滇池路116号","lng":121.48799946017326,"lat":31.239794299020726,"确诊日期36":"v"},{"SH_ID_36":"10g8osf","区36":"1","地址":"东江阴街184号","lng":121.49738658017118,"lat":31.213940696996666,"确诊日期36":"v"},{"SH_ID_36":"10g8osg","区36":"1","地址":"东街162弄","lng":121.49750287231986,"lat":31.22198073052583,"确诊日期36":"v"},{"SH_ID_36":"10g8osh","区36":"1","地址":"东街167弄","lng":121.496811556569,"lat":31.22195885030058,"确诊日期36":"v"},{"SH_ID_36":"10g8osi","区36":"1","地址":"东刘家弄15号","lng":121.49781968001028,"lat":31.223980090254283,"确诊日期36":"v"},{"SH_ID_36":"10g8osj","区36":"1","地址":"东台路277号","lng":121.48265621846859,"lat":31.21776142564289,"确诊日期36":"v"},{"SH_ID_36":"10g8osk","区36":"1","地址":"东台路279号","lng":121.48249941813302,"lat":31.217314582543253,"确诊日期36":"v"},{"SH_ID_36":"10g8osl","区36":"1","地址":"东唐家弄29号","lng":121.49595519755142,"lat":31.220771595824214,"确诊日期36":"v"},{"SH_ID_36":"10g8osm","区36":"1","地址":"多稼路168号","lng":121.50191466944163,"lat":31.211893978798017,"确诊日期36":"v"},{"SH_ID_36":"10g8osn","区36":"1","地址":"多稼路208号","lng":121.50187205783025,"lat":31.21185637060585,"确诊日期36":"v"},{"SH_ID_36":"10g8oso","区36":"1","地址":"多稼路218号","lng":121.50119054041254,"lat":31.212511636909223,"确诊日期36":"v"},{"SH_ID_36":"10g8osp","区36":"1","地址":"方浜西路63弄","lng":121.4826275624828,"lat":31.22056968603788,"确诊日期36":"v"},{"SH_ID_36":"10g8osq","区36":"1","地址":"方浜中路199弄","lng":121.49337350587095,"lat":31.22546019288,"确诊日期36":"v"},{"SH_ID_36":"10g8osr","区36":"1","地址":"方浜中路523号","lng":121.48726279864654,"lat":31.22465742367222,"确诊日期36":"v"},{"SH_ID_36":"10g8oss","区36":"1","地址":"方斜路556弄","lng":121.4824968124136,"lat":31.212367805563566,"确诊日期36":"v"},{"SH_ID_36":"10g8ost","区36":"1","地址":"凤阳路200弄","lng":121.4712671170095,"lat":31.234933365635925,"确诊日期36":"v"},{"SH_ID_36":"10g8osu","区36":"1","地址":"凤阳路228弄","lng":121.47127702208327,"lat":31.23455983251806,"确诊日期36":"v"},{"SH_ID_36":"10g8osv","区36":"1","地址":"福佑路427号","lng":121.48808245475739,"lat":31.228037084354913,"确诊日期36":"v"},{"SH_ID_36":"10g8osw","区36":"1","地址":"福州路105-1号","lng":121.48838665507951,"lat":31.234713676719625,"确诊日期36":"v"},{"SH_ID_36":"10g8osx","区36":"1","地址":"复兴东路1055弄","lng":121.48533650316654,"lat":31.21969664956408,"确诊日期36":"v"},{"SH_ID_36":"10g8osy","区36":"1","地址":"复兴东路443弄","lng":121.49641101482702,"lat":31.222040363817495,"确诊日期36":"v"},{"SH_ID_36":"10g8osz","区36":"1","地址":"复兴东路451弄","lng":121.49638547797014,"lat":31.222404176910118,"确诊日期36":"v"},{"SH_ID_36":"10g8ot0","区36":"1","地址":"复兴东路539号","lng":121.49437014772138,"lat":31.222237267739704,"确诊日期36":"v"},{"SH_ID_36":"10g8ot1","区36":"1","地址":"复兴东路663弄","lng":121.49212375995484,"lat":31.222349511658184,"确诊日期36":"v"},{"SH_ID_36":"10g8ot2","区36":"1","地址":"复兴东路701弄","lng":121.49115722506683,"lat":31.222654280362057,"确诊日期36":"v"},{"SH_ID_36":"10g8ot3","区36":"1","地址":"复兴中路2号","lng":121.48244190051336,"lat":31.21870196623595,"确诊日期36":"v"},{"SH_ID_36":"10g8ot4","区36":"1","地址":"复兴中路455弄","lng":121.4730282472821,"lat":31.21496397843134,"确诊日期36":"v"},{"SH_ID_36":"10g8ot5","区36":"1","地址":"复兴中路50号","lng":121.48188882104127,"lat":31.218514215060118,"确诊日期36":"v"},{"SH_ID_36":"10g8ot6","区36":"1","地址":"复兴中路583弄","lng":121.46563265114987,"lat":31.214724105086205,"确诊日期36":"v"},{"SH_ID_36":"10g8ot7","区36":"1","地址":"傅家街68号","lng":121.49324907752984,"lat":31.223977750870667,"确诊日期36":"v"},{"SH_ID_36":"10g8ot8","区36":"1","地址":"高家弄74号","lng":121.48920787974127,"lat":31.220356062442484,"确诊日期36":"v"},{"SH_ID_36":"10g8ot9","区36":"1","地址":"牯岭路180号","lng":121.47040245250523,"lat":31.235860569466645,"确诊日期36":"v"},{"SH_ID_36":"10g8ota","区36":"1","地址":"光启路103弄","lng":121.49455842317656,"lat":31.22412757829032,"确诊日期36":"v"},{"SH_ID_36":"10g8otb","区36":"1","地址":"光启路119弄","lng":121.4947111513153,"lat":31.223994115764874,"确诊日期36":"v"},{"SH_ID_36":"10g8otc","区36":"1","地址":"光启路215号","lng":121.49415387338011,"lat":31.222649284764,"确诊日期36":"v"},{"SH_ID_36":"10g8otd","区36":"1","地址":"光启路91号","lng":121.49436807857803,"lat":31.22422186641312,"确诊日期36":"v"},{"SH_ID_36":"10g8ote","区36":"1","地址":"广东路138号","lng":121.4880375239359,"lat":31.234021871349622,"确诊日期36":"v"},{"SH_ID_36":"10g8otf","区36":"1","地址":"广东路162号","lng":121.48800805353407,"lat":31.23371336030677,"确诊日期36":"v"},{"SH_ID_36":"10g8otg","区36":"1","地址":"广东路212弄","lng":121.48612016400698,"lat":31.233014359340057,"确诊日期36":"v"},{"SH_ID_36":"10g8oth","区36":"1","地址":"广东路339号","lng":121.48465090329387,"lat":31.23223007468817,"确诊日期36":"v"},{"SH_ID_36":"10g8oti","区36":"1","地址":"广东路414弄","lng":121.4834113465878,"lat":31.233257194952905,"确诊日期36":"v"},{"SH_ID_36":"10g8otj","区36":"1","地址":"广东路542号","lng":121.48102229617582,"lat":31.23195294011936,"确诊日期36":"v"},{"SH_ID_36":"10g8otk","区36":"1","地址":"广东路554号","lng":121.48085948689777,"lat":31.232093294518442,"确诊日期36":"v"},{"SH_ID_36":"10g8otl","区36":"1","地址":"广西北路118弄","lng":121.4787800963455,"lat":31.231483164331713,"确诊日期36":"v"},{"SH_ID_36":"10g8otm","区36":"1","地址":"广西北路200号","lng":121.4782498063964,"lat":31.232702134754764,"确诊日期36":"v"},{"SH_ID_36":"10g8otn","区36":"1","地址":"广西北路228弄","lng":121.47873916913807,"lat":31.233234303317328,"确诊日期36":"v"},{"SH_ID_36":"10g8oto","区36":"1","地址":"广西北路515号","lng":121.47618424769723,"lat":31.23772490482912,"确诊日期36":"v"},{"SH_ID_36":"10g8otp","区36":"1","地址":"广西南路23号","lng":121.48093156723661,"lat":31.229050102669966,"确诊日期36":"v"},{"SH_ID_36":"10g8otq","区36":"1","地址":"贵州路202号","lng":121.4757618248062,"lat":31.237224939934556,"确诊日期36":"v"},{"SH_ID_36":"10g8otr","区36":"1","地址":"贵州路67号","lng":121.47633445269604,"lat":31.235325346462233,"确诊日期36":"v"},{"SH_ID_36":"10g8ots","区36":"1","地址":"国货路236号","lng":121.49491127286632,"lat":31.208672482407223,"确诊日期36":"v"},{"SH_ID_36":"10g8ott","区36":"1","地址":"国货路288号","lng":121.4940323559589,"lat":31.208934715067834,"确诊日期36":"v"},{"SH_ID_36":"10g8otu","区36":"1","地址":"国货路333弄","lng":121.49383521816507,"lat":31.210582906401296,"确诊日期36":"v"},{"SH_ID_36":"10g8otv","区36":"1","地址":"国货路370弄","lng":121.49289007856225,"lat":31.20852588838869,"确诊日期36":"v"},{"SH_ID_36":"10g8otw","区36":"1","地址":"海潮路133号","lng":121.49827048782996,"lat":31.209662920916802,"确诊日期36":"v"},{"SH_ID_36":"10g8otx","区36":"1","地址":"海潮路93弄","lng":121.49973481425364,"lat":31.210561590189638,"确诊日期36":"v"},{"SH_ID_36":"10g8oty","区36":"1","地址":"海南西弄58号","lng":121.49999751767672,"lat":31.213830688604656,"确诊日期36":"v"},{"SH_ID_36":"10g8otz","区36":"1","地址":"海南西弄60号","lng":121.49999077109507,"lat":31.2136620610933,"确诊日期36":"v"},{"SH_ID_36":"10g8ou0","区36":"1","地址":"汉口路558号","lng":121.47977307221277,"lat":31.234395808062814,"确诊日期36":"v"},{"SH_ID_36":"10g8ou1","区36":"1","地址":"合肥路289弄","lng":121.47443609175542,"lat":31.213856993376087,"确诊日期36":"v"},{"SH_ID_36":"10g8ou2","区36":"1","地址":"合肥路343号","lng":121.4735795734196,"lat":31.21379377518746,"确诊日期36":"v"},{"SH_ID_36":"10g8ou3","区36":"1","地址":"合肥路349弄","lng":121.47324556346359,"lat":31.213457443809084,"确诊日期36":"v"},{"SH_ID_36":"10g8ou4","区36":"1","地址":"河南南路300弄","lng":121.4875928749338,"lat":31.22511660268846,"确诊日期36":"v"},{"SH_ID_36":"10g8ou5","区36":"1","地址":"河南南路398弄","lng":121.48860923531304,"lat":31.222770263463797,"确诊日期36":"v"},{"SH_ID_36":"10g8ou6","区36":"1","地址":"河南南路555弄","lng":121.49099617823978,"lat":31.22052968025884,"确诊日期36":"v"},{"SH_ID_36":"10g8ou7","区36":"1","地址":"河南南路600弄","lng":121.49056758202862,"lat":31.2199830970346,"确诊日期36":"v"},{"SH_ID_36":"10g8ou8","区36":"1","地址":"河南中路166弄","lng":121.48480279084235,"lat":31.233757991786412,"确诊日期36":"v"},{"SH_ID_36":"10g8ou9","区36":"1","地址":"河南中路575弄","lng":121.48342922563165,"lat":31.24009351951131,"确诊日期36":"v"},{"SH_ID_36":"10g8oua","区36":"1","地址":"河南中路88号","lng":121.4870315451342,"lat":31.2326063708042,"确诊日期36":"v"},{"SH_ID_36":"10g8oub","区36":"1","地址":"虹桥弄78弄","lng":121.4934778187985,"lat":31.221726940972708,"确诊日期36":"v"},{"SH_ID_36":"10g8ouc","区36":"1","地址":"湖滨路210号","lng":121.47598899125134,"lat":31.220801257773925,"确诊日期36":"v"},{"SH_ID_36":"10g8oud","区36":"1","地址":"虎丘路131号","lng":121.48704388749321,"lat":31.243105224199436,"确诊日期36":"v"},{"SH_ID_36":"10g8oue","区36":"1","地址":"淮海东路89弄","lng":121.48187305158505,"lat":31.2251748776074,"确诊日期36":"v"},{"SH_ID_36":"10g8ouf","区36":"1","地址":"淮海中路283号","lng":121.47492912913388,"lat":31.223029281947856,"确诊日期36":"v"},{"SH_ID_36":"10g8oug","区36":"1","地址":"淮海中路333号","lng":121.47425150533924,"lat":31.22271113651798,"确诊日期36":"v"},{"SH_ID_36":"10g8ouh","区36":"1","地址":"淮海中路542弄","lng":121.46859051132803,"lat":31.221159370173652,"确诊日期36":"v"},{"SH_ID_36":"10g8oui","区36":"1","地址":"淮海中路593弄","lng":121.46753297713195,"lat":31.22027768504284,"确诊日期36":"v"},{"SH_ID_36":"10g8ouj","区36":"1","地址":"淮海中路613弄","lng":121.46723862454974,"lat":31.219722762262013,"确诊日期36":"v"},{"SH_ID_36":"10g8ouk","区36":"1","地址":"淮海中路622弄","lng":121.46620325133618,"lat":31.22039138140704,"确诊日期36":"v"},{"SH_ID_36":"10g8oul","区36":"1","地址":"淮海中路670弄","lng":121.46595369518057,"lat":31.21990644812444,"确诊日期36":"v"},{"SH_ID_36":"10g8oum","区36":"1","地址":"淮海中路697弄","lng":121.46541723767528,"lat":31.21878684200016,"确诊日期36":"v"},{"SH_ID_36":"10g8oun","区36":"1","地址":"淮海中路816弄","lng":121.4616982589764,"lat":31.218506751317143,"确诊日期36":"v"},{"SH_ID_36":"10g8ouo","区36":"1","地址":"淮海中路899弄","lng":121.46041633863922,"lat":31.21719088380711,"确诊日期36":"v"},{"SH_ID_36":"10g8oup","区36":"1","地址":"淮海中路927弄","lng":121.4606568101599,"lat":31.216196556736094,"确诊日期36":"v"},{"SH_ID_36":"10g8ouq","区36":"1","地址":"黄陂南路596弄","lng":121.47629969226773,"lat":31.215718540558242,"确诊日期36":"v"},{"SH_ID_36":"10g8our","区36":"1","地址":"黄陂南路838弄","lng":121.476634944027,"lat":31.21147984304224,"确诊日期36":"v"},{"SH_ID_36":"10g8ous","区36":"1","地址":"黄河路107弄","lng":121.46936758902369,"lat":31.233786769102373,"确诊日期36":"v"},{"SH_ID_36":"10g8out","区36":"1","地址":"黄河路215弄","lng":121.46869690522124,"lat":31.236468555051633,"确诊日期36":"v"},{"SH_ID_36":"10g8ouu","区36":"1","地址":"黄河路245弄","lng":121.4707893623437,"lat":31.233764387264134,"确诊日期36":"v"},{"SH_ID_36":"10g8ouv","区36":"1","地址":"黄河路253弄","lng":121.46739801486014,"lat":31.23717201532008,"确诊日期36":"v"},{"SH_ID_36":"10g8ouw","区36":"1","地址":"黄家路88弄","lng":121.49615289345807,"lat":31.21549647510743,"确诊日期36":"v"},{"SH_ID_36":"10g8oux","区36":"1","地址":"黄家路99弄","lng":121.49671595343338,"lat":31.215954644047994,"确诊日期36":"v"},{"SH_ID_36":"10g8ouy","区36":"1","地址":"黄家阙路68弄","lng":121.48736336645743,"lat":31.215157985847274,"确诊日期36":"v"},{"SH_ID_36":"10g8ouz","区36":"1","地址":"黄家阙路72弄","lng":121.48743345319794,"lat":31.21486551990524,"确诊日期36":"v"},{"SH_ID_36":"10g8ov0","区36":"1","地址":"黄家阙路76弄","lng":121.48753130132653,"lat":31.21481797970679,"确诊日期36":"v"},{"SH_ID_36":"10g8ov1","区36":"1","地址":"黄家阙路88弄","lng":121.48761863320598,"lat":31.214748322457375,"确诊日期36":"v"},{"SH_ID_36":"10g8ov2","区36":"1","地址":"徽宁路518号","lng":121.48811827611385,"lat":31.209149124768757,"确诊日期36":"v"},{"SH_ID_36":"10g8ov3","区36":"1","地址":"会稽路38弄","lng":121.48186545868408,"lat":31.22276364216108,"确诊日期36":"v"},{"SH_ID_36":"10g8ov4","区36":"1","地址":"火腿弄35号","lng":121.49583904487139,"lat":31.22137270257265,"确诊日期36":"v"},{"SH_ID_36":"10g8ov5","区36":"1","地址":"吉安路293弄","lng":121.481664044673,"lat":31.217693233904544,"确诊日期36":"v"},{"SH_ID_36":"10g8ov6","区36":"1","地址":"济南路297号","lng":121.4819776084313,"lat":31.21700281847591,"确诊日期36":"v"},{"SH_ID_36":"10g8ov7","区36":"1","地址":"建国东路50号","lng":121.48000700443002,"lat":31.213486677974746,"确诊日期36":"v"},{"SH_ID_36":"10g8ov8","区36":"1","地址":"建国西路110弄","lng":121.4652435407117,"lat":31.20813376507003,"确诊日期36":"v"},{"SH_ID_36":"10g8ov9","区36":"1","地址":"建国西路194号","lng":121.46229481373155,"lat":31.206861082917115,"确诊日期36":"v"},{"SH_ID_36":"10g8ova","区36":"1","地址":"建国西路25弄","lng":121.46609186880634,"lat":31.208191256416793,"确诊日期36":"v"},{"SH_ID_36":"10g8ovb","区36":"1","地址":"建国西路68号","lng":121.46543487377359,"lat":31.208211521988417,"确诊日期36":"v"},{"SH_ID_36":"10g8ovc","区36":"1","地址":"建国中路103弄","lng":121.46954421921477,"lat":31.20959179511861,"确诊日期36":"v"},{"SH_ID_36":"10g8ovd","区36":"1","地址":"建国中路1号","lng":121.47150834372336,"lat":31.210295577945416,"确诊日期36":"v"},{"SH_ID_36":"10g8ove","区36":"1","地址":"建国中路61弄","lng":121.47001583809887,"lat":31.209937916812883,"确诊日期36":"v"},{"SH_ID_36":"10g8ovf","区36":"1","地址":"江西南路176号","lng":121.48888481093702,"lat":31.23040773419486,"确诊日期36":"v"},{"SH_ID_36":"10g8ovg","区36":"1","地址":"江西中路114号","lng":121.48784639619176,"lat":31.233570573194708,"确诊日期36":"v"},{"SH_ID_36":"10g8ovh","区36":"1","地址":"江西中路128号","lng":121.48778451900687,"lat":31.233728027804457,"确诊日期36":"v"},{"SH_ID_36":"10g8ovi","区36":"1","地址":"江西中路135弄","lng":121.4865489561872,"lat":31.233648816408685,"确诊日期36":"v"},{"SH_ID_36":"10g8ovj","区36":"1","地址":"江西中路147号","lng":121.48736425131071,"lat":31.234389077612377,"确诊日期36":"v"},{"SH_ID_36":"10g8ovk","区36":"1","地址":"江西中路412弄","lng":121.48586091463862,"lat":31.241377767827323,"确诊日期36":"v"},{"SH_ID_36":"10g8ovl","区36":"1","地址":"江西中路422号","lng":121.48791079485345,"lat":31.23266084013426,"确诊日期36":"v"},{"SH_ID_36":"10g8ovm","区36":"1","地址":"江阴街203弄","lng":121.49107002471708,"lat":31.213955057837353,"确诊日期36":"v"},{"SH_ID_36":"10g8ovn","区36":"1","地址":"金陵东路12号","lng":121.491369896621,"lat":31.231689506923555,"确诊日期36":"v"},{"SH_ID_36":"10g8ovo","区36":"1","地址":"金陵东路63号","lng":121.49108483741504,"lat":31.231403020949166,"确诊日期36":"v"},{"SH_ID_36":"10g8ovp","区36":"1","地址":"金陵路183号","lng":121.4919404896945,"lat":31.229298939256445,"确诊日期36":"v"},{"SH_ID_36":"10g8ovq","区36":"1","地址":"金陵西路60号","lng":121.47259036432008,"lat":31.22414956318654,"确诊日期36":"v"},{"SH_ID_36":"10g8ovr","区36":"1","地址":"进贤路250弄","lng":121.69226058734856,"lat":31.19315046020982,"确诊日期36":"v"},{"SH_ID_36":"10g8ovs","区36":"1","地址":"静修路114弄","lng":121.48726950260087,"lat":31.219212466870253,"确诊日期36":"v"},{"SH_ID_36":"10g8ovt","区36":"1","地址":"静修路12号","lng":121.4881418700325,"lat":31.219841514837075,"确诊日期36":"v"},{"SH_ID_36":"10g8ovu","区36":"1","地址":"静修路64弄","lng":121.48777604162106,"lat":31.220043666002546,"确诊日期36":"v"},{"SH_ID_36":"10g8ovv","区36":"1","地址":"九江路210号","lng":121.48602138861925,"lat":31.236931598505077,"确诊日期36":"v"},{"SH_ID_36":"10g8ovw","区36":"1","地址":"九江路619号","lng":121.47862199495495,"lat":31.234406695294066,"确诊日期36":"v"},{"SH_ID_36":"10g8ovx","区36":"1","地址":"局门路215号","lng":121.48061765483187,"lat":31.20673565847987,"确诊日期36":"v"},{"SH_ID_36":"10g8ovy","区36":"1","地址":"局门路217号","lng":121.48081458535648,"lat":31.206486777782498,"确诊日期36":"v"},{"SH_ID_36":"10g8ovz","区36":"1","地址":"局门路241弄","lng":121.48055111419188,"lat":31.207900766717092,"确诊日期36":"v"},{"SH_ID_36":"10g8ow0","区36":"1","地址":"局门路434弄","lng":121.48096308541288,"lat":31.202673060892327,"确诊日期36":"v"},{"SH_ID_36":"10g8ow1","区36":"1","地址":"巨鹿路1号","lng":121.46907463919784,"lat":31.2236941145243,"确诊日期36":"v"},{"SH_ID_36":"10g8ow2","区36":"1","地址":"巨鹿路260弄","lng":121.46194317572193,"lat":31.22321977274925,"确诊日期36":"v"},{"SH_ID_36":"10g8ow3","区36":"1","地址":"巨鹿路367号","lng":121.45994901788183,"lat":31.22289616137175,"确诊日期36":"v"},{"SH_ID_36":"10g8ow4","区36":"1","地址":"巨鹿路403号","lng":121.45820734667201,"lat":31.22247958174715,"确诊日期36":"v"},{"SH_ID_36":"10g8ow5","区36":"1","地址":"聚奎新村","lng":121.49639116608792,"lat":31.223490592722012,"确诊日期36":"v"},{"SH_ID_36":"10g8ow6","区36":"1","地址":"老重庆中路58号","lng":121.47060092812735,"lat":31.22209752859268,"确诊日期36":"v"},{"SH_ID_36":"10g8ow7","区36":"1","地址":"老重庆中路64弄","lng":121.4704759778581,"lat":31.222178855947742,"确诊日期36":"v"},{"SH_ID_36":"10g8ow8","区36":"1","地址":"丽园路1016弄","lng":121.47221632369275,"lat":31.205603201692735,"确诊日期36":"v"},{"SH_ID_36":"10g8ow9","区36":"1","地址":"丽园路1032弄","lng":121.47212035211912,"lat":31.205213959302792,"确诊日期36":"v"},{"SH_ID_36":"10g8owa","区36":"1","地址":"丽园路43弄","lng":121.48937207489544,"lat":31.21145724284757,"确诊日期36":"v"},{"SH_ID_36":"10g8owb","区36":"1","地址":"丽园路468号","lng":121.4825386773413,"lat":31.208134221463904,"确诊日期36":"v"},{"SH_ID_36":"10g8owc","区36":"1","地址":"丽园路53号","lng":121.48949587287468,"lat":31.210939125996795,"确诊日期36":"v"},{"SH_ID_36":"10g8owd","区36":"1","地址":"丽园路68弄","lng":121.48979946871164,"lat":31.210440526710297,"确诊日期36":"v"},{"SH_ID_36":"10g8owe","区36":"1","地址":"丽园路842弄","lng":121.47620108375804,"lat":31.205829983297754,"确诊日期36":"v"},{"SH_ID_36":"10g8owf","区36":"1","地址":"丽园路871号","lng":121.47628478330232,"lat":31.2068011918414,"确诊日期36":"v"},{"SH_ID_36":"10g8owg","区36":"1","地址":"柳市路1弄","lng":121.49917232045648,"lat":31.212918754901622,"确诊日期36":"v"},{"SH_ID_36":"10g8owh","区36":"1","地址":"柳市路95号","lng":121.49898863329989,"lat":31.212053362076205,"确诊日期36":"v"},{"SH_ID_36":"10g8owi","区36":"1","地址":"龙华东路385号","lng":121.47922480982673,"lat":31.195707925507158,"确诊日期36":"v"},{"SH_ID_36":"10g8owj","区36":"1","地址":"龙华东路522号","lng":121.48005258626876,"lat":31.19483669596265,"确诊日期36":"v"},{"SH_ID_36":"10g8owk","区36":"1","地址":"龙华东路888弄","lng":121.47143643325686,"lat":31.19323976342984,"确诊日期36":"v"},{"SH_ID_36":"10g8owl","区36":"1","地址":"鲁班路100号","lng":121.473290103799,"lat":31.206850289043803,"确诊日期36":"v"},{"SH_ID_36":"10g8owm","区36":"1","地址":"鲁班路277弄","lng":121.47543377856286,"lat":31.204916878716773,"确诊日期36":"v"},{"SH_ID_36":"10g8own","区36":"1","地址":"鲁班路388弄","lng":121.47470179606817,"lat":31.20162633576788,"确诊日期36":"v"},{"SH_ID_36":"10g8owo","区36":"1","地址":"鲁班路509弄","lng":121.47792269887793,"lat":31.201404407876378,"确诊日期36":"v"},{"SH_ID_36":"10g8owp","区36":"1","地址":"鲁班路721弄","lng":121.47849151754124,"lat":31.197103822006607,"确诊日期36":"v"},{"SH_ID_36":"10g8owq","区36":"1","地址":"鲁班路88弄","lng":121.47272182820818,"lat":31.207120458193955,"确诊日期36":"v"},{"SH_ID_36":"10g8owr","区36":"1","地址":"陆家浜路1034弄","lng":121.48922390099472,"lat":31.21175095363969,"确诊日期36":"v"},{"SH_ID_36":"10g8ows","区36":"1","地址":"陆家浜路1382弄","lng":121.48372647251328,"lat":31.21044262805775,"确诊日期36":"v"},{"SH_ID_36":"10g8owt","区36":"1","地址":"陆家浜路305弄","lng":121.50066992795269,"lat":31.211959540515277,"确诊日期36":"v"},{"SH_ID_36":"10g8owu","区36":"1","地址":"陆家浜路413弄","lng":121.49968809829348,"lat":31.21236101674157,"确诊日期36":"v"},{"SH_ID_36":"10g8owv","区36":"1","地址":"陆家浜路468弄","lng":121.49732765374623,"lat":31.210400265573462,"确诊日期36":"v"},{"SH_ID_36":"10g8oww","区36":"1","地址":"陆家浜路521弄","lng":121.49767977813252,"lat":31.212845801638053,"确诊日期36":"v"},{"SH_ID_36":"10g8owx","区36":"1","地址":"陆家浜路804弄","lng":121.4929147584119,"lat":31.212012387256674,"确诊日期36":"v"},{"SH_ID_36":"10g8owy","区36":"1","地址":"马当路222弄","lng":121.47416104192992,"lat":31.219322144423145,"确诊日期36":"v"},{"SH_ID_36":"10g8owz","区36":"1","地址":"马当路245号","lng":121.47519033301076,"lat":31.217636846149873,"确诊日期36":"v"},{"SH_ID_36":"10g8ox0","区36":"1","地址":"马当路258号","lng":121.47439322940825,"lat":31.218076314874672,"确诊日期36":"v"},{"SH_ID_36":"10g8ox1","区36":"1","地址":"马当路260号","lng":121.47454874674274,"lat":31.21815751355256,"确诊日期36":"v"},{"SH_ID_36":"10g8ox2","区36":"1","地址":"马当路278弄","lng":121.47361585365957,"lat":31.21784365070132,"确诊日期36":"v"},{"SH_ID_36":"10g8ox3","区36":"1","地址":"马当路301弄","lng":121.47566888894731,"lat":31.215418367191273,"确诊日期36":"v"},{"SH_ID_36":"10g8ox4","区36":"1","地址":"马当路318弄","lng":121.47431763173957,"lat":31.217332978307923,"确诊日期36":"v"},{"SH_ID_36":"10g8ox5","区36":"1","地址":"毛家园路88弄","lng":121.5029527859945,"lat":31.218755478693776,"确诊日期36":"v"},{"SH_ID_36":"10g8ox6","区36":"1","地址":"茂名南路53号","lng":121.46068116714105,"lat":31.221682537010082,"确诊日期36":"v"},{"SH_ID_36":"10g8ox7","区36":"1","地址":"茂名南路56弄","lng":121.4602956160656,"lat":31.22147588544186,"确诊日期36":"v"},{"SH_ID_36":"10g8ox8","区36":"1","地址":"蒙自路218号","lng":121.47719294013001,"lat":31.205456252275525,"确诊日期36":"v"},{"SH_ID_36":"10g8ox9","区36":"1","地址":"蒙自路501弄","lng":121.48025250957188,"lat":31.201201158198714,"确诊日期36":"v"},