[{"SH_ID_36":"10foia9","区36":"d","地址":"丹霞山路257弄","lng":121.36304593278072,"lat":31.36208542745749,"确诊日期36":"6"},{"SH_ID_36":"10foiac","区36":"d","地址":"淞发路901弄","lng":121.48713119286087,"lat":31.34272499872045,"确诊日期36":"6"},{"SH_ID_36":"10foiad","区36":"d","地址":"淞发路901弄","lng":121.48710399244226,"lat":31.34263530361331,"确诊日期36":"6"},{"SH_ID_36":"10foiab","区36":"1","地址":"南昌路282号","lng":121.46300858480218,"lat":31.217332668334443,"确诊日期36":"6"},{"SH_ID_36":"10foiaa","区36":"1","地址":"顺昌路612弄","lng":121.4794349205705,"lat":31.211120023026947,"确诊日期36":"6"},{"SH_ID_36":"10foia5","区36":"1","地址":"徐家汇路388号","lng":121.47419877630264,"lat":31.20913992079389,"确诊日期36":"6"},{"SH_ID_36":"10foia0","区36":"e","地址":"曹南路12弄","lng":121.35260327397239,"lat":31.26001770204977,"确诊日期36":"6"},{"SH_ID_36":"10foia1","区36":"e","地址":"曹南路12弄","lng":121.3524575075994,"lat":31.260136671960932,"确诊日期36":"6"},{"SH_ID_36":"10foi9z","区36":"e","地址":"鹤霞路555弄","lng":121.29714852852682,"lat":31.285809073199545,"确诊日期36":"6"},{"SH_ID_36":"10foia7","区36":"g","地址":"横浦村","lng":121.2966412923978,"lat":30.744411299198422,"确诊日期36":"6"},{"SH_ID_36":"10foia8","区36":"g","地址":"横浦村","lng":121.2965846527959,"lat":30.74445392053653,"确诊日期36":"6"},{"SH_ID_36":"10foial","区36":"g","地址":"龙轩路1989弄","lng":121.31994340884322,"lat":30.7429147078628,"确诊日期36":"6"},{"SH_ID_36":"10foia6","区36":"g","地址":"南阳湾路1288弄","lng":121.31396548830678,"lat":30.736270467341953,"确诊日期36":"6"},{"SH_ID_36":"10foi9t","区36":"6","地址":"塘沽路933号","lng":121.47768930356767,"lat":31.245672721810983,"确诊日期36":"6"},{"SH_ID_36":"10foi9w","区36":"6","地址":"宜川路733弄","lng":121.43930842274325,"lat":31.27010411744249,"确诊日期36":"6"},{"SH_ID_36":"10foia4","区36":"c","地址":"漕宝路1508弄","lng":121.38450833237758,"lat":31.15601811578428,"确诊日期36":"6"},{"SH_ID_36":"10foi9u","区36":"c","地址":"春申路1581弄","lng":121.43206970034801,"lat":31.114017417258072,"确诊日期36":"6"},{"SH_ID_36":"10foi9t","区36":"c","地址":"东川路800号","lng":121.43622750516955,"lat":31.0240279055862,"确诊日期36":"6"},{"SH_ID_36":"10foiaj","区36":"c","地址":"东川路800号","lng":121.43628994797959,"lat":31.024177100683914,"确诊日期36":"6"},{"SH_ID_36":"10foiak","区36":"c","地址":"东川路800号","lng":121.43622064888277,"lat":31.023858321394012,"确诊日期36":"6"},{"SH_ID_36":"10foiae","区36":"c","地址":"虹梅南路1008号","lng":121.42445796664241,"lat":31.12373182502029,"确诊日期36":"6"},{"SH_ID_36":"10foiaf","区36":"c","地址":"剑川路中铁四局工地宿舍","lng":121.35339586626156,"lat":31.00677046320733,"确诊日期36":"6"},{"SH_ID_36":"10foiag","区36":"c","地址":"剑川路中铁四局工地宿舍","lng":121.35343980488224,"lat":31.006836013222962,"确诊日期36":"6"},{"SH_ID_36":"10foiah","区36":"c","地址":"剑川路中铁四局工地宿舍","lng":121.35325746533482,"lat":31.007018834634657,"确诊日期36":"6"},{"SH_ID_36":"10foiai","区36":"c","地址":"剑川路中铁四局工地宿舍","lng":121.35349484367323,"lat":31.00674740303067,"确诊日期36":"6"},{"SH_ID_36":"10foi9y","区36":"c","地址":"罗秀路1377号","lng":121.41776086247043,"lat":31.128423903809725,"确诊日期36":"6"},{"SH_ID_36":"10foiau","区36":"f","地址":"城南路818号","lng":121.76742575196887,"lat":31.04177704861639,"确诊日期36":"6"},{"SH_ID_36":"10foibj","区36":"f","地址":"川沙六团七灶北张家宅","lng":121.7056978407108,"lat":31.14028997270245,"确诊日期36":"6"},{"SH_ID_36":"10foi9v","区36":"f","地址":"创新西路75弄","lng":121.65583928453034,"lat":31.2027743774165,"确诊日期36":"6"},{"SH_ID_36":"10foibk","区36":"f","地址":"芬菊路199号工地宿舍","lng":121.6224454411854,"lat":31.313206316774746,"确诊日期36":"6"},{"SH_ID_36":"10foib4","区36":"f","地址":"扶栏村下塘一组","lng":121.74496155322502,"lat":30.998751422192914,"确诊日期36":"6"},{"SH_ID_36":"10foib1","区36":"f","地址":"拱海路79弄","lng":121.7364125174202,"lat":31.069678791388267,"确诊日期36":"6"},{"SH_ID_36":"10foiav","区36":"f","地址":"拱鸣路60弄","lng":121.7447823718427,"lat":31.05987772230491,"确诊日期36":"6"},{"SH_ID_36":"10foiay","区36":"f","地址":"拱鸣路60弄","lng":121.74458115198898,"lat":31.059824217346055,"确诊日期36":"6"},{"SH_ID_36":"10foiaq","区36":"f","地址":"拱鸣路95弄","lng":121.74395407702646,"lat":31.061070277849325,"确诊日期36":"6"},{"SH_ID_36":"10foiaw","区36":"f","地址":"拱为路2600弄","lng":121.73970879289865,"lat":31.058102197998394,"确诊日期36":"6"},{"SH_ID_36":"10foib9","区36":"f","地址":"花木路500弄花木苑","lng":121.54327803941696,"lat":31.21019112378545,"确诊日期36":"6"},{"SH_ID_36":"10foib7","区36":"f","地址":"华夏东路1260弄","lng":121.67331588654855,"lat":31.196350580352185,"确诊日期36":"6"},{"SH_ID_36":"10foiba","区36":"f","地址":"华夏二路200弄","lng":121.68405548980382,"lat":31.193892562458824,"确诊日期36":"6"},{"SH_ID_36":"10foiap","区36":"f","地址":"佳林路115弄","lng":121.60836084514465,"lat":31.269176938867922,"确诊日期36":"6"},{"SH_ID_36":"10foiao","区36":"f","地址":"金工路133弄","lng":121.58751024275378,"lat":31.25617788680704,"确诊日期36":"6"},{"SH_ID_36":"10foibd","区36":"f","地址":"巨峰路667弄","lng":121.60099661751178,"lat":31.282407258507973,"确诊日期36":"6"},{"SH_ID_36":"10foibe","区36":"f","地址":"巨峰路667弄","lng":121.6011853745336,"lat":31.282207670719814,"确诊日期36":"6"},{"SH_ID_36":"10foian","区36":"f","地址":"利津路729弄","lng":121.59007303403367,"lat":31.275285121450796,"确诊日期36":"6"},{"SH_ID_36":"10foib8","区36":"f","地址":"牟平路384弄","lng":121.60034357341979,"lat":31.261399483826125,"确诊日期36":"6"},{"SH_ID_36":"10foibb","区36":"f","地址":"浦东大道2778弄","lng":121.57553121558861,"lat":31.269328588877418,"确诊日期36":"6"},{"SH_ID_36":"10foibg","区36":"f","地址":"勤政路88弄","lng":121.62438083154855,"lat":31.173048093156712,"确诊日期36":"6"},{"SH_ID_36":"10foib2","区36":"f","地址":"听潮南路77弄","lng":121.74184075449666,"lat":31.037343435761944,"确诊日期36":"6"},{"SH_ID_36":"10foib3","区36":"f","地址":"听潮南路77弄","lng":121.7417414056895,"lat":31.03745062245372,"确诊日期36":"6"},{"SH_ID_36":"10foias","区36":"f","地址":"听悦路1205弄","lng":121.7381367203823,"lat":31.064291863444748,"确诊日期36":"6"},{"SH_ID_36":"10foiar","区36":"f","地址":"听悦路685弄","lng":121.73714026599947,"lat":31.05505193087342,"确诊日期36":"6"},{"SH_ID_36":"10foiat","区36":"f","地址":"听悦路685弄","lng":121.73710492915662,"lat":31.055020876361837,"确诊日期36":"6"},{"SH_ID_36":"10foiaz","区36":"f","地址":"听悦路685弄","lng":121.73713925127332,"lat":31.055046308476594,"确诊日期36":"6"},{"SH_ID_36":"10foib6","区36":"f","地址":"听悦路685弄","lng":121.73697241260822,"lat":31.05497192337255,"确诊日期36":"6"},{"SH_ID_36":"10foiax","区36":"f","地址":"听悦路960弄","lng":121.73976855448583,"lat":31.059868200438157,"确诊日期36":"6"},{"SH_ID_36":"10foibf","区36":"f","地址":"通济路616弄","lng":121.74592685012209,"lat":31.05723068016462,"确诊日期36":"6"},{"SH_ID_36":"10foiam","区36":"f","地址":"五莲路780弄","lng":121.590720571462,"lat":31.268820668127226,"确诊日期36":"6"},{"SH_ID_36":"10foib0","区36":"f","地址":"迎薰路215弄","lng":121.73711635017267,"lat":31.036480693349166,"确诊日期36":"6"},{"SH_ID_36":"10foib5","区36":"f","地址":"园艺村","lng":121.74858823773546,"lat":30.982540764025206,"确诊日期36":"6"},{"SH_ID_36":"10foibc","区36":"f","地址":"云台路183弄","lng":121.5044359254589,"lat":31.179345883526402,"确诊日期36":"6"},{"SH_ID_36":"10foia3","区36":"h","地址":"沪松公路2517弄","lng":121.28526283474976,"lat":31.11403424172072,"确诊日期36":"6"},{"SH_ID_36":"10foia2","区36":"4","地址":"田林路118号","lng":121.41644270418021,"lat":31.17070875214418,"确诊日期36":"6"},{"SH_ID_36":"10foi9x","区36":"5","地址":"茅台路353弄","lng":121.39721633381524,"lat":31.20978219248846,"确诊日期36":"6"},{"SH_ID_36":"10foibh","区36":"5","地址":"协和路193号","lng":121.35636791931167,"lat":31.20780374122664,"确诊日期36":"6"}]