[{"SH_ID_36":"10g9dqa","区36":"d","地址":"爱辉路1018弄","lng":121.44693084263137,"lat":31.345801750766984,"确诊日期36":"y"},{"SH_ID_36":"10g9dq7","区36":"d","地址":"爱辉路171号","lng":121.44940133956844,"lat":31.341577934880547,"确诊日期36":"y"},{"SH_ID_36":"10g9dq8","区36":"d","地址":"爱辉路213号","lng":121.45452708498291,"lat":31.33285050249327,"确诊日期36":"y"},{"SH_ID_36":"10g9dq5","区36":"d","地址":"爱辉路27弄","lng":121.45545977477458,"lat":31.32782860560935,"确诊日期36":"y"},{"SH_ID_36":"10g9dq9","区36":"d","地址":"爱辉路319号","lng":121.4534697112195,"lat":31.33490318984837,"确诊日期36":"y"},{"SH_ID_36":"10g9dq6","区36":"d","地址":"爱辉路49号","lng":121.45568775969812,"lat":31.32813689019246,"确诊日期36":"y"},{"SH_ID_36":"10g9dqb","区36":"d","地址":"安达路5号","lng":121.4957274186421,"lat":31.36365145568047,"确诊日期36":"y"},{"SH_ID_36":"10g9dqc","区36":"d","地址":"安家路165弄","lng":121.42695067291447,"lat":31.40972344499687,"确诊日期36":"y"},{"SH_ID_36":"10g9e7j","区36":"d","地址":"八字桥村","lng":121.4679793725546,"lat":31.39040869820437,"确诊日期36":"y"},{"SH_ID_36":"10g9dqd","区36":"d","地址":"白沙园路333弄","lng":121.42901404682509,"lat":31.391627399455942,"确诊日期36":"y"},{"SH_ID_36":"10g9e7k","区36":"d","地址":"白杨村","lng":121.39623675335162,"lat":31.342310965297514,"确诊日期36":"y"},{"SH_ID_36":"10g9e7l","区36":"d","地址":"宝城二村","lng":121.48933170884388,"lat":31.408793369816095,"确诊日期36":"y"},{"SH_ID_36":"10g9dqe","区36":"d","地址":"宝荻路516号","lng":121.39665455041563,"lat":31.361179934774487,"确诊日期36":"y"},{"SH_ID_36":"10g9dqf","区36":"d","地址":"宝东路888弄","lng":121.49871584380915,"lat":31.399911270426873,"确诊日期36":"y"},{"SH_ID_36":"10g9e7s","区36":"d","地址":"宝钢八村","lng":121.47907819956133,"lat":31.407820518300156,"确诊日期36":"y"},{"SH_ID_36":"10g9e7n","区36":"d","地址":"宝钢二村","lng":121.48434589541108,"lat":31.404113354019707,"确诊日期36":"y"},{"SH_ID_36":"10g9e7t","区36":"d","地址":"宝钢九村","lng":121.4758441345803,"lat":31.406639981650954,"确诊日期36":"y"},{"SH_ID_36":"10g9e7q","区36":"d","地址":"宝钢六村","lng":121.48060245718962,"lat":31.404147504377825,"确诊日期36":"y"},{"SH_ID_36":"10g9e7r","区36":"d","地址":"宝钢七村","lng":121.48276598038291,"lat":31.409240935880824,"确诊日期36":"y"},{"SH_ID_36":"10g9e7o","区36":"d","地址":"宝钢三村","lng":121.4811319569311,"lat":31.40303466058437,"确诊日期36":"y"},{"SH_ID_36":"10g9e7u","区36":"d","地址":"宝钢十村","lng":121.47862052579538,"lat":31.40235966090336,"确诊日期36":"y"},{"SH_ID_36":"10g9e7p","区36":"d","地址":"宝钢四村","lng":121.48646965360727,"lat":31.406806524327425,"确诊日期36":"y"},{"SH_ID_36":"10g9e7m","区36":"d","地址":"宝钢一村","lng":121.48719501624075,"lat":31.40500831371779,"确诊日期36":"y"},{"SH_ID_36":"10g9dqg","区36":"d","地址":"宝菊路133弄","lng":121.36525513751386,"lat":31.34265233991179,"确诊日期36":"y"},{"SH_ID_36":"10g9dqh","区36":"d","地址":"宝菊路655号","lng":121.36252926423826,"lat":31.353683939502297,"确诊日期36":"y"},{"SH_ID_36":"10g9e7y","区36":"d","地址":"宝林六村","lng":121.4989682054765,"lat":31.402397848301003,"确诊日期36":"y"},{"SH_ID_36":"10g9dqi","区36":"d","地址":"宝林路277号","lng":121.48660975548296,"lat":31.401352887474765,"确诊日期36":"y"},{"SH_ID_36":"10g9e7z","区36":"d","地址":"宝林七村","lng":121.49525019512463,"lat":31.405456776612095,"确诊日期36":"y"},{"SH_ID_36":"10g9e7w","区36":"d","地址":"宝林三村","lng":121.49356159712877,"lat":31.402009402248105,"确诊日期36":"y"},{"SH_ID_36":"10g9e7x","区36":"d","地址":"宝林五村","lng":121.49148796364639,"lat":31.405671879017408,"确诊日期36":"y"},{"SH_ID_36":"10g9e7v","区36":"d","地址":"宝林一村","lng":121.48335811524133,"lat":31.400514822935715,"确诊日期36":"y"},{"SH_ID_36":"10g9e83","区36":"d","地址":"宝山八村","lng":121.4945999065805,"lat":31.395788482268156,"确诊日期36":"y"},{"SH_ID_36":"10g9e81","区36":"d","地址":"宝山二村","lng":121.50027073289333,"lat":31.39367821905661,"确诊日期36":"y"},{"SH_ID_36":"10g9e84","区36":"d","地址":"宝山九村","lng":121.49666655274488,"lat":31.399982277724675,"确诊日期36":"y"},{"SH_ID_36":"10g9e82","区36":"d","地址":"宝山三村","lng":121.49712357440431,"lat":31.39342496994633,"确诊日期36":"y"},{"SH_ID_36":"10g9e80","区36":"d","地址":"宝山一村","lng":121.503026530726,"lat":31.396671156575334,"确诊日期36":"y"},{"SH_ID_36":"10g9dql","区36":"d","地址":"宝杨路1850号","lng":121.47605944627897,"lat":31.392228633314097,"确诊日期36":"y"},{"SH_ID_36":"10g9dqm","区36":"d","地址":"宝杨路2000号","lng":121.47110903841221,"lat":31.391084261574335,"确诊日期36":"y"},{"SH_ID_36":"10g9dqn","区36":"d","地址":"宝杨路2050号","lng":121.46286526217206,"lat":31.385602485994358,"确诊日期36":"y"},{"SH_ID_36":"10g9dqo","区36":"d","地址":"宝杨路2121号","lng":121.45535975300585,"lat":31.383813595294196,"确诊日期36":"y"},{"SH_ID_36":"10g9dqj","区36":"d","地址":"宝杨路258号","lng":121.49846043047461,"lat":31.401284453520642,"确诊日期36":"y"},{"SH_ID_36":"10g9dqp","区36":"d","地址":"宝杨路3176号","lng":121.4398298103647,"lat":31.374742568859165,"确诊日期36":"y"},{"SH_ID_36":"10g9dqq","区36":"d","地址":"宝杨路3211号","lng":121.43866094798567,"lat":31.374906887728184,"确诊日期36":"y"},{"SH_ID_36":"10g9dqr","区36":"d","地址":"宝杨路3256弄","lng":121.43778787210846,"lat":31.372117845321675,"确诊日期36":"y"},{"SH_ID_36":"10g9dqs","区36":"d","地址":"宝杨路3288弄","lng":121.43751333534334,"lat":31.371121922019878,"确诊日期36":"y"},{"SH_ID_36":"10g9dqk","区36":"d","地址":"宝杨路555弄","lng":121.49212842279208,"lat":31.4012916321847,"确诊日期36":"y"},{"SH_ID_36":"10g9dqt","区36":"d","地址":"保德路448弄","lng":121.45842002625358,"lat":31.317575670118867,"确诊日期36":"y"},{"SH_ID_36":"10g9e85","区36":"d","地址":"北金村","lng":121.3578165004238,"lat":31.38510853552391,"确诊日期36":"y"},{"SH_ID_36":"10g9e86","区36":"d","地址":"北宗村","lng":121.40312627502963,"lat":31.388052746163744,"确诊日期36":"y"},{"SH_ID_36":"10g9dqu","区36":"d","地址":"布长街25弄","lng":121.34522499436879,"lat":31.411309323414788,"确诊日期36":"y"},{"SH_ID_36":"10g9dqv","区36":"d","地址":"布长街52弄","lng":121.34467175290165,"lat":31.411843563724787,"确诊日期36":"y"},{"SH_ID_36":"10g9dqw","区36":"d","地址":"采江路9弄","lng":121.48332573472187,"lat":31.413508198340658,"确诊日期36":"y"},{"SH_ID_36":"10g9e87","区36":"d","地址":"蔡家弄村","lng":121.36575664069835,"lat":31.372992100152352,"确诊日期36":"y"},{"SH_ID_36":"10g9dro","区36":"d","地址":"场北路1079号","lng":121.42016863740623,"lat":31.336477634400612,"确诊日期36":"y"},{"SH_ID_36":"10g9drm","区36":"d","地址":"场北路39弄","lng":121.43647664381228,"lat":31.33451104166719,"确诊日期36":"y"},{"SH_ID_36":"10g9drn","区36":"d","地址":"场北路704号","lng":121.42527271263315,"lat":31.33200779492324,"确诊日期36":"y"},{"SH_ID_36":"10g9e88","区36":"d","地址":"场南村","lng":121.41600834728536,"lat":31.289526740155026,"确诊日期36":"y"},{"SH_ID_36":"10g9e89","区36":"d","地址":"场中村","lng":121.41545967209791,"lat":31.29784080268105,"确诊日期36":"y"},{"SH_ID_36":"10g9drp","区36":"d","地址":"场中路3658弄","lng":121.4261878601805,"lat":31.301764085591284,"确诊日期36":"y"},{"SH_ID_36":"10g9drr","区36":"d","地址":"陈川路1051号","lng":121.3238036981489,"lat":31.472503170586673,"确诊日期36":"y"},{"SH_ID_36":"10g9drq","区36":"d","地址":"陈川路555弄","lng":121.33285976879428,"lat":31.47814985677223,"确诊日期36":"y"},{"SH_ID_36":"10g9drs","区36":"d","地址":"陈功路666弄","lng":121.32997073314898,"lat":31.483082932251378,"确诊日期36":"y"},{"SH_ID_36":"10g9e8a","区36":"d","地址":"陈家行村","lng":121.35069646798223,"lat":31.327522030152483,"确诊日期36":"y"},{"SH_ID_36":"10g9e8b","区36":"d","地址":"陈巷村","lng":121.47386248996266,"lat":31.376730706620112,"确诊日期36":"y"},{"SH_ID_36":"10g9drt","区36":"d","地址":"陈行街17弄","lng":121.34373788571595,"lat":31.47886334228721,"确诊日期36":"y"},{"SH_ID_36":"10g9e8c","区36":"d","地址":"城西二村","lng":121.43424079367806,"lat":31.39378889213579,"确诊日期36":"y"},{"SH_ID_36":"10g9dru","区36":"d","地址":"城银路555弄","lng":121.34985344815306,"lat":31.314494374609573,"确诊日期36":"y"},{"SH_ID_36":"10g9e8d","区36":"d","地址":"川沙村","lng":121.37129742539335,"lat":31.475089504255127,"确诊日期36":"y"},{"SH_ID_36":"10g9drv","区36":"d","地址":"春雷路136弄","lng":121.43361027251963,"lat":31.404975343365575,"确诊日期36":"y"},{"SH_ID_36":"10g9drw","区36":"d","地址":"春雷路331弄","lng":121.43588173239522,"lat":31.40931427589804,"确诊日期36":"y"},{"SH_ID_36":"10g9drx","区36":"d","地址":"春雷路354弄","lng":121.43328452947631,"lat":31.41158244744028,"确诊日期36":"y"},{"SH_ID_36":"10g9dry","区36":"d","地址":"春雷路431弄","lng":121.43649451610263,"lat":31.410098356389273,"确诊日期36":"y"},{"SH_ID_36":"10g9e8e","区36":"d","地址":"大华二村","lng":121.42020971536529,"lat":31.273810901995763,"确诊日期36":"y"},{"SH_ID_36":"10g9drz","区36":"d","地址":"大华路455弄","lng":121.41552755665238,"lat":31.27117121776987,"确诊日期36":"y"},{"SH_ID_36":"10g9ds0","区36":"d","地址":"大华路693弄","lng":121.41536137585985,"lat":31.274294953535325,"确诊日期36":"y"},{"SH_ID_36":"10g9ds1","区36":"d","地址":"大华三路66号","lng":121.41762026740719,"lat":31.276060167075485,"确诊日期36":"y"},{"SH_ID_36":"10g9ds2","区36":"d","地址":"大华三路81号","lng":121.41881857257023,"lat":31.275916159464906,"确诊日期36":"y"},{"SH_ID_36":"10g9ds3","区36":"d","地址":"大康路251号","lng":121.42723820818894,"lat":31.317386679225,"确诊日期36":"y"},{"SH_ID_36":"10g9ds4","区36":"d","地址":"大康路700号","lng":121.42577405314691,"lat":31.33205684012595,"确诊日期36":"y"},{"SH_ID_36":"10g9ds5","区36":"d","地址":"大康路891弄","lng":121.42331825446269,"lat":31.3304000989127,"确诊日期36":"y"},{"SH_ID_36":"10g9ds6","区36":"d","地址":"大康路896弄","lng":121.42334593280772,"lat":31.3306319962335,"确诊日期36":"y"},{"SH_ID_36":"10g9ds8","区36":"d","地址":"丹霞山路257弄","lng":121.36302338198755,"lat":31.361901587590257,"确诊日期36":"y"},{"SH_ID_36":"10g9ds7","区36":"d","地址":"丹霞山路50弄","lng":121.36225826367152,"lat":31.35907700037442,"确诊日期36":"y"},{"SH_ID_36":"10g9dsb","区36":"d","地址":"德都路165弄","lng":121.42662734105687,"lat":31.409173174894192,"确诊日期36":"y"},{"SH_ID_36":"10g9dsc","区36":"d","地址":"德都路168弄","lng":121.4250906247601,"lat":31.409237507311357,"确诊日期36":"y"},{"SH_ID_36":"10g9dsd","区36":"d","地址":"德都路218弄","lng":121.42308968020416,"lat":31.411335267298487,"确诊日期36":"y"},{"SH_ID_36":"10g9ds9","区36":"d","地址":"德都路28弄","lng":121.4253977481643,"lat":31.40330651548356,"确诊日期36":"y"},{"SH_ID_36":"10g9dse","区36":"d","地址":"德都路399弄","lng":121.42383170328308,"lat":31.41955678294704,"确诊日期36":"y"},{"SH_ID_36":"10g9dsa","区36":"d","地址":"德都路88弄","lng":121.4253516891813,"lat":31.40639883935783,"确诊日期36":"y"},{"SH_ID_36":"10g9dsf","区36":"d","地址":"电台路599弄","lng":121.39197041325879,"lat":31.356770506736545,"确诊日期36":"y"},{"SH_ID_36":"10g9e8f","区36":"d","地址":"东街村","lng":121.43770041407386,"lat":31.382306510480607,"确诊日期36":"y"},{"SH_ID_36":"10g9e8g","区36":"d","地址":"东界泾村","lng":121.33821309156875,"lat":31.411783549272435,"确诊日期36":"y"},{"SH_ID_36":"10g9e8h","区36":"d","地址":"东南弄村","lng":121.35052701912478,"lat":31.412358627613635,"确诊日期36":"y"},{"SH_ID_36":"10g9dsg","区36":"d","地址":"东升路75号","lng":121.49953546616432,"lat":31.374418720587283,"确诊日期36":"y"},{"SH_ID_36":"10g9dsh","区36":"d","地址":"东太东路777号","lng":121.37198280531277,"lat":31.389572644561323,"确诊日期36":"y"},{"SH_ID_36":"10g9dsi","区36":"d","地址":"东太东路838号","lng":121.37151014240216,"lat":31.388903918502127,"确诊日期36":"y"},{"SH_ID_36":"10g9dsj","区36":"d","地址":"东太东路885号","lng":121.36987376371698,"lat":31.388123987904976,"确诊日期36":"y"},{"SH_ID_36":"10g9dsm","区36":"d","地址":"东太路118号","lng":121.36556788767119,"lat":31.386357930579994,"确诊日期36":"y"},{"SH_ID_36":"10g9dsn","区36":"d","地址":"东太路362号","lng":121.36149504294987,"lat":31.384324333479395,"确诊日期36":"y"},{"SH_ID_36":"10g9dsk","区36":"d","地址":"东太路44号","lng":121.36131656118863,"lat":31.384557310434563,"确诊日期36":"y"},{"SH_ID_36":"10g9dsl","区36":"d","地址":"东太路80弄","lng":121.36728360318968,"lat":31.386096643753266,"确诊日期36":"y"},{"SH_ID_36":"10g9dso","区36":"d","地址":"东西巷街79弄","lng":121.34206078278638,"lat":31.41401766673522,"确诊日期36":"y"},{"SH_ID_36":"10g9e8i","区36":"d","地址":"段泾村","lng":121.39627751872546,"lat":31.4216187241468,"确诊日期36":"y"},{"SH_ID_36":"10g9dsp","区36":"d","地址":"鄂尔多斯路67弄","lng":121.39073133158838,"lat":31.29494252116239,"确诊日期36":"y"},{"SH_ID_36":"10g9dsq","区36":"d","地址":"鄂尔多斯路98弄","lng":121.39135086729773,"lat":31.295671158037432,"确诊日期36":"y"},{"SH_ID_36":"10g9e8j","区36":"d","地址":"繁荣村","lng":121.36145320411504,"lat":31.40811003322855,"确诊日期36":"y"},{"SH_ID_36":"10g9dsr","区36":"d","地址":"丰皓路138弄","lng":121.39491124376785,"lat":31.30522028369557,"确诊日期36":"y"},{"SH_ID_36":"10g9dss","区36":"d","地址":"丰皓路658弄","lng":121.38921110642734,"lat":31.306361430339063,"确诊日期36":"y"},{"SH_ID_36":"10g9dst","区36":"d","地址":"丰翔路619号","lng":121.36821132487589,"lat":31.309555004190283,"确诊日期36":"y"},{"SH_ID_36":"10g9e8k","区36":"d","地址":"葑村村","lng":121.37122780906905,"lat":31.316758823513645,"确诊日期36":"y"},{"SH_ID_36":"10g9dsv","区36":"d","地址":"抚远路1211号","lng":121.36240185084071,"lat":31.40842656355648,"确诊日期36":"y"},{"SH_ID_36":"10g9dsw","区36":"d","地址":"抚远路1211弄","lng":121.3625562271863,"lat":31.40830814673717,"确诊日期36":"y"},{"SH_ID_36":"10g9dsx","区36":"d","地址":"抚远路1288弄","lng":121.35964170838635,"lat":31.40827880259354,"确诊日期36":"y"},{"SH_ID_36":"10g9dsy","区36":"d","地址":"抚远路2588号","lng":121.35293080893264,"lat":31.42903436675261,"确诊日期36":"y"},{"SH_ID_36":"10g9dsu","区36":"d","地址":"抚远路885弄","lng":121.36567899076239,"lat":31.401603066196706,"确诊日期36":"y"},{"SH_ID_36":"10g9dsz","区36":"d","地址":"富锦路1815弄","lng":121.4339988387186,"lat":31.403171194202436,"确诊日期36":"y"},{"SH_ID_36":"10g9dt0","区36":"d","地址":"富锦路2785号","lng":121.39456381113511,"lat":31.393003439826504,"确诊日期36":"y"},{"SH_ID_36":"10g9dt1","区36":"d","地址":"富锦路4888号","lng":121.38147597198932,"lat":31.388758001322962,"确诊日期36":"y"},{"SH_ID_36":"10g9dt2","区36":"d","地址":"富锦路5332号","lng":121.36175847255635,"lat":31.382508650549607,"确诊日期36":"y"},{"SH_ID_36":"10g9dt6","区36":"d","地址":"富联路1188号","lng":121.40025980106567,"lat":31.372691678784918,"确诊日期36":"y"},{"SH_ID_36":"10g9dt3","区36":"d","地址":"富联路128弄","lng":121.41038126815235,"lat":31.35360873780395,"确诊日期36":"y"},{"SH_ID_36":"10g9dt4","区36":"d","地址":"富联路200号","lng":121.41278822792509,"lat":31.353979008226265,"确诊日期36":"y"},{"SH_ID_36":"10g9dt5","区36":"d","地址":"富联路646弄","lng":121.40739389243585,"lat":31.361116918398434,"确诊日期36":"y"},{"SH_ID_36":"10g9dt7","区36":"d","地址":"富南路199弄","lng":121.36603177998678,"lat":31.38975010516415,"确诊日期36":"y"},{"SH_ID_36":"10g9dt8","区36":"d","地址":"富杨路223号","lng":121.43696275721022,"lat":31.388325998219052,"确诊日期36":"y"},{"SH_ID_36":"10g9e8l","区36":"d","地址":"高椿树村","lng":121.35271596598575,"lat":31.46678678800778,"确诊日期36":"y"},{"SH_ID_36":"10g9e8m","区36":"d","地址":"高境村","lng":121.48720742880218,"lat":31.315483059227205,"确诊日期36":"y"},{"SH_ID_36":"10g9e8o","区36":"d","地址":"高境二村","lng":121.47890826193368,"lat":31.32217666844225,"确诊日期36":"y"},{"SH_ID_36":"10g9dt9","区36":"d","地址":"高境路477弄","lng":121.47178810662598,"lat":31.323736045255064,"确诊日期36":"y"},{"SH_ID_36":"10g9e8n","区36":"d","地址":"高境一村","lng":121.47834401128188,"lat":31.3191140002113,"确诊日期36":"y"},{"SH_ID_36":"10g9dta","区36":"d","地址":"高逸路110弄","lng":121.4888669489397,"lat":31.325865235529147,"确诊日期36":"y"},{"SH_ID_36":"10g9dtb","区36":"d","地址":"高跃路133弄","lng":121.47202497573019,"lat":31.318105490184806,"确诊日期36":"y"},{"SH_ID_36":"10g9dtd","区36":"d","地址":"革新路11号","lng":121.45520981414587,"lat":31.338906525051915,"确诊日期36":"y"},{"SH_ID_36":"10g9dte","区36":"d","地址":"革新路37号","lng":121.4518582592455,"lat":31.33809997582541,"确诊日期36":"y"},{"SH_ID_36":"10g9dtc","区36":"d","地址":"革新路7号","lng":121.45593988736915,"lat":31.33903009945032,"确诊日期36":"y"},{"SH_ID_36":"10g9e8q","区36":"d","地址":"共富二村","lng":121.43186702501244,"lat":31.350289432336588,"确诊日期36":"y"},{"SH_ID_36":"10g9dtf","区36":"d","地址":"共富路154号","lng":121.4313513556694,"lat":31.34987909105814,"确诊日期36":"y"},{"SH_ID_36":"10g9dtg","区36":"d","地址":"共富路351弄","lng":121.4242352847104,"lat":31.35024831505854,"确诊日期36":"y"},{"SH_ID_36":"10g9dth","区36":"d","地址":"共富路381号","lng":121.42415671732185,"lat":31.348783958059,"确诊日期36":"y"},{"SH_ID_36":"10g9e8r","区36":"d","地址":"共富四村","lng":121.42476095682007,"lat":31.34981956529367,"确诊日期36":"y"},{"SH_ID_36":"10g9e8p","区36":"d","地址":"共富一村","lng":121.43337008488659,"lat":31.350794971804465,"确诊日期36":"y"},{"SH_ID_36":"10g9e8t","区36":"d","地址":"共和二村","lng":121.46105678457755,"lat":31.32181620952501,"确诊日期36":"y"},{"SH_ID_36":"10g9e8u","区36":"d","地址":"共和三村","lng":121.45875825169065,"lat":31.32196912577134,"确诊日期36":"y"},{"SH_ID_36":"10g9e8v","区36":"d","地址":"共和五村","lng":121.46409916206173,"lat":31.324128310172323,"确诊日期36":"y"},{"SH_ID_36":"10g9dti","区36":"d","地址":"共和新路4701弄","lng":121.45024239305118,"lat":31.31747350093858,"确诊日期36":"y"},{"SH_ID_36":"10g9dtj","区36":"d","地址":"共和新路4703弄","lng":121.44879067596949,"lat":31.31894746118722,"确诊日期36":"y"},{"SH_ID_36":"10g9dtk","区36":"d","地址":"共和新路4719弄","lng":121.44936130303822,"lat":31.319449400080625,"确诊日期36":"y"},{"SH_ID_36":"10g9dtl","区36":"d","地址":"共和新路5219号","lng":121.44502770129704,"lat":31.3262560181845,"确诊日期36":"y"},{"SH_ID_36":"10g9dtm","区36":"d","地址":"共和新路5288号","lng":121.44154223563075,"lat":31.327184296360944,"确诊日期36":"y"},{"SH_ID_36":"10g9dtn","区36":"d","地址":"共和新路5308弄","lng":121.44239013919287,"lat":31.327884418562117,"确诊日期36":"y"},{"SH_ID_36":"10g9e8s","区36":"d","地址":"共和一村","lng":121.46419193153093,"lat":31.322537346982717,"确诊日期36":"y"},{"SH_ID_36":"10g9dto","区36":"d","地址":"共江路721号","lng":121.45351197213257,"lat":31.330582114448156,"确诊日期36":"y"},{"SH_ID_36":"10g9dtp","区36":"d","地址":"共江路992号","lng":121.4485759325443,"lat":31.328788248502466,"确诊日期36":"y"},{"SH_ID_36":"10g9dtq","区36":"d","地址":"共康路169弄","lng":121.44218412851593,"lat":31.323263426055526,"确诊日期36":"y"},{"SH_ID_36":"10g9dtr","区36":"d","地址":"共康路828号","lng":121.42949008227933,"lat":31.32058574940226,"确诊日期36":"y"},{"SH_ID_36":"10g9e8w","区36":"d","地址":"共康五村","lng":121.4381801374861,"lat":31.32244638789198,"确诊日期36":"y"},{"SH_ID_36":"10g9dtt","区36":"d","地址":"顾北东路155弄","lng":121.41197397350574,"lat":31.360908039955532,"确诊日期36":"y"},{"SH_ID_36":"10g9dtu","区36":"d","地址":"顾北东路188弄","lng":121.41328566378067,"lat":31.35918467235977,"确诊日期36":"y"},{"SH_ID_36":"10g9dts","区36":"d","地址":"顾北东路39弄","lng":121.41516176856055,"lat":31.36258620013266,"确诊日期36":"y"},{"SH_ID_36":"10g9dtv","区36":"d","地址":"顾北东路501弄","lng":121.40722731007477,"lat":31.358721807507763,"确诊日期36":"y"},{"SH_ID_36":"10g9dtx","区36":"d","地址":"顾北路101号","lng":121.39438585199396,"lat":31.353061854808015,"确诊日期36":"y"},{"SH_ID_36":"10g9dtw","区36":"d","地址":"顾北路85号","lng":121.39800138015913,"lat":31.354532103466347,"确诊日期36":"y"},{"SH_ID_36":"10g9dty","区36":"d","地址":"顾陈路510号","lng":121.37709967360837,"lat":31.331974454319383,"确诊日期36":"y"},{"SH_ID_36":"10g9e8x","区36":"d","地址":"顾村村","lng":121.39752237642182,"lat":31.35386488690175,"确诊日期36":"y"},{"SH_ID_36":"10g9dtz","区36":"d","地址":"顾泾河路30弄","lng":121.4022320562523,"lat":31.453537753671267,"确诊日期36":"y"},{"SH_ID_36":"10g9du0","区36":"d","地址":"顾太路380号","lng":121.39759509720136,"lat":31.348205350521592,"确诊日期36":"y"},{"SH_ID_36":"10g9e8y","区36":"d","地址":"广福村","lng":121.33955312095436,"lat":31.34833709956998,"确诊日期36":"y"},{"SH_ID_36":"10g9e8z","区36":"d","地址":"归王村","lng":121.35668605612393,"lat":31.358575669479798,"确诊日期36":"y"},{"SH_ID_36":"10g9du2","区36":"d","地址":"国权北路290弄","lng":121.49447264163761,"lat":31.317229314875732,"确诊日期36":"y"},{"SH_ID_36":"10g9du3","区36":"d","地址":"国权北路351弄","lng":121.49624847024025,"lat":31.315536189285368,"确诊日期36":"y"},{"SH_ID_36":"10g9du1","区36":"d","地址":"国权北路61号","lng":121.49638628509861,"lat":31.311753629948534,"确诊日期36":"y"},{"SH_ID_36":"10g9du4","区36":"d","地址":"国权北路828弄","lng":121.49216948032102,"lat":31.329492609163545,"确诊日期36":"y"},{"SH_ID_36":"10g9e94","区36":"d","地址":"海滨八村","lng":121.49991390129769,"lat":31.38261757001867,"确诊日期36":"y"},{"SH_ID_36":"10g9e92","区36":"d","地址":"海滨三村","lng":121.49266206088166,"lat":31.38252484038888,"确诊日期36":"y"},{"SH_ID_36":"10g9e93","区36":"d","地址":"海滨五村","lng":121.49677816060652,"lat":31.38283079174437,"确诊日期36":"y"},{"SH_ID_36":"10g9e90","区36":"d","地址":"海滨新村","lng":121.49314080088347,"lat":31.37705530980347,"确诊日期36":"y"},{"SH_ID_36":"10g9e91","区36":"d","地址":"海江二村","lng":121.50311002446634,"lat":31.393056970669406,"确诊日期36":"y"},{"SH_ID_36":"10g9du5","区36":"d","地址":"海江路337号","lng":121.49527863947289,"lat":31.398011322741006,"确诊日期36":"y"},{"SH_ID_36":"10g9du6","区36":"d","地址":"海江路667弄","lng":121.48928224548038,"lat":31.397732355653424,"确诊日期36":"y"},{"SH_ID_36":"10g9du7","区36":"d","地址":"涵青路100弄","lng":121.40258466626544,"lat":31.332899181297254,"确诊日期36":"y"},{"SH_ID_36":"10g9e95","区36":"d","地址":"合建村","lng":121.33636276215144,"lat":31.466644918647543,"确诊日期36":"y"},{"SH_ID_36":"10g9dub","区36":"d","地址":"何家湾路48号","lng":121.49579574678647,"lat":31.328439623603337,"确诊日期36":"y"},{"SH_ID_36":"10g9duc","区36":"d","地址":"鹤林路58弄","lng":121.40432022040883,"lat":31.446671007582268,"确诊日期36":"y"},{"SH_ID_36":"10g9due","区36":"d","地址":"恒高路100号","lng":121.47074892920918,"lat":31.325223704695663,"确诊日期36":"y"},{"SH_ID_36":"10g9duf","区36":"d","地址":"恒高路127弄","lng":121.46892567052178,"lat":31.32624968566818,"确诊日期36":"y"},{"SH_ID_36":"10g9dug","区36":"d","地址":"恒高路128弄","lng":121.4703905300091,"lat":31.32352607443433,"确诊日期36":"y"},{"SH_ID_36":"10g9dud","区36":"d","地址":"恒高路83弄","lng":121.4713207420609,"lat":31.326117162142133,"确诊日期36":"y"},{"SH_ID_36":"10g9duh","区36":"d","地址":"红林路158弄","lng":121.42499296100881,"lat":31.365817965146814,"确诊日期36":"y"},{"SH_ID_36":"10g9dui","区36":"d","地址":"呼兰路201弄","lng":121.4579862170314,"lat":31.348825627650847,"确诊日期36":"y"},{"SH_ID_36":"10g9duj","区36":"d","地址":"呼兰路455号","lng":121.45337092586796,"lat":31.3463483624867,"确诊日期36":"y"},{"SH_ID_36":"10g9duk","区36":"d","地址":"呼兰路515弄","lng":121.45008000800443,"lat":31.34678344799339,"确诊日期36":"y"},{"SH_ID_36":"10g9dul","区36":"d","地址":"呼兰路911弄","lng":121.43897566647821,"lat":31.34386629337065,"确诊日期36":"y"},{"SH_ID_36":"10g9e97","区36":"d","地址":"呼玛二村","lng":121.4467113254505,"lat":31.34067050001798,"确诊日期36":"y"},{"SH_ID_36":"10g9dum","区36":"d","地址":"呼玛路549号","lng":121.4494238288753,"lat":31.339734864944724,"确诊日期36":"y"},{"SH_ID_36":"10g9dun","区36":"d","地址":"呼玛路599号","lng":121.4412955855805,"lat":31.3390007320584,"确诊日期36":"y"},{"SH_ID_36":"10g9e98","区36":"d","地址":"呼玛三村","lng":121.44144678074983,"lat":31.339294975225098,"确诊日期36":"y"},{"SH_ID_36":"10g9e99","区36":"d","地址":"呼玛四村","lng":121.44514033326853,"lat":31.343830067952965,"确诊日期36":"y"},{"SH_ID_36":"10g9e9a","区36":"d","地址":"呼玛五村","lng":121.43889099497024,"lat":31.34135210399657,"确诊日期36":"y"},{"SH_ID_36":"10g9e96","区36":"d","地址":"呼玛一村","lng":121.45196382272086,"lat":31.341863875711127,"确诊日期36":"y"},{"SH_ID_36":"10g9dup","区36":"d","地址":"虎林路518弄","lng":121.45589159490022,"lat":31.340026135731254,"确诊日期36":"y"},{"SH_ID_36":"10g9duo","区36":"d","地址":"虎林路58号","lng":121.4594229925681,"lat":31.328221598063376,"确诊日期36":"y"},{"SH_ID_36":"10g9duq","区36":"d","地址":"虎林路800弄","lng":121.45379600772186,"lat":31.343600561977635,"确诊日期36":"y"},{"SH_ID_36":"10g9dur","区36":"d","地址":"沪太路1500弄","lng":121.42407568483931,"lat":31.278452796816207,"确诊日期36":"y"},{"SH_ID_36":"10g9dus","区36":"d","地址":"沪太路1933号","lng":121.41783355087733,"lat":31.29427704448729,"确诊日期36":"y"},{"SH_ID_36":"10g9dut","区36":"d","地址":"沪太路2009号","lng":121.414528884063,"lat":31.298283668284522,"确诊日期36":"y"},{"SH_ID_36":"10g9duu","区36":"d","地址":"沪太路2529弄","lng":121.44201039764725,"lat":31.26800762448806,"确诊日期36":"y"},{"SH_ID_36":"10g9duv","区36":"d","地址":"沪太路2588弄","lng":121.40899553480742,"lat":31.31029997637833,"确诊日期36":"y"},{"SH_ID_36":"10g9duw","区36":"d","地址":"沪太路2999弄","lng":121.41043243726278,"lat":31.315929445776575,"确诊日期36":"y"},{"SH_ID_36":"10g9dux","区36":"d","地址":"沪太路3717弄","lng":121.40081863933769,"lat":31.344046195870696,"确诊日期36":"y"},{"SH_ID_36":"10g9duy","区36":"d","地址":"沪太路4099弄","lng":121.40636273158287,"lat":31.332881274049118,"确诊日期36":"y"},{"SH_ID_36":"10g9duz","区36":"d","地址":"沪太路4361号","lng":121.39732777890556,"lat":31.34506630843148,"确诊日期36":"y"},{"SH_ID_36":"10g9dv0","区36":"d","地址":"沪太路5355弄","lng":121.37853419555027,"lat":31.359317044244037,"确诊日期36":"y"},{"SH_ID_36":"10g9dv1","区36":"d","地址":"沪太路6040号","lng":121.36591315678153,"lat":31.37264856284082,"确诊日期36":"y"},{"SH_ID_36":"10g9dv2","区36":"d","地址":"沪太路6387号","lng":121.35927207370135,"lat":31.38315770352328,"确诊日期36":"y"},{"SH_ID_36":"10g9dv3","区36":"d","地址":"沪太路6397号","lng":121.35941298969973,"lat":31.383952388188856,"确诊日期36":"y"},{"SH_ID_36":"10g9dv4","区36":"d","地址":"沪太路6525弄","lng":121.35906542973842,"lat":31.387790166740515,"确诊日期36":"y"},{"SH_ID_36":"10g9dv5","区36":"d","地址":"沪太路6545弄","lng":121.36101731033571,"lat":31.38949355286274,"确诊日期36":"y"},{"SH_ID_36":"10g9dv6","区36":"d","地址":"沪太路7300弄","lng":121.3319321307987,"lat":31.411680160534925,"确诊日期36":"y"},{"SH_ID_36":"10g9dv7","区36":"d","地址":"沪太路7759号","lng":121.33734783871813,"lat":31.4297674490879,"确诊日期36":"y"},{"SH_ID_36":"10g9dv8","区36":"d","地址":"沪太路8188弄","lng":121.32995463136318,"lat":31.44124000626512,"确诊日期36":"y"},{"SH_ID_36":"10g9e9b","区36":"d","地址":"华浜新村","lng":121.49380350207358,"lat":31.348720922083455,"确诊日期36":"y"},{"SH_ID_36":"10g9dvh","区36":"d","地址":"华灵路1225弄","lng":121.41944654860187,"lat":31.281595958555396,"确诊日期36":"y"},{"SH_ID_36":"10g9dvi","区36":"d","地址":"华灵路1280弄","lng":121.41678617131718,"lat":31.27801426603841,"确诊日期36":"y"},{"SH_ID_36":"10g9dvj","区36":"d","地址":"华灵路1351弄","lng":121.41503995357984,"lat":31.281284398385846,"确诊日期36":"y"},{"SH_ID_36":"10g9dvk","区36":"d","地址":"华灵路1781弄","lng":121.40870679339928,"lat":31.28037617559263,"确诊日期36":"y"},{"SH_ID_36":"10g9dvl","区36":"d","地址":"华灵路1895弄","lng":121.40249856812089,"lat":31.28248790815843,"确诊日期36":"y"},{"SH_ID_36":"10g9dvm","区36":"d","地址":"华灵路1900弄","lng":121.40459825222455,"lat":31.277730809573097,"确诊日期36":"y"},{"SH_ID_36":"10g9dv9","区36":"d","地址":"华灵路198弄","lng":121.42175080031946,"lat":31.2718531329789,"确诊日期36":"y"},{"SH_ID_36":"10g9dva","区36":"d","地址":"华灵路201弄","lng":121.42367242056704,"lat":31.272127779129985,"确诊日期36":"y"},{"SH_ID_36":"10g9dvb","区36":"d","地址":"华灵路410弄","lng":121.42272764408254,"lat":31.272921779343765,"确诊日期36":"y"},{"SH_ID_36":"10g9dvc","区36":"d","地址":"华灵路510弄","lng":121.4220350183657,"lat":31.273517072870796,"确诊日期36":"y"},{"SH_ID_36":"10g9dvd","区36":"d","地址":"华灵路515号","lng":121.42335925023403,"lat":31.273562620702748,"确诊日期36":"y"},{"SH_ID_36":"10g9dve","区36":"d","地址":"华灵路561弄","lng":121.42314623120436,"lat":31.27491464077612,"确诊日期36":"y"},{"SH_ID_36":"10g9dvf","区36":"d","地址":"华灵路591弄","lng":121.42365129074702,"lat":31.27502774054689,"确诊日期36":"y"},{"SH_ID_36":"10g9dvg","区36":"d","地址":"华灵路680弄","lng":121.42228079343731,"lat":31.279169807145806,"确诊日期36":"y"},{"SH_ID_36":"10g9dvn","区36":"d","地址":"化成路366弄","lng":121.49975903311018,"lat":31.379608745951206,"确诊日期36":"y"},{"SH_ID_36":"10g9dvu","区36":"d","地址":"环镇北路1366弄","lng":121.38583289393834,"lat":31.307682384629025,"确诊日期36":"y"},{"SH_ID_36":"10g9dvo","区36":"d","地址":"环镇北路300弄","lng":121.40853693742169,"lat":31.307935301054364,"确诊日期36":"y"},{"SH_ID_36":"10g9dvp","区36":"d","地址":"环镇北路500弄","lng":121.40458443765753,"lat":31.307680553200836,"确诊日期36":"y"},{"SH_ID_36":"10g9dvq","区36":"d","地址":"环镇北路600弄","lng":121.40245047529365,"lat":31.305199544184962,"确诊日期36":"y"},{"SH_ID_36":"10g9dvr","区36":"d","地址":"环镇北路655弄","lng":121.40480496935886,"lat":31.309926132865975,"确诊日期36":"y"},{"SH_ID_36":"10g9dvs","区36":"d","地址":"环镇北路699弄","lng":121.40215584984878,"lat":31.309434470669554,"确诊日期36":"y"},{"SH_ID_36":"10g9dvt","区36":"d","地址":"环镇北路789号","lng":121.4017162884693,"lat":31.30765448167419,"确诊日期36":"y"},{"SH_ID_36":"10g9dvv","区36":"d","地址":"环镇南路858弄","lng":121.396516957356,"lat":31.296777874559492,"确诊日期36":"y"},{"SH_ID_36":"10g9dvw","区36":"d","地址":"吉浦路218弄","lng":121.48947392750124,"lat":31.31143322083735,"确诊日期36":"y"},{"SH_ID_36":"10g9dvx","区36":"d","地址":"吉浦路521号","lng":121.49041139485146,"lat":31.313140611094056,"确诊日期36":"y"},{"SH_ID_36":"10g9dvy","区36":"d","地址":"吉浦路615弄","lng":121.49323381240481,"lat":31.317118204965148,"确诊日期36":"y"},{"SH_ID_36":"10g9dvz","区36":"d","地址":"集贤路151弄","lng":121.35561150541015,"lat":31.41717092533009,"确诊日期36":"y"},{"SH_ID_36":"10g9dw0","区36":"d","地址":"集贤路500弄","lng":121.34993449421232,"lat":31.420581035601824,"确诊日期36":"y"},{"SH_ID_36":"10g9dw1","区36":"d","地址":"集贤路501弄","lng":121.35390178841871,"lat":31.421766859225485,"确诊日期36":"y"},{"SH_ID_36":"10g9dw2","区36":"d","地址":"集贤路600弄","lng":121.35153345932858,"lat":31.423252847939498,"确诊日期36":"y"},{"SH_ID_36":"10g9dw3","区36":"d","地址":"集贤路700弄","lng":121.35043969551302,"lat":31.428309128170703,"确诊日期36":"y"},{"SH_ID_36":"10g9dw4","区36":"d","地址":"集贤路800弄","lng":121.3503709714911,"lat":31.423924938220818,"确诊日期36":"y"},{"SH_ID_36":"10g9dw5","区36":"d","地址":"佳龙路309号","lng":121.3869239543983,"lat":31.340686832907274,"确诊日期36":"y"},{"SH_ID_36":"10g9e9c","区36":"d","地址":"江杨村","lng":121.46672837189627,"lat":31.32098230204344,"确诊日期36":"y"},{"SH_ID_36":"10g9dw7","区36":"d","地址":"江杨南路1505号","lng":121.46723957791986,"lat":31.33453879213217,"确诊日期36":"y"},{"SH_ID_36":"10g9dw8","区36":"d","地址":"江杨南路1675号","lng":121.46678469450515,"lat":31.337355909652523,"确诊日期36":"y"},{"SH_ID_36":"10g9dw9","区36":"d","地址":"江杨南路1706号","lng":121.46616411457583,"lat":31.33723365374529,"确诊日期36":"y"},{"SH_ID_36":"10g9dwa","区36":"d","地址":"江杨南路1803号","lng":121.46601555922459,"lat":31.339907340449052,"确诊日期36":"y"},{"SH_ID_36":"10g9dwb","区36":"d","地址":"江杨南路2058号","lng":121.4614511617201,"lat":31.342360016354373,"确诊日期36":"y"},{"SH_ID_36":"10g9dwc","区36":"d","地址":"江杨南路2446号","lng":121.46112181797518,"lat":31.349856013058186,"确诊日期36":"y"},{"SH_ID_36":"10g9dwd","区36":"d","地址":"江杨南路2546弄","lng":121.45993547479861,"lat":31.35034484087186,"确诊日期36":"y"},{"SH_ID_36":"10g9dwe","区36":"d","地址":"江杨南路2550弄","lng":121.46068672147287,"lat":31.351263053324423,"确诊日期36":"y"},{"SH_ID_36":"10g9dwf","区36":"d","地址":"江杨南路2588号","lng":121.45995912180744,"lat":31.352731253164716,"确诊日期36":"y"},{"SH_ID_36":"10g9dwg","区36":"d","地址":"江杨南路2618号","lng":121.45969404537432,"lat":31.353332567755338,"确诊日期36":"y"},{"SH_ID_36":"10g9dw6","区36":"d","地址":"江杨南路927号","lng":121.47083809374953,"lat":31.32919441682069,"确诊日期36":"y"},{"SH_ID_36":"10g9e9d","区36":"d","地址":"江杨新村","lng":121.46650685248903,"lat":31.340317953434727,"确诊日期36":"y"},{"SH_ID_36":"10g9dwh","区36":"d","地址":"教育路555弄","lng":121.3951987780164,"lat":31.35718543105923,"确诊日期36":"y"},{"SH_ID_36":"10g9dwi","区36":"d","地址":"界华路100弄","lng":121.42319174992231,"lat":31.30207127045962,"确诊日期36":"y"},{"SH_ID_36":"10g9dwj","区36":"d","地址":"金勺路1412号","lng":121.34606022318572,"lat":31.450400770375314,"确诊日期36":"y"},{"SH_ID_36":"10g9dwk","区36":"d","地址":"金勺路1688号","lng":121.33913536135083,"lat":31.449166126337232,"确诊日期36":"y"},{"SH_ID_36":"10g9dwl","区36":"d","地址":"金石路163号","lng":121.37416135500447,"lat":31.465671480624273,"确诊日期36":"y"},{"SH_ID_36":"10g9dwm","区36":"d","地址":"锦秋路101号","lng":121.40382007510001,"lat":31.321605889883628,"确诊日期36":"y"},{"SH_ID_36":"10g9dwo","区36":"d","地址":"锦秋路1188弄","lng":121.38414811418092,"lat":31.31970591957775,"确诊日期36":"y"},{"SH_ID_36":"10g9dwp","区36":"d","地址":"锦秋路1456弄","lng":121.37691354390095,"lat":31.317778478440886,"确诊日期36":"y"},{"SH_ID_36":"10g9dwq","区36":"d","地址":"锦秋路1505弄","lng":121.37232400451542,"lat":31.319438123673027,"确诊日期36":"y"},{"SH_ID_36":"10g9dwr","区36":"d","地址":"锦秋路2509号","lng":121.35732478309609,"lat":31.317424351802163,"确诊日期36":"y"},{"SH_ID_36":"10g9dwn","区36":"d","地址":"锦秋路699弄","lng":121.39081079518004,"lat":31.325529048270404,"确诊日期36":"y"},{"SH_ID_36":"10g9dwu","区36":"d","地址":"菊联路232弄","lng":121.36272789871337,"lat":31.34714177849612,"确诊日期36":"y"},{"SH_ID_36":"10g9dwv","区36":"d","地址":"菊联路233弄","lng":121.36371385118827,"lat":31.346298082745395,"确诊日期36":"y"},{"SH_ID_36":"10g9dws","区36":"d","地址":"菊联路68弄","lng":121.36783382561913,"lat":31.35031099286454,"确诊日期36":"y"},{"SH_ID_36":"10g9dwt","区36":"d","地址":"菊联路89弄","lng":121.36773523258543,"lat":31.347824868526576,"确诊日期36":"y"},{"SH_ID_36":"10g9dwx","区36":"d","地址":"菊泉街1280弄","lng":121.37179067981327,"lat":31.360551980765464,"确诊日期36":"y"},{"SH_ID_36":"10g9dwy","区36":"d","地址":"菊泉街1281弄","lng":121.37398116376642,"lat":31.360999995457373,"确诊日期36":"y"},{"SH_ID_36":"10g9dwz","区36":"d","地址":"菊泉街1346弄","lng":121.36958859165568,"lat":31.363193550818266,"确诊日期36":"y"},{"SH_ID_36":"10g9dx0","区36":"d","地址":"菊泉街1969弄","lng":121.37180270552676,"lat":31.36390828851435,"确诊日期36":"y"},{"SH_ID_36":"10g9dww","区36":"d","地址":"菊泉街39弄","lng":121.37860152171058,"lat":31.351279557047935,"确诊日期36":"y"},{"SH_ID_36":"10g9dx1","区36":"d","地址":"菊盛路851弄","lng":121.36845230326321,"lat":31.359134320018757,"确诊日期36":"y"},{"SH_ID_36":"10g9dx2","区36":"d","地址":"菊盛路920号","lng":121.36865960652331,"lat":31.361697368158918,"确诊日期36":"y"},{"SH_ID_36":"10g9dx4","区36":"d","地址":"菊太路1198弄","lng":121.35864404899478,"lat":31.346320564641655,"确诊日期36":"y"},{"SH_ID_36":"10g9dx5","区36":"d","地址":"菊太路1221弄","lng":121.35676322304492,"lat":31.349393138945956,"确诊日期36":"y"},{"SH_ID_36":"10g9dx6","区36":"d","地址":"菊太路1399弄","lng":121.35281376519752,"lat":31.345909293987248,"确诊日期36":"y"},{"SH_ID_36":"10g9dx7","区36":"d","地址":"菊太路1609弄","lng":121.34825857251926,"lat":31.345835187467774,"确诊日期36":"y"},{"SH_ID_36":"10g9dx8","区36":"d","地址":"菊太路1755弄","lng":121.3461269380567,"lat":31.344612679114082,"确诊日期36":"y"},{"SH_ID_36":"10g9dx3","区36":"d","地址":"菊太路999弄","lng":121.3613282593306,"lat":31.351334942507297,"确诊日期36":"y"},{"SH_ID_36":"10g9dxa","区36":"d","地址":"聚丰园路105弄","lng":121.3846945261131,"lat":31.31764468050374,"确诊日期36":"y"},{"SH_ID_36":"10g9dxb","区36":"d","地址":"聚丰园路188弄","lng":121.38273481961679,"lat":31.314606006197874,"确诊日期36":"y"},{"SH_ID_36":"10g9dxc","区36":"d","地址":"聚丰园路388弄","lng":121.37856733024962,"lat":31.313349667232284,"确诊日期36":"y"},{"SH_ID_36":"10g9dxd","区36":"d","地址":"聚丰园路500弄","lng":121.3777948262757,"lat":31.311421309438597,"确诊日期36":"y"},{"SH_ID_36":"10g9dx9","区36":"d","地址":"聚丰园路95弄","lng":121.38417384438242,"lat":31.316059153506373,"确诊日期36":"y"},{"SH_ID_36":"10g9e9e","区36":"d","地址":"聚源桥村","lng":121.38537743478291,"lat":31.4394046851196,"确诊日期36":"y"},{"SH_ID_36":"10g9e9f","区36":"d","地址":"康家村","lng":121.43145556863458,"lat":31.316285270654664,"确诊日期36":"y"},{"SH_ID_36":"10g9e9g","区36":"d","地址":"老安村","lng":121.37344015064535,"lat":31.36575704865252,"确诊日期36":"y"},{"SH_ID_36":"10g9dxe","区36":"d","地址":"莲花山路517弄","lng":121.44514094503042,"lat":31.36206837786614,"确诊日期36":"y"},{"SH_ID_36":"10g9e9h","区36":"d","地址":"联东村","lng":121.41076366201513,"lat":31.31150967101315,"确诊日期36":"y"},{"SH_ID_36":"10g9e9i","区36":"d","地址":"联合村","lng":121.3233637583746,"lat":31.405902981070103,"确诊日期36":"y"},{"SH_ID_36":"10g9dxf","区36":"d","地址":"联泰路158弄","lng":121.42763158186064,"lat":31.34664473717788,"确诊日期36":"y"},{"SH_ID_36":"10g9dxg","区36":"d","地址":"联泰路518弄","lng":121.42442889175632,"lat":31.350283830217823,"确诊日期36":"y"},{"SH_ID_36":"10g9e9j","区36":"d","地址":"联西村","lng":121.39790905215715,"lat":31.305387719732053,"确诊日期36":"y"},{"SH_ID_36":"10g9dxh","区36":"d","地址":"联杨路1078弄","lng":121.35442251128441,"lat":31.345291718305337,"确诊日期36":"y"},{"SH_ID_36":"10g9dxi","区36":"d","地址":"联杨路3606弄","lng":121.32978278147303,"lat":31.389432660681397,"确诊日期36":"y"},{"SH_ID_36":"10g9dxj","区36":"d","地址":"联杨路4568号","lng":121.3233965386813,"lat":31.405767667433963,"确诊日期36":"y"},{"SH_ID_36":"10g9dxl","区36":"d","地址":"联谊路398号","lng":121.4308078056192,"lat":31.343218447725246,"确诊日期36":"y"},{"SH_ID_36":"10g9dxk","区36":"d","地址":"联谊路40号","lng":121.44523706180685,"lat":31.35254806137785,"确诊日期36":"y"},{"SH_ID_36":"10g9dxm","区36":"d","地址":"联谊路477号","lng":121.4285859178436,"lat":31.345160707329793,"确诊日期36":"y"},{"SH_ID_36":"10g9dxn","区36":"d","地址":"联谊路612弄","lng":121.42159246445824,"lat":31.338859189700482,"确诊日期36":"y"},{"SH_ID_36":"10g9dxo","区36":"d","地址":"联谊路649弄","lng":121.41829698416294,"lat":31.343104836030655,"确诊日期36":"y"},{"SH_ID_36":"10g9dxp","区36":"d","地址":"联长路55号","lng":121.46540035843714,"lat":31.337534977939104,"确诊日期36":"y"},{"SH_ID_36":"10g9dxq","区36":"d","地址":"联长路57号","lng":121.46546331410252,"lat":31.33728883995559,"确诊日期36":"y"},{"SH_ID_36":"10g9dxr","区36":"d","地址":"联长路80号","lng":121.46458548960533,"lat":31.336863795639104,"确诊日期36":"y"},{"SH_ID_36":"10g9e9k","区36":"d","地址":"临江二村","lng":121.48647454968206,"lat":31.410975316580533,"确诊日期36":"y"},{"SH_ID_36":"10g9e9l","区36":"d","地址":"临江三村","lng":121.48847625640458,"lat":31.41082205999929,"确诊日期36":"y"},{"SH_ID_36":"10g9e9m","区36":"d","地址":"临江四村","lng":121.49134833894858,"lat":31.411964890928516,"确诊日期36":"y"},{"SH_ID_36":"10g9dxs","区36":"d","地址":"岭南路1118弄","lng":121.45653282508871,"lat":31.322277577230064,"确诊日期36":"y"},{"SH_ID_36":"10g9dxt","区36":"d","地址":"岭南路1288弄","lng":121.45669410545257,"lat":31.32473421577268,"确诊日期36":"y"},{"SH_ID_36":"10g9dxu","区36":"d","地址":"岭南路1289弄","lng":121.45454511825604,"lat":31.324795488990066,"确诊日期36":"y"},{"SH_ID_36":"10g9dxv","区36":"d","地址":"岭南路1320号","lng":121.45555453648595,"lat":31.32559258590218,"确诊日期36":"y"},{"SH_ID_36":"10g9dxw","区36":"d","地址":"陆翔路111弄","lng":121.37019283121148,"lat":31.345231529200454,"确诊日期36":"y"},{"SH_ID_36":"10g9dy0","区36":"d","地址":"陆翔路3489弄","lng":121.33749403641964,"lat":31.400437477367724,"确诊日期36":"y"},{"SH_ID_36":"10g9dy1","区36":"d","地址":"陆翔路3500弄","lng":121.34003001678535,"lat":31.402262767162412,"确诊日期36":"y"},{"SH_ID_36":"10g9dxx","区36":"d","地址":"陆翔路358弄","lng":121.36969726571043,"lat":31.351551135372127,"确诊日期36":"y"},{"SH_ID_36":"10g9dxy","区36":"d","地址":"陆翔路678弄","lng":121.36820486658937,"lat":31.353433822185544,"确诊日期36":"y"},{"SH_ID_36":"10g9dxz","区36":"d","地址":"陆翔路698弄","lng":121.36677892086075,"lat":31.354909736920074,"确诊日期36":"y"},{"SH_ID_36":"10g9dy2","区36":"d","地址":"罗北路200弄","lng":121.38359897695945,"lat":31.454051099810112,"确诊日期36":"y"},{"SH_ID_36":"10g9dy8","区36":"d","地址":"罗东路1505号","lng":121.36772861297169,"lat":31.457160407204128,"确诊日期36":"y"},{"SH_ID_36":"10g9dy9","区36":"d","地址":"罗东路1825号","lng":121.36716853121231,"lat":31.46592332650842,"确诊日期36":"y"},{"SH_ID_36":"10g9dy4","区36":"d","地址":"罗东路230号","lng":121.37496460499001,"lat":31.421409123626194,"确诊日期36":"y"},{"SH_ID_36":"10g9dy5","区36":"d","地址":"罗东路313弄","lng":121.37711347973932,"lat":31.430163638267633,"确诊日期36":"y"},{"SH_ID_36":"10g9dy6","区36":"d","地址":"罗东路500弄","lng":121.37079785023789,"lat":31.430513691534607,"确诊日期36":"y"},{"SH_ID_36":"10g9dy7","区36":"d","地址":"罗东路501弄","lng":121.37543114423312,"lat":31.43155768047057,"确诊日期36":"y"},{"SH_ID_36":"10g9dy3","区36":"d","地址":"罗东路50弄","lng":121.37798953892954,"lat":31.417504440179318,"确诊日期36":"y"},{"SH_ID_36":"10g9dya","区36":"d","地址":"罗芬路1266号","lng":121.34804103243538,"lat":31.404354993277877,"确诊日期36":"y"},{"SH_ID_36":"10g9dyb","区36":"d","地址":"罗和路118弄","lng":121.34181885815774,"lat":31.38136428746821,"确诊日期36":"y"},{"SH_ID_36":"10g9dyc","区36":"d","地址":"罗和路855弄","lng":121.33470631370535,"lat":31.391227658490326,"确诊日期36":"y"},{"SH_ID_36":"10g9e9o","区36":"d","地址":"罗南二村","lng":121.36637557173395,"lat":31.387687595368643,"确诊日期36":"y"},{"SH_ID_36":"10g9dyd","区36":"d","地址":"罗南路368弄","lng":121.34109904701752,"lat":31.38909785765554,"确诊日期36":"y"},{"SH_ID_36":"10g9e9n","区36":"d","地址":"罗南一村","lng":121.36219944093266,"lat":31.38391750546412,"确诊日期36":"y"},{"SH_ID_36":"10g9dye","区36":"d","地址":"罗宁路1168号","lng":121.34307154459698,"lat":31.453918964165307,"确诊日期36":"y"},{"SH_ID_36":"10g9dyf","区36":"d","地址":"罗宁路3030弄","lng":121.32733221602679,"lat":31.485875434515076,"确诊日期36":"y"},{"SH_ID_36":"10g9dyg","区36":"d","地址":"罗平路3号","lng":121.37768781882053,"lat":31.428480782552036,"确诊日期36":"y"},{"SH_ID_36":"10g9dyh","区36":"d","地址":"罗太路235弄","lng":121.34458775262651,"lat":31.40807083660664,"确诊日期36":"y"},{"SH_ID_36":"10g9dyi","区36":"d","地址":"罗太路447号","lng":121.33910824035505,"lat":31.41343109461845,"确诊日期36":"y"},{"SH_ID_36":"10g9dyj","区36":"d","地址":"罗太路533弄","lng":121.34135067755797,"lat":31.416808822294552,"确诊日期36":"y"},{"SH_ID_36":"10g9dyk","区36":"d","地址":"罗太路539弄","lng":121.33869518883863,"lat":31.416709713059625,"确诊日期36":"y"},{"SH_ID_36":"10g9dyl","区36":"d","地址":"罗太路869弄","lng":121.33943246573865,"lat":31.427564631083182,"确诊日期36":"y"},{"SH_ID_36":"10g9e9p","区36":"d","地址":"罗溪村","lng":121.34293490631617,"lat":31.409594223001232,"确诊日期36":"y"},{"SH_ID_36":"10g9dyp","区36":"d","地址":"罗溪路1000弄","lng":121.34347983587966,"lat":31.423653742076556,"确诊日期36":"y"},{"SH_ID_36":"10g9dyq","区36":"d","地址":"罗溪路1001弄","lng":121.34356942371322,"lat":31.424818660060595,"确诊日期36":"y"},{"SH_ID_36":"10g9dyr","区36":"d","地址":"罗溪路1079弄","lng":121.34227806132571,"lat":31.42749170814653,"确诊日期36":"y"},{"SH_ID_36":"10g9dys","区36":"d","地址":"罗溪路1099弄","lng":121.34360425483658,"lat":31.42880276463156,"确诊日期36":"y"},{"SH_ID_36":"10g9dyn","区36":"d","地址":"罗溪路121号","lng":121.35048626551429,"lat":31.413035360913515,"确诊日期36":"y"},{"SH_ID_36":"10g9dyt","区36":"d","地址":"罗溪路1400弄","lng":121.34059988059278,"lat":31.431080238887787,"确诊日期36":"y"},{"SH_ID_36":"10g9dym","区36":"d","地址":"罗溪路60弄","lng":121.34844969596323,"lat":31.411731297698974,"确诊日期36":"y"},{"SH_ID_36":"10g9dyo","区36":"d","地址":"罗溪路671弄","lng":121.34686329871644,"lat":31.41906440442909,"确诊日期36":"y"},{"SH_ID_36":"10g9dyu","区36":"d","地址":"罗迎路188弄","lng":121.36317288146456,"lat":31.400866520550245,"确诊日期36":"y"},{"SH_ID_36":"10g9dyv","区36":"d","地址":"罗迎路558弄","lng":121.35567971044692,"lat":31.40530672464705,"确诊日期36":"y"},{"SH_ID_36":"10g9dyw","区36":"d","地址":"罗迎路800弄","lng":121.3543734146668,"lat":31.409030746953743,"确诊日期36":"y"},{"SH_ID_36":"10g9dyx","区36":"d","地址":"罗智路258弄","lng":121.34685548836153,"lat":31.385870383716306,"确诊日期36":"y"},{"SH_ID_36":"10g9e9q","区36":"d","地址":"马泾桥二村","lng":121.41508750829792,"lat":31.418141540877855,"确诊日期36":"y"},{"SH_ID_36":"10g9e9r","区36":"d","地址":"马泾桥三村","lng":121.41404654538648,"lat":31.418571700248325,"确诊日期36":"y"},{"SH_ID_36":"10g9dz0","区36":"d","地址":"毛家路212弄","lng":121.38687749686783,"lat":31.426519193208133,"确诊日期36":"y"},{"SH_ID_36":"10g9dyz","区36":"d","地址":"毛家路31号","lng":121.38963256829804,"lat":31.419752544306846,"确诊日期36":"y"},{"SH_ID_36":"10g9dz1","区36":"d","地址":"毛家路399号","lng":121.38628438760131,"lat":31.428238339115637,"确诊日期36":"y"},{"SH_ID_36":"10g9dz2","区36":"d","地址":"毛家路600弄","lng":121.38405531361406,"lat":31.43287649370634,"确诊日期36":"y"},{"SH_ID_36":"10g9dyy","区36":"d","地址":"毛家路8号","lng":121.38934268207477,"lat":31.418887656282635,"确诊日期36":"y"},{"SH_ID_36":"10g9e9s","区36":"d","地址":"毛家弄村","lng":121.3875107987111,"lat":31.42550073418272,"确诊日期36":"y"},{"SH_ID_36":"10g9e9t","区36":"d","地址":"茂盛村","lng":121.39923904095531,"lat":31.410496016635012,"确诊日期36":"y"},{"SH_ID_36":"10g9dz4","区36":"d","地址":"梅林路666弄","lng":121.43627878928676,"lat":31.3690370848903,"确诊日期36":"y"},{"SH_ID_36":"10g9dz5","区36":"d","地址":"梅林路866弄","lng":121.43531457881386,"lat":31.37114567724538,"确诊日期36":"y"},{"SH_ID_36":"10g9dz3","区36":"d","地址":"梅林路97弄","lng":121.4383034218136,"lat":31.36276090964826,"确诊日期36":"y"},{"SH_ID_36":"10g9e9u","区36":"d","地址":"梅园村","lng":121.41975533315379,"lat":31.414800907866212,"确诊日期36":"y"},{"SH_ID_36":"10g9e9v","区36":"d","地址":"湄浦村","lng":121.42573608028886,"lat":31.387503494869772,"确诊日期36":"y"},{"SH_ID_36":"10g9dz6","区36":"d","地址":"湄星路1816弄","lng":121.4140749432467,"lat":31.374205029184967,"确诊日期36":"y"},{"SH_ID_36":"10g9dz7","区36":"d","地址":"美艾路177弄","lng":121.36392773655797,"lat":31.393946749437966,"确诊日期36":"y"},{"SH_ID_36":"10g9dz8","区36":"d","地址":"美艾路198弄","lng":121.36232390641236,"lat":31.394029317756658,"确诊日期36":"y"},{"SH_ID_36":"10g9dz9","区36":"d","地址":"美安路215弄","lng":121.35201693529253,"lat":31.388319001024172,"确诊日期36":"y"},{"SH_ID_36":"10g9dza","区36":"d","地址":"美安路218弄","lng":121.3489897504547,"lat":31.389152104749463,"确诊日期36":"y"},{"SH_ID_36":"10g9dze","区36":"d","地址":"美丹路1033弄","lng":121.33745083897848,"lat":31.39216840403742,"确诊日期36":"y"},{"SH_ID_36":"10g9dzf","区36":"d","地址":"美丹路1058弄","lng":121.33723727340147,"lat":31.395558024315648,"确诊日期36":"y"},{"SH_ID_36":"10g9dzb","区36":"d","地址":"美丹路18弄","lng":121.35482318899358,"lat":31.40541555076175,"确诊日期36":"y"},{"SH_ID_36":"10g9dzc","区36":"d","地址":"美丹路222号","lng":121.35143952050086,"lat":31.402354849667464,"确诊日期36":"y"},{"SH_ID_36":"10g9dzd","区36":"d","地址":"美丹路998弄","lng":121.34020325542147,"lat":31.395321855199654,"确诊日期36":"y"},{"SH_ID_36":"10g9dzg","区36":"d","地址":"美康路818弄","lng":121.33250962524947,"lat":31.39573445242561,"确诊日期36":"y"},{"SH_ID_36":"10g9dzh","区36":"d","地址":"美兰湖路98弄","lng":121.36166778580744,"lat":31.402996945313234,"确诊日期36":"y"},{"SH_ID_36":"10g9dzp","区36":"d","地址":"美平路1060弄","lng":121.33609544598121,"lat":31.387362786755133,"确诊日期36":"y"},{"SH_ID_36":"10g9dzi","区36":"d","地址":"美平路288弄","lng":121.3480018288523,"lat":31.39082461330066,"确诊日期36":"y"},{"SH_ID_36":"10g9dzj","区36":"d","地址":"美平路391号","lng":121.35080136281036,"lat":31.39070623863965,"确诊日期36":"y"},{"SH_ID_36":"10g9dzk","区36":"d","地址":"美平路428弄","lng":121.34550271581276,"lat":31.389647695092087,"确诊日期36":"y"},{"SH_ID_36":"10g9dzl","区36":"d","地址":"美平路500弄","lng":121.34261582486175,"lat":31.38990712530258,"确诊日期36":"y"},{"SH_ID_36":"10g9dzm","区36":"d","地址":"美平路696弄","lng":121.33899594979734,"lat":31.38849363628534,"确诊日期36":"y"},{"SH_ID_36":"10g9dzn","区36":"d","地址":"美平路745弄","lng":121.33948176362256,"lat":31.387390419493567,"确诊日期36":"y"},{"SH_ID_36":"10g9dzo","区36":"d","地址":"美平路999弄","lng":121.33697457771544,"lat":31.386218579008077,"确诊日期36":"y"},{"SH_ID_36":"10g9dzq","区36":"d","地址":"美秀路358弄","lng":121.35119872885726,"lat":31.383798304162386,"确诊日期36":"y"},{"SH_ID_36":"10g9dzr","区36":"d","地址":"美秀路558弄","lng":121.34378079950393,"lat":31.381827718754163,"确诊日期36":"y"},{"SH_ID_36":"10g9e9x","区36":"d","地址":"密山二村","lng":121.48684213911977,"lat":31.40325731927738,"确诊日期36":"y"},{"SH_ID_36":"10g9dzt","区36":"d","地址":"密山路500弄","lng":121.4815722880339,"lat":31.401608380127552,"确诊日期36":"y"},{"SH_ID_36":"10g9dzs","区36":"d","地址":"密山路60号","lng":121.48215674476248,"lat":31.402101482335944,"确诊日期36":"y"},{"SH_ID_36":"10g9e9w","区36":"d","地址":"密山新村","lng":121.48162534229164,"lat":31.40131428157635,"确诊日期36":"y"},{"SH_ID_36":"10g9dzu","区36":"d","地址":"苗圃路117号","lng":121.39356246851725,"lat":31.428789154255643,"确诊日期36":"y"},{"SH_ID_36":"10g9dzv","区36":"d","地址":"苗圃路680号","lng":121.36179919186554,"lat":31.420967407875366,"确诊日期36":"y"},{"SH_ID_36":"10g9dzw","区36":"d","地址":"民康路95号","lng":121.50231642030012,"lat":31.384924376733853,"确诊日期36":"y"},{"SH_ID_36":"10g9dzx","区36":"d","地址":"漠河路151号","lng":121.4803545387158,"lat":31.410965609383055,"确诊日期36":"y"},{"SH_ID_36":"10g9e00","区36":"d","地址":"牡丹江路1211号","lng":121.48758317395448,"lat":31.39391108248501,"确诊日期36":"y"},{"SH_ID_36":"10g9e01","区36":"d","地址":"牡丹江路1298弄","lng":121.48402674311976,"lat":31.3958156905433,"确诊日期36":"y"},{"SH_ID_36":"10g9e02","区36":"d","地址":"牡丹江路1378弄","lng":121.48558946485012,"lat":31.39693161514983,"确诊日期36":"y"},{"SH_ID_36":"10g9e03","区36":"d","地址":"牡丹江路1761号","lng":121.48199775694938,"lat":31.405748957098695,"确诊日期36":"y"},{"SH_ID_36":"10g9dzy","区36":"d","地址":"牡丹江路377号","lng":121.49626216649611,"lat":31.38307130879421,"确诊日期36":"y"},{"SH_ID_36":"10g9dzz","区36":"d","地址":"牡丹江路700号","lng":121.49265347948553,"lat":31.387667021988918,"确诊日期36":"y"},{"SH_ID_36":"10g9e04","区36":"d","地址":"南陈路260号","lng":121.39780600588927,"lat":31.308056292474134,"确诊日期36":"y"},{"SH_ID_36":"10g9e05","区36":"d","地址":"南陈路278弄","lng":121.39454124118899,"lat":31.309845422934124,"确诊日期36":"y"},{"SH_ID_36":"10g9e06","区36":"d","地址":"南陈路279弄","lng":121.39841194173357,"lat":31.309110748233635,"确诊日期36":"y"},{"SH_ID_36":"10g9e0b","区36":"d","地址":"南大路126弄","lng":121.4030611208084,"lat":31.299593561417204,"确诊日期36":"y"},{"SH_ID_36":"10g9e0c","区36":"d","地址":"南大路138弄","lng":121.40246395363017,"lat":31.30058891111529,"确诊日期36":"y"},{"SH_ID_36":"10g9e0d","区36":"d","地址":"南大路146弄","lng":121.40212065216949,"lat":31.300805247189547,"确诊日期36":"y"},{"SH_ID_36":"10g9e0e","区36":"d","地址":"南大路158弄","lng":121.4017739565715,"lat":31.302589758525937,"确诊日期36":"y"},{"SH_ID_36":"10g9e07","区36":"d","地址":"南大路17号","lng":121.40714579354399,"lat":31.29883999075455,"确诊日期36":"y"},{"SH_ID_36":"10g9e0f","区36":"d","地址":"南大路190弄","lng":121.39876712559749,"lat":31.300643768676643,"确诊日期36":"y"},{"SH_ID_36":"10g9e0g","区36":"d","地址":"南大路201号","lng":121.39750206713538,"lat":31.299377426619753,"确诊日期36":"y"},{"SH_ID_36":"10g9e08","区36":"d","地址":"南大路30号","lng":121.4072799655172,"lat":31.302132059284787,"确诊日期36":"y"},{"SH_ID_36":"10g9e0h","区36":"d","地址":"南大路355号","lng":121.3910250064113,"lat":31.299557789101065,"确诊日期36":"y"},{"SH_ID_36":"10g9e0i","区36":"d","地址":"南大路363号","lng":121.38941205920153,"lat":31.299835194773316,"确诊日期36":"y"},{"SH_ID_36":"10g9e09","区36":"d","地址":"南大路76号","lng":121.40302680250136,"lat":31.299492625946293,"确诊日期36":"y"},{"SH_ID_36":"10g9e0a","区36":"d","地址":"南大路86弄","lng":121.40611403987106,"lat":31.29974988684902,"确诊日期36":"y"},{"SH_ID_36":"10g9e0k","区36":"d","地址":"南东路108弄","lng":121.36095659350838,"lat":31.386900263309055,"确诊日期36":"y"},{"SH_ID_36":"10g9e0j","区36":"d","地址":"南东路20弄","lng":121.36246845630863,"lat":31.38470502699743,"确诊日期36":"y"},{"SH_ID_36":"10g9e0m","区36":"d","地址":"南弄街162号","lng":121.48957402025601,"lat":31.40558602175621,"确诊日期36":"y"},{"SH_ID_36":"10g9e0l","区36":"d","地址":"南弄街77弄","lng":121.4895357453426,"lat":31.405436622186606,"确诊日期36":"y"},{"SH_ID_36":"10g9e0n","区36":"d","地址":"南汀路203号","lng":121.47279890986363,"lat":31.370553786882375,"确诊日期36":"y"},{"SH_ID_36":"10g9e0o","区36":"d","地址":"南卫路38弄","lng":121.35980368045313,"lat":31.384729709263336,"确诊日期36":"y"},{"SH_ID_36":"10g9e0p","区36":"d","地址":"南蕰藻路776弄","lng":121.42155142588325,"lat":31.335730920534424,"确诊日期36":"y"},{"SH_ID_36":"10g9e9y","区36":"d","地址":"南周村","lng":121.3402531701394,"lat":31.37763211143877,"确诊日期36":"y"},{"SH_ID_36":"10g9e0q","区36":"d","地址":"年吉路100弄","lng":121.34442299014334,"lat":31.402183325492437,"确诊日期36":"y"},{"SH_ID_36":"10g9e0r","区36":"d","地址":"年吉路358弄","lng":121.35536248169127,"lat":31.399178154648506,"确诊日期36":"y"},{"SH_ID_36":"10g9e0s","区36":"d","地址":"年吉路442号","lng":121.33614576901749,"lat":31.39877519900813,"确诊日期36":"y"},{"SH_ID_36":"10g9e0t","区36":"d","地址":"年吉路650弄","lng":121.33426266650862,"lat":31.39959920935212,"确诊日期36":"y"},{"SH_ID_36":"10g9e0v","区36":"d","地址":"潘川路2185号","lng":121.33141793226798,"lat":31.456618620782557,"确诊日期36":"y"},{"SH_ID_36":"10g9e0u","区36":"d","地址":"潘川路555号","lng":121.36075599120832,"lat":31.47311313197651,"确诊日期36":"y"},{"SH_ID_36":"10g9e0x","区36":"d","地址":"潘广路1765弄","lng":121.3679940555824,"lat":31.364896051722088,"确诊日期36":"y"},{"SH_ID_36":"10g9e0w","区36":"d","地址":"潘广路699号","lng":121.38085794667141,"lat":31.36937606816082,"确诊日期36":"y"},{"SH_ID_36":"10g9e0z","区36":"d","地址":"潘沪路188弄","lng":121.33324917940321,"lat":31.48195019822113,"确诊日期36":"y"},{"SH_ID_36":"10g9e10","区36":"d","地址":"潘沪路197号","lng":121.3327487703435,"lat":31.480276874204456,"确诊日期36":"y"},{"SH_ID_36":"10g9e11","区36":"d","地址":"潘沪路201号","lng":121.3331723884476,"lat":31.48034318787161,"确诊日期36":"y"},{"SH_ID_36":"10g9e12","区36":"d","地址":"潘沪路203号","lng":121.33233589290879,"lat":31.48010658947002,"确诊日期36":"y"},{"SH_ID_36":"10g9e0y","区36":"d","地址":"潘沪路69弄","lng":121.33686513838327,"lat":31.480121545382772,"确诊日期36":"y"},{"SH_ID_36":"10g9e13","区36":"d","地址":"潘泾路1101号","lng":121.38956812311135,"lat":31.3845978123784,"确诊日期36":"y"},{"SH_ID_36":"10g9e14","区36":"d","地址":"潘泾路1318弄","lng":121.3829945270553,"lat":31.380379719033282,"确诊日期36":"y"},{"SH_ID_36":"10g9e15","区36":"d","地址":"潘泾路2999号","lng":121.36225078464456,"lat":31.4334891621032,"确诊日期36":"y"},{"SH_ID_36":"10g9e16","区36":"d","地址":"潘泾路4655弄","lng":121.34944274872953,"lat":31.462475643744348,"确诊日期36":"y"},{"SH_ID_36":"10g9e9z","区36":"d","地址":"潘桥村","lng":121.32664219370622,"lat":31.45495355368588,"确诊日期36":"y"},{"SH_ID_36":"10g9e17","区36":"d","地址":"潘新路118弄","lng":121.33041086765938,"lat":31.487222814429717,"确诊日期36":"y"},{"SH_ID_36":"10g9e18","区36":"d","地址":"潘新路558弄","lng":121.32311942675905,"lat":31.485232335318255,"确诊日期36":"y"},{"SH_ID_36":"10g9e19","区36":"d","地址":"盘古路226号","lng":121.48868723249944,"lat":31.409492413352872,"确诊日期36":"y"},{"SH_ID_36":"10g9e1a","区36":"d","地址":"盘古路588弄","lng":121.47645881052966,"lat":31.405405387082933,"确诊日期36":"y"},{"SH_ID_36":"10g9e1b","区36":"d","地址":"盘古路689弄","lng":121.4718398282181,"lat":31.406778064727686,"确诊日期36":"y"},{"SH_ID_36":"10g9e1c","区36":"d","地址":"盘古路777号","lng":121.46720027733643,"lat":31.40360608655197,"确诊日期36":"y"},{"SH_ID_36":"10g9e1d","区36":"d","地址":"盘古路927弄","lng":121.46222483252171,"lat":31.401530116799982,"确诊日期36":"y"},{"SH_ID_36":"10g9ea0","区36":"d","地址":"炮台村","lng":121.49670706289093,"lat":31.387130407031904,"确诊日期36":"y"},{"SH_ID_36":"10g9e1f","区36":"d","地址":"祁北东路209号","lng":121.35036426305359,"lat":31.422742534440314,"确诊日期36":"y"},{"SH_ID_36":"10g9e1g","区36":"d","地址":"祁北东路361弄","lng":121.3465732793216,"lat":31.42112189994769,"确诊日期36":"y"},{"SH_ID_36":"10g9e1e","区36":"d","地址":"祁北东路85弄","lng":121.353108192127,"lat":31.424835779033284,"确诊日期36":"y"},{"SH_ID_36":"10g9e1h","区36":"d","地址":"祁华路300弄","lng":121.37078304591545,"lat":31.322795810406404,"确诊日期36":"y"},{"SH_ID_36":"10g9ea1","区36":"d","地址":"祁连二村","lng":121.38056157463554,"lat":31.31732360317978,"确诊日期36":"y"},{"SH_ID_36":"10g9ea2","区36":"d","地址":"祁连三村","lng":121.38290798804124,"lat":31.311573409438886,"确诊日期36":"y"},{"SH_ID_36":"10g9ea3","区36":"d","地址":"祁连四村","lng":121.38247947268533,"lat":31.31687449551276,"确诊日期36":"y"},{"SH_ID_36":"10g9e1i","区36":"d","地址":"祁真路199弄","lng":121.37743976844823,"lat":31.32039185300942,"确诊日期36":"y"},{"SH_ID_36":"10g9e1j","区36":"d","地址":"钱陆路753弄","lng":121.38843273723016,"lat":31.441502256636728,"确诊日期36":"y"},{"SH_ID_36":"10g9e1k","区36":"d","地址":"乾溪路251弄","lng":121.4100646819583,"lat":31.305842683920357,"确诊日期36":"y"},{"SH_ID_36":"10g9ea4","区36":"d","地址":"勤丰村","lng":121.39237596618513,"lat":31.414881361587998,"确诊日期36":"y"},{"SH_ID_36":"10g9e1l","区36":"d","地址":"邱家弄","lng":121.34363405686624,"lat":31.416869045971858,"确诊日期36":"y"},{"SH_ID_36":"10g9e1m","区36":"d","地址":"瑞丰路456弄","lng":121.37513360856009,"lat":31.31857867349076,"确诊日期36":"y"},{"SH_ID_36":"10g9e1n","区36":"d","地址":"三门路485弄","lng":121.49444790233564,"lat":31.314083585041466,"确诊日期36":"y"},{"SH_ID_36":"10g9e1o","区36":"d","地址":"三门路497弄","lng":121.49296040120046,"lat":31.311988744533256,"确诊日期36":"y"},{"SH_ID_36":"10g9e1p","区36":"d","地址":"三门路505弄","lng":121.49062778046088,"lat":31.311640903934887,"确诊日期36":"y"},{"SH_ID_36":"10g9e1q","区36":"d","地址":"三门路555弄","lng":121.48930811507775,"lat":31.312094790273388,"确诊日期36":"y"},{"SH_ID_36":"10g9e1r","区36":"d","地址":"三门路559弄","lng":121.48844241456395,"lat":31.31187104240951,"确诊日期36":"y"},{"SH_ID_36":"10g9ea5","区36":"d","地址":"三星村","lng":121.35058401097298,"lat":31.31103021754862,"确诊日期36":"y"},{"SH_ID_36":"10g9e1s","区36":"d","地址":"沙浦路311弄","lng":121.38705485324601,"lat":31.355594687599027,"确诊日期36":"y"},{"SH_ID_36":"10g9e1t","区36":"d","地址":"沙浦路518弄","lng":121.382368679315,"lat":31.35619501931027,"确诊日期36":"y"},{"SH_ID_36":"10g9e1u","区36":"d","地址":"山连路168号","lng":121.35688858565163,"lat":31.305351933227467,"确诊日期36":"y"},{"SH_ID_36":"10g9e1w","区36":"d","地址":"上大路1288弄","lng":121.38449283334556,"lat":31.308752739819013,"确诊日期36":"y"},{"SH_ID_36":"10g9e1v","区36":"d","地址":"上大路128弄","lng":121.40692896933662,"lat":31.31185359302333,"确诊日期36":"y"},{"SH_ID_36":"10g9e1x","区36":"d","地址":"韶山路418弄","lng":121.36564689580645,"lat":31.3652656218164,"确诊日期36":"y"},{"SH_ID_36":"10g9e1y","区36":"d","地址":"申浦路288弄","lng":121.41321274530644,"lat":31.425459083143725,"确诊日期36":"y"},{"SH_ID_36":"10g9ea6","区36":"d","地址":"沈家桥村","lng":121.38976815589959,"lat":31.4506181626842,"确诊日期36":"y"},{"SH_ID_36":"10g9ea7","区36":"d","地址":"沈巷村","lng":121.41147972104868,"lat":31.419713980072437,"确诊日期36":"y"},{"SH_ID_36":"10g9ea8","区36":"d","地址":"沈杨村","lng":121.37268295055233,"lat":31.330651146993,"确诊日期36":"y"},{"SH_ID_36":"10g9ea9","区36":"d","地址":"盛桥三村","lng":121.40092125787672,"lat":31.450188780992796,"确诊日期36":"y"},{"SH_ID_36":"10g9eaa","区36":"d","地址":"盛星村","lng":121.38562090228686,"lat":31.44930753314928,"确诊日期36":"y"},{"SH_ID_36":"10g9eab","区36":"d","地址":"盛宅村","lng":121.41029026086036,"lat":31.349060307009164,"确诊日期36":"y"},{"SH_ID_36":"10g9e1z","区36":"d","地址":"石太路1588号","lng":121.37360483284478,"lat":31.439632646816303,"确诊日期36":"y"},{"SH_ID_36":"10g9e20","区36":"d","地址":"石太路2888号","lng":121.34993073966747,"lat":31.431964665195004,"确诊日期36":"y"},{"SH_ID_36":"10g9e21","区36":"d","地址":"石太路3121号","lng":121.34188608427768,"lat":31.43020581023141,"确诊日期36":"y"},{"SH_ID_36":"10g9e22","区36":"d","地址":"石太路3512弄","lng":121.34263149281341,"lat":31.429654954889916,"确诊日期36":"y"},{"SH_ID_36":"10g9eac","区36":"d","地址":"拾年村","lng":121.37170776154534,"lat":31.391955278354164,"确诊日期36":"y"},{"SH_ID_36":"10g9e23","区36":"d","地址":"市河街6弄","lng":121.34179288005748,"lat":31.41192232348191,"确诊日期36":"y"},{"SH_ID_36":"10g9e24","区36":"d","地址":"市台路388弄","lng":121.35139065637628,"lat":31.31549694901992,"确诊日期36":"y"},{"SH_ID_36":"10g9e25","区36":"d","地址":"市台路555弄","lng":121.34930483211454,"lat":31.318362652649107,"确诊日期36":"y"},{"SH_ID_36":"10g9e26","区36":"d","地址":"市一路153弄","lng":121.34924809153635,"lat":31.414377481047797,"确诊日期36":"y"},{"SH_ID_36":"10g9e27","区36":"d","地址":"市一路178弄","lng":121.34823426702202,"lat":31.416331525805052,"确诊日期36":"y"},{"SH_ID_36":"10g9e28","区36":"d","地址":"市一路199号","lng":121.34757743211574,"lat":31.414680993986703,"确诊日期36":"y"},{"SH_ID_36":"10g9e29","区36":"d","地址":"市一路200号","lng":121.34657547796985,"lat":31.415259204903528,"确诊日期36":"y"},{"SH_ID_36":"10g9e2a","区36":"d","地址":"市一路213号","lng":121.34587551539248,"lat":31.41463830307543,"确诊日期36":"y"},{"SH_ID_36":"10g9e2b","区36":"d","地址":"市一路220弄","lng":121.34554251479143,"lat":31.41559340270984,"确诊日期36":"y"},{"SH_ID_36":"10g9e2c","区36":"d","地址":"双城路803弄","lng":121.4851679596602,"lat":31.389007748988035,"确诊日期36":"y"},{"SH_ID_36":"10g9e2d","区36":"d","地址":"双庆路85弄","lng":121.48772704637165,"lat":31.389208530123213,"确诊日期36":"y"},{"SH_ID_36":"10g9e2f","区36":"d","地址":"水产路1269号","lng":121.48667936872668,"lat":31.382068968906626,"确诊日期36":"y"},{"SH_ID_36":"10g9e2e","区36":"d","地址":"水产路153号","lng":121.50336652887644,"lat":31.39017717709781,"确诊日期36":"y"},{"SH_ID_36":"10g9e2g","区36":"d","地址":"水产路1699号","lng":121.46561013349827,"lat":31.378317257279715,"确诊日期36":"y"},{"SH_ID_36":"10g9e2h","区36":"d","地址":"水产路2600弄","lng":121.44251399447504,"lat":31.364608432421296,"确诊日期36":"y"},{"SH_ID_36":"10g9e2i","区36":"d","地址":"水产西路268弄","lng":121.42780096908706,"lat":31.360056146862245,"确诊日期36":"y"},{"SH_ID_36":"10g9e2j","区36":"d","地址":"水产西路489弄","lng":121.42088939874617,"lat":31.36020486345716,"确诊日期36":"y"},{"SH_ID_36":"10g9e2k","区36":"d","地址":"水产西路495号","lng":121.42188007650881,"lat":31.358474066387835,"确诊日期36":"y"},{"SH_ID_36":"10g9e2l","区36":"d","地址":"水产西路729弄","lng":121.41740213611737,"lat":31.358233087980793,"确诊日期36":"y"},{"SH_ID_36":"10g9e2m","区36":"d","地址":"水产西路777弄","lng":121.41545281860355,"lat":31.356827375749813,"确诊日期36":"y"},{"SH_ID_36":"10g9e2n","区36":"d","地址":"水产西路858弄","lng":121.41469577659855,"lat":31.354099190453766,"确诊日期36":"y"},{"SH_ID_36":"10g9e2o","区36":"d","地址":"水产西路859弄","lng":121.4135869097147,"lat":31.35598979111455,"确诊日期36":"y"},{"SH_ID_36":"10g9ead","区36":"d","地址":"水上新村","lng":121.48791390528766,"lat":31.408699528942957,"确诊日期36":"y"},{"SH_ID_36":"10g9e2p","区36":"d","地址":"四元路20弄","lng":121.43506430537236,"lat":31.41192305548081,"确诊日期36":"y"},{"SH_ID_36":"10g9e2q","区36":"d","地址":"泗东路37号","lng":121.48386908888422,"lat":31.368325060707765,"确诊日期36":"y"},{"SH_ID_36":"10g9eae","区36":"d","地址":"泗东新村","lng":121.48506941171452,"lat":31.368397648784164,"确诊日期36":"y"},{"SH_ID_36":"10g9eal","区36":"d","地址":"泗塘八村","lng":121.45728212117679,"lat":31.329846517168622,"确诊日期36":"y"},{"SH_ID_36":"10g9eag","区36":"d","地址":"泗塘二村","lng":121.45621466674288,"lat":31.337128871149737,"确诊日期36":"y"},{"SH_ID_36":"10g9eak","区36":"d","地址":"泗塘七村","lng":121.4623251457404,"lat":31.330329153080402,"确诊日期36":"y"},{"SH_ID_36":"10g9eah","区36":"d","地址":"泗塘三村","lng":121.45571580314947,"lat":31.33379659764108,"确诊日期36":"y"},{"SH_ID_36":"10g9eai","区36":"d","地址":"泗塘四村","lng":121.46015423470037,"lat":31.336849530928895,"确诊日期36":"y"},{"SH_ID_36":"10g9eaj","区36":"d","地址":"泗塘五村","lng":121.46171769252487,"lat":31.33319213574407,"确诊日期36":"y"},{"SH_ID_36":"10g9eaf","区36":"d","地址":"泗塘一村","lng":121.45180211459517,"lat":31.337739889888553,"确诊日期36":"y"},{"SH_ID_36":"10g9e2r","区36":"d","地址":"松兰路198弄","lng":121.45111253753734,"lat":31.367888848371482,"确诊日期36":"y"},{"SH_ID_36":"10g9e2s","区36":"d","地址":"松兰路233弄","lng":121.4489526772565,"lat":31.370631753949432,"确诊日期36":"y"},{"SH_ID_36":"10g9e2t","区36":"d","地址":"松兰路328弄","lng":121.44950331927072,"lat":31.373303636828535,"确诊日期36":"y"},{"SH_ID_36":"10g9e2u","区36":"d","地址":"松兰路879号","lng":121.44479390332158,"lat":31.37960764819522,"确诊日期36":"y"},{"SH_ID_36":"10g9e2v","区36":"d","地址":"淞滨路15弄","lng":121.49445399264545,"lat":31.372699307292805,"确诊日期36":"y"},{"SH_ID_36":"10g9e2w","区36":"d","地址":"淞滨路48弄","lng":121.50004593320136,"lat":31.374897209161045,"确诊日期36":"y"},{"SH_ID_36":"10g9e2x","区36":"d","地址":"淞滨路803弄","lng":121.48842006534367,"lat":31.37146395035448,"确诊日期36":"y"},{"SH_ID_36":"10g9e2y","区36":"d","地址":"淞滨支路120弄","lng":121.48678736712033,"lat":31.369713760192052,"确诊日期36":"y"},{"SH_ID_36":"10g9e2z","区36":"d","地址":"淞发路500弄","lng":121.49051334500471,"lat":31.34181139326787,"确诊日期36":"y"},{"SH_ID_36":"10g9e30","区36":"d","地址":"淞发路901弄","lng":121.48733189531286,"lat":31.342746369936965,"确诊日期36":"y"},{"SH_ID_36":"10g9eas","区36":"d","地址":"淞南八村","lng":121.4817043815069,"lat":31.335157775859017,"确诊日期36":"y"},{"SH_ID_36":"10g9eaq","区36":"d","地址":"淞南六村","lng":121.48425014843345,"lat":31.339866948368332,"确诊日期36":"y"},{"SH_ID_36":"10g9e31","区36":"d","地址":"淞南路493号","lng":121.49063506954653,"lat":31.347141845743778,"确诊日期36":"y"},{"SH_ID_36":"10g9ear","区36":"d","地址":"淞南七村","lng":121.48173720153024,"lat":31.333363372847213,"确诊日期36":"y"},{"SH_ID_36":"10g9ean","区36":"d","地址":"淞南三村","lng":121.48921318153148,"lat":31.344603434964707,"确诊日期36":"y"},{"SH_ID_36":"10g9eat","区36":"d","地址":"淞南十村","lng":121.47265833064448,"lat":31.333704933591612,"确诊日期36":"y"},{"SH_ID_36":"10g9eao","区36":"d","地址":"淞南四村","lng":121.49072013853869,"lat":31.348401771546758,"确诊日期36":"y"},{"SH_ID_36":"10g9eap","区36":"d","地址":"淞南五村","lng":121.48514980905883,"lat":31.339201744375387,"确诊日期36":"y"},{"SH_ID_36":"10g9eam","区36":"d","地址":"淞南一村","lng":121.4845226622983,"lat":31.342327686342436,"确诊日期36":"y"},{"SH_ID_36":"10g9e32","区36":"d","地址":"淞浦路727号","lng":121.49165452569301,"lat":31.36781064550089,"确诊日期36":"y"},{"SH_ID_36":"10g9e33","区36":"d","地址":"淞青路18号","lng":121.50104580016826,"lat":31.39057503589872,"确诊日期36":"y"},{"SH_ID_36":"10g9e36","区36":"d","地址":"淞兴路163号","lng":121.49721395756117,"lat":31.3726864978529,"确诊日期36":"y"},{"SH_ID_36":"10g9e37","区36":"d","地址":"淞兴路305弄","lng":121.49561357359929,"lat":31.371813446771824,"确诊日期36":"y"},{"SH_ID_36":"10g9e34","区36":"d","地址":"淞兴路76弄","lng":121.49857221281476,"lat":31.373110496077143,"确诊日期36":"y"},{"SH_ID_36":"10g9e35","区36":"d","地址":"淞兴路92号","lng":121.49124214156686,"lat":31.369224158838417,"确诊日期36":"y"},{"SH_ID_36":"10g9e38","区36":"d","地址":"淞兴西路268号","lng":121.48620495424335,"lat":31.367140674245714,"确诊日期36":"y"},{"SH_ID_36":"10g9e39","区36":"d","地址":"淞肇路321号","lng":121.48281332223483,"lat":31.34118012729422,"确诊日期36":"y"},{"SH_ID_36":"10g9e3a","区36":"d","地址":"淞肇路323号","lng":121.48231771551502,"lat":31.341965531533674,"确诊日期36":"y"},{"SH_ID_36":"10g9e3b","区36":"d","地址":"苏家浜路388弄","lng":121.39141801624466,"lat":31.36310071597022,"确诊日期36":"y"},{"SH_ID_36":"10g9e3c","区36":"d","地址":"苏家浜路435弄","lng":121.39202972042347,"lat":31.359774916492167,"确诊日期36":"y"},{"SH_ID_36":"10g9eau","区36":"d","地址":"苏家村","lng":121.41304468421386,"lat":31.401878638636457,"确诊日期36":"y"},{"SH_ID_36":"10g9e3f","区36":"d","地址":"绥化路201弄","lng":121.4316510045364,"lat":31.407164759911552,"确诊日期36":"y"},{"SH_ID_36":"10g9e3d","区36":"d","地址":"绥化路50弄","lng":121.43631291164937,"lat":31.404727933622652,"确诊日期36":"y"},{"SH_ID_36":"10g9e3e","区36":"d","地址":"绥化路52弄","lng":121.43409888405027,"lat":31.404407651518493,"确诊日期36":"y"},{"SH_ID_36":"10g9e3h","区36":"d","地址":"塔源路150弄","lng":121.39830946229205,"lat":31.44610010071031,"确诊日期36":"y"},{"SH_ID_36":"10g9e3i","区36":"d","地址":"塔源路302弄","lng":121.39765800471692,"lat":31.451287781845746,"确诊日期36":"y"},{"SH_ID_36":"10g9e3g","区36":"d","地址":"塔源路58弄","lng":121.40251282685145,"lat":31.448587888103418,"确诊日期36":"y"},{"SH_ID_36":"10g9e3m","区36":"d","地址":"泰和路1700号","lng":121.44840522405669,"lat":31.35480529760031,"确诊日期36":"y"},{"SH_ID_36":"10g9e3j","区36":"d","地址":"泰和路318弄","lng":121.49380245281301,"lat":31.373102360238626,"确诊日期36":"y"},{"SH_ID_36":"10g9e3k","区36":"d","地址":"泰和路678弄","lng":121.48786169016947,"lat":31.370254089576893,"确诊日期36":"y"},{"SH_ID_36":"10g9e3l","区36":"d","地址":"泰和路710弄","lng":121.48535456692943,"lat":31.370034983757247,"确诊日期36":"y"},{"SH_ID_36":"10g9e3n","区36":"d","地址":"泰和西路3463弄","lng":121.40591841048258,"lat":31.34945913303132,"确诊日期36":"y"},{"SH_ID_36":"10g9e3o","区36":"d","地址":"泰和西路3493弄","lng":121.40411504792208,"lat":31.35043103408904,"确诊日期36":"y"},{"SH_ID_36":"10g9e3p","区36":"d","地址":"泰和西路3499弄","lng":121.40238416393946,"lat":31.349871514841087,"确诊日期36":"y"},{"SH_ID_36":"10g9e3q","区36":"d","地址":"泰和西路3527弄","lng":121.40004546043329,"lat":31.347582452386614,"确诊日期36":"y"},{"SH_ID_36":"10g9eav","区36":"d","地址":"谭杨村","lng":121.39470623160612,"lat":31.37465308895909,"确诊日期36":"y"},{"SH_ID_36":"10g9e3r","区36":"d","地址":"塘后路285弄","lng":121.50492924306768,"lat":31.39651345333124,"确诊日期36":"y"},{"SH_ID_36":"10g9e3s","区36":"d","地址":"塘后支路55弄","lng":121.50737826634784,"lat":31.3912424647013,"确诊日期36":"y"},{"SH_ID_36":"10g9e3t","区36":"d","地址":"塘南街57号","lng":121.43068716051881,"lat":31.41923365952018,"确诊日期36":"y"},{"SH_ID_36":"10g9eaw","区36":"d","地址":"塘湾村","lng":121.31934375352425,"lat":31.49109800355838,"确诊日期36":"y"},{"SH_ID_36":"10g9e3u","区36":"d","地址":"塘西街213弄","lng":121.34326886621056,"lat":31.415640226972204,"确诊日期36":"y"},{"SH_ID_36":"10g9e3v","区36":"d","地址":"塘西街259号","lng":121.34301902344662,"lat":31.41863985770259,"确诊日期36":"y"},{"SH_ID_36":"10g9e3w","区36":"d","地址":"塘西街397弄","lng":121.34271613308337,"lat":31.421725524317402,"确诊日期36":"y"},{"SH_ID_36":"10g9e3x","区36":"d","地址":"塘西街398弄","lng":121.33930692137567,"lat":31.420956995696038,"确诊日期36":"y"},{"SH_ID_36":"10g9eax","区36":"d","地址":"桃园新村","lng":121.48893964007087,"lat":31.370826635269342,"确诊日期36":"y"},{"SH_ID_36":"10g9e3z","区36":"d","地址":"天家路116弄","lng":121.33967561362618,"lat":31.38453556459602,"确诊日期36":"y"},{"SH_ID_36":"10g9e40","区36":"d","地址":"天家路199弄","lng":121.33845044813569,"lat":31.38266324516627,"确诊日期36":"y"},{"SH_ID_36":"10g9e41","区36":"d","地址":"天家路200弄","lng":121.33802155947701,"lat":31.38387203492704,"确诊日期36":"y"},{"SH_ID_36":"10g9e3y","区36":"d","地址":"天家路99弄","lng":121.3406407249116,"lat":31.383418283740816,"确诊日期36":"y"},{"SH_ID_36":"10g9e42","区36":"d","地址":"铁城路1555号","lng":121.45148871999616,"lat":31.356270412949815,"确诊日期36":"y"},{"SH_ID_36":"10g9e43","区36":"d","地址":"铁峰路2000弄","lng":121.45321261091823,"lat":31.39593131170435,"确诊日期36":"y"},{"SH_ID_36":"10g9e44","区36":"d","地址":"铁峰路2001弄","lng":121.45634114100322,"lat":31.397379976836948,"确诊日期36":"y"},{"SH_ID_36":"10g9e46","区36":"d","地址":"铁力路229号","lng":121.47615827722807,"lat":31.375463014422174,"确诊日期36":"y"},{"SH_ID_36":"10g9e47","区36":"d","地址":"铁力路388号","lng":121.46923875034487,"lat":31.381098649955973,"确诊日期36":"y"},{"SH_ID_36":"10g9e45","区36":"d","地址":"铁力路3号","lng":121.47384968711276,"lat":31.368491572054577,"确诊日期36":"y"},{"SH_ID_36":"10g9e48","区36":"d","地址":"铁力路785号","lng":121.4692860209975,"lat":31.39575554184082,"确诊日期36":"y"},{"SH_ID_36":"10g9e4a","区36":"d","地址":"铁山路38号","lng":121.46715919324095,"lat":31.362984285672905,"确诊日期36":"y"},{"SH_ID_36":"10g9e4b","区36":"d","地址":"铁山路55号","lng":121.4680414625038,"lat":31.36287878178357,"确诊日期36":"y"},{"SH_ID_36":"10g9e4c","区36":"d","地址":"铁山路69号","lng":121.46978175364553,"lat":31.36399260680606,"确诊日期36":"y"},{"SH_ID_36":"10g9e49","区36":"d","地址":"铁山路9号","lng":121.46943321052802,"lat":31.360627235262747,"确诊日期36":"y"},{"SH_ID_36":"10g9e4d","区36":"d","地址":"亭前街15号","lng":121.34672576901855,"lat":31.41287501741891,"确诊日期36":"y"},{"SH_ID_36":"10g9e4e","区36":"d","地址":"亭前街75号","lng":121.3447655651947,"lat":31.41254778855583,"确诊日期36":"y"},{"SH_ID_36":"10g9eb4","区36":"d","地址":"通河八村","lng":121.44741366597864,"lat":31.32926926590835,"确诊日期36":"y"},{"SH_ID_36":"10g9eaz","区36":"d","地址":"通河二村","lng":121.44694971963675,"lat":31.333824829897157,"确诊日期36":"y"},{"SH_ID_36":"10g9eb2","区36":"d","地址":"通河六村","lng":121.45189603022855,"lat":31.331034755191954,"确诊日期36":"y"},{"SH_ID_36":"10g9e4f","区36":"d","地址":"通河路221号","lng":121.45220271530876,"lat":31.33140028312267,"确诊日期36":"y"},{"SH_ID_36":"10g9eb3","区36":"d","地址":"通河七村","lng":121.45192302364978,"lat":31.329315236789594,"确诊日期36":"y"},{"SH_ID_36":"10g9eb0","区36":"d","地址":"通河三村","lng":121.44459054510136,"lat":31.335462676717437,"确诊日期36":"y"},{"SH_ID_36":"10g9eb1","区36":"d","地址":"通河四村","lng":121.44507834936556,"lat":31.330888215778756,"确诊日期36":"y"},{"SH_ID_36":"10g9eay","区36":"d","地址":"通河一村","lng":121.44692780796582,"lat":31.333957184026204,"确诊日期36":"y"},{"SH_ID_36":"10g9e4g","区36":"d","地址":"通南路328弄","lng":121.4711655457099,"lat":31.334237172109425,"确诊日期36":"y"},{"SH_ID_36":"10g9e4h","区36":"d","地址":"通南路369号","lng":121.46819775408703,"lat":31.336024939201412,"确诊日期36":"y"},{"SH_ID_36":"10g9e4i","区36":"d","地址":"同济路303号","lng":121.48939733500714,"lat":31.38090241749779,"确诊日期36":"y"},{"SH_ID_36":"10g9e4j","区36":"d","地址":"同济路333号","lng":121.48759589422342,"lat":31.384140007637463,"确诊日期36":"y"},{"SH_ID_36":"10g9e4k","区36":"d","地址":"同济路343号","lng":121.48587157003875,"lat":31.38603753881378,"确诊日期36":"y"},{"SH_ID_36":"10g9e4l","区36":"d","地址":"同济支路199号","lng":121.49135230704246,"lat":31.378948645327107,"确诊日期36":"y"},{"SH_ID_36":"10g9e4m","区36":"d","地址":"同泰北路447号","lng":121.4924879012825,"lat":31.3817675733247,"确诊日期36":"y"},{"SH_ID_36":"10g9e4n","区36":"d","地址":"同泰路135弄","lng":121.49731642160087,"lat":31.374548597781963,"确诊日期36":"y"},{"SH_ID_36":"10g9eb5","区36":"d","地址":"王家村","lng":121.38847950346046,"lat":31.385857191854154,"确诊日期36":"y"},{"SH_ID_36":"10g9eb6","区36":"d","地址":"王宅村","lng":121.35962170847101,"lat":31.33574563359632,"确诊日期36":"y"},{"SH_ID_36":"10g9e6q","区36":"d","地址":"蕰川路12号","lng":121.43534829089306,"lat":31.346652139563023,"确诊日期36":"y"},{"SH_ID_36":"10g9e6s","区36":"d","地址":"蕰川路1498弄","lng":121.42536013342823,"lat":31.360691189813505,"确诊日期36":"y"},{"SH_ID_36":"10g9e6t","区36":"d","地址":"蕰川路1623弄","lng":121.43466069734171,"lat":31.368378284189042,"确诊日期36":"y"},{"SH_ID_36":"10g9e6u","区36":"d","地址":"蕰川路2767号","lng":121.422451790118,"lat":31.40450834825097,"确诊日期36":"y"},{"SH_ID_36":"10g9e6v","区36":"d","地址":"蕰川路3995号","lng":121.42022026271677,"lat":31.415459408203635,"确诊日期36":"y"},{"SH_ID_36":"10g9e6r","区36":"d","地址":"蕰川路516弄","lng":121.43531171921212,"lat":31.346617544151812,"确诊日期36":"y"},{"SH_ID_36":"10g9e6w","区36":"d","地址":"蕰川路5575号","lng":121.4054732970541,"lat":31.45381402013187,"确诊日期36":"y"},{"SH_ID_36":"10g9e6x","区36":"d","地址":"蕰藻南路399号","lng":121.46210552647565,"lat":31.353121129546324,"确诊日期36":"y"},{"SH_ID_36":"10g9e4o","区36":"d","地址":"汶水路1585弄","lng":121.41579053097063,"lat":31.289686006899203,"确诊日期36":"y"},{"SH_ID_36":"10g9eb7","区36":"d","地址":"吴淞三村","lng":121.49594479935365,"lat":31.37051551330339,"确诊日期36":"y"},{"SH_ID_36":"10g9eb8","区36":"d","地址":"五星村","lng":121.34690317021276,"lat":31.304563429581794,"确诊日期36":"y"},{"SH_ID_36":"10g9eb9","区36":"d","地址":"西浜村","lng":121.44117557271521,"lat":31.35841289478163,"确诊日期36":"y"},{"SH_ID_36":"10g9eba","区36":"d","地址":"西街村","lng":121.43242097990345,"lat":31.372489579583345,"确诊日期36":"y"},{"SH_ID_36":"10g9ebb","区36":"d","地址":"西埝村","lng":121.36472760485367,"lat":31.384184523063183,"确诊日期36":"y"},{"SH_ID_36":"10g9ebc","区36":"d","地址":"西朱新村","lng":121.49085688796754,"lat":31.37480083547604,"确诊日期36":"y"},{"SH_ID_36":"10g9e4p","区36":"d","地址":"萧月路151号","lng":121.32820742549092,"lat":31.48755212004889,"确诊日期36":"y"},{"SH_ID_36":"10g9e4q","区36":"d","地址":"萧云路1318弄","lng":121.3318970183526,"lat":31.45580461473021,"确诊日期36":"y"},{"SH_ID_36":"10g9ebd","区36":"d","地址":"肖泾村","lng":121.32368133120758,"lat":31.4654793358482,"确诊日期36":"y"},{"SH_ID_36":"10g9e4u","区36":"d","地址":"新二路1088弄","lng":121.47232843284957,"lat":31.33116897290134,"确诊日期36":"y"},{"SH_ID_36":"10g9e4r","区36":"d","地址":"新二路168号","lng":121.47481410965078,"lat":31.32567867501118,"确诊日期36":"y"},{"SH_ID_36":"10g9e4s","区36":"d","地址":"新二路183弄","lng":121.47508570972508,"lat":31.325864311574044,"确诊日期36":"y"},{"SH_ID_36":"10g9e4t","区36":"d","地址":"新二路999弄","lng":121.47689440994509,"lat":31.327085565424316,"确诊日期36":"y"},{"SH_ID_36":"10g9e4y","区36":"d","地址":"新沪路1099弄","lng":121.4203143656308,"lat":31.27680401168522,"确诊日期36":"y"},{"SH_ID_36":"10g9e4z","区36":"d","地址":"新沪路1208号","lng":121.42079399693557,"lat":31.276406466869982,"确诊日期36":"y"},{"SH_ID_36":"10g9e4w","区36":"d","地址":"新沪路285弄","lng":121.41800095813471,"lat":31.269167263053447,"确诊日期36":"y"},{"SH_ID_36":"10g9e4v","区36":"d","地址":"新沪路58弄","lng":121.41966920932799,"lat":31.267671079635267,"确诊日期36":"y"},{"SH_ID_36":"10g9e4x","区36":"d","地址":"新沪路689弄","lng":121.4180005993678,"lat":31.271350077715077,"确诊日期36":"y"},{"SH_ID_36":"10g9ebe","区36":"d","地址":"新苗村","lng":121.3163039936272,"lat":31.48337178979949,"确诊日期36":"y"},{"SH_ID_36":"10g9ebf","区36":"d","地址":"星星村","lng":121.41211278673747,"lat":31.37352167271742,"确诊日期36":"y"},{"SH_ID_36":"10g9du8","区36":"d","地址":"行知路569弄","lng":121.4120103029821,"lat":31.283429727643792,"确诊日期36":"y"},{"SH_ID_36":"10g9du9","区36":"d","地址":"行知路572弄","lng":121.4121586981473,"lat":31.28422368382816,"确诊日期36":"y"},{"SH_ID_36":"10g9dua","区36":"d","地址":"行知路684弄","lng":121.40866422463864,"lat":31.285456847586854,"确诊日期36":"y"},{"SH_ID_36":"10g9e50","区36":"d","地址":"阳曲路1053号","lng":121.4596167207369,"lat":31.323249940433467,"确诊日期36":"y"},{"SH_ID_36":"10g9e51","区36":"d","地址":"阳曲路1111弄","lng":121.45852354565362,"lat":31.32461005401463,"确诊日期36":"y"},{"SH_ID_36":"10g9e52","区36":"d","地址":"阳曲路1388弄","lng":121.46113903059404,"lat":31.32635117133076,"确诊日期36":"y"},{"SH_ID_36":"10g9e53","区36":"d","地址":"杨北路1568弄","lng":121.41423694411597,"lat":31.392251127221808,"确诊日期36":"y"},{"SH_ID_36":"10g9e54","区36":"d","地址":"杨南路167号","lng":121.41708288873092,"lat":31.406360183345342,"确诊日期36":"y"},{"SH_ID_36":"10g9ebg","区36":"d","地址":"杨泰二村","lng":121.44088881324036,"lat":31.369383562864478,"确诊日期36":"y"},{"SH_ID_36":"10g9e57","区36":"d","地址":"杨泰路2158弄","lng":121.42987602085248,"lat":31.393335185052866,"确诊日期36":"y"},{"SH_ID_36":"10g9e56","区36":"d","地址":"杨泰路386号","lng":121.44102523463056,"lat":31.374316635223682,"确诊日期36":"y"},{"SH_ID_36":"10g9e55","区36":"d","地址":"杨泰路99弄","lng":121.45113490935266,"lat":31.366637285208284,"确诊日期36":"y"},{"SH_ID_36":"10g9ebh","区36":"d","地址":"杨泰三村","lng":121.44928071934623,"lat":31.362831040480074,"确诊日期36":"y"},{"SH_ID_36":"10g9e58","区36":"d","地址":"杨鑫路69号","lng":121.45077333303115,"lat":31.372572042885405,"确诊日期36":"y"},{"SH_ID_36":"10g9e59","区36":"d","地址":"杨鑫路98弄","lng":121.4503934647294,"lat":31.37205442791501,"确诊日期36":"y"},{"SH_ID_36":"10g9ebi","区36":"d","地址":"洋桥村","lng":121.30526707861496,"lat":31.496909415846574,"确诊日期36":"y"},{"SH_ID_36":"10g9e5b","区36":"d","地址":"业绩路23号","lng":121.35600903617906,"lat":31.302445137909206,"确诊日期36":"y"},{"SH_ID_36":"10g9e5c","区36":"d","地址":"业绩路800号","lng":121.35616807905649,"lat":31.31488071587877,"确诊日期36":"y"},{"SH_ID_36":"10g9e5a","区36":"d","地址":"业绩路8号","lng":121.35481069672868,"lat":31.301337149892216,"确诊日期36":"y"},{"SH_ID_36":"10g9e5d","区36":"d","地址":"一二八纪念路55弄","lng":121.46667726513462,"lat":31.328769482768394,"确诊日期36":"y"},{"SH_ID_36":"10g9e5e","区36":"d","地址":"一二八纪念路688弄","lng":121.45304332831864,"lat":31.325985629450965,"确诊日期36":"y"},{"SH_ID_36":"10g9e5f","区36":"d","地址":"一二八纪念路811弄","lng":121.44948229195538,"lat":31.326320838849895,"确诊日期36":"y"},{"SH_ID_36":"10g9e5g","区36":"d","地址":"一二八纪念路933弄","lng":121.44692843128634,"lat":31.325445975238903,"确诊日期36":"y"},{"SH_ID_36":"10g9e5h","区36":"d","地址":"依安路39号","lng":121.42677719997863,"lat":31.36665435408558,"确诊日期36":"y"},{"SH_ID_36":"10g9e5i","区36":"d","地址":"怡华苑路188弄","lng":121.41875230150868,"lat":31.272021194209,"确诊日期36":"y"},{"SH_ID_36":"10g9e5j","区36":"d","地址":"逸仙路1238弄","lng":121.4819294958145,"lat":31.315253082795078,"确诊日期36":"y"},{"SH_ID_36":"10g9e5k","区36":"d","地址":"逸仙路1321弄","lng":121.48777736152364,"lat":31.31569658144669,"确诊日期36":"y"},{"SH_ID_36":"10g9e5l","区36":"d","地址":"逸仙路1588弄","lng":121.48381399837655,"lat":31.322054502068948,"确诊日期36":"y"},{"SH_ID_36":"10g9e5m","区36":"d","地址":"逸仙路3456弄","lng":121.50033423268425,"lat":31.347399720865635,"确诊日期36":"y"},{"SH_ID_36":"10g9e5n","区36":"d","地址":"逸仙路3508弄","lng":121.50102265664538,"lat":31.34897031200314,"确诊日期36":"y"},{"SH_ID_36":"10g9e5o","区36":"d","地址":"逸仙路3945号","lng":121.50258476247383,"lat":31.35457412570196,"确诊日期36":"y"},{"SH_ID_36":"10g9e5p","区36":"d","地址":"逸仙路4127号","lng":121.49893911307814,"lat":31.35947755815431,"确诊日期36":"y"},{"SH_ID_36":"10g9e5q","区36":"d","地址":"逸仙路4318号","lng":121.49546675989514,"lat":31.364784712615386,"确诊日期36":"y"},{"SH_ID_36":"10g9e5s","区36":"d","地址":"殷高路21弄","lng":121.49055209594817,"lat":31.322362544707058,"确诊日期36":"y"},{"SH_ID_36":"10g9e5t","区36":"d","地址":"殷高路42号","lng":121.48956372219548,"lat":31.320277380456215,"确诊日期36":"y"},{"SH_ID_36":"10g9e5u","区36":"d","地址":"殷高路65号","lng":121.48875040092808,"lat":31.320800426393312,"确诊日期36":"y"},{"SH_ID_36":"10g9e5r","区36":"d","地址":"殷高路7弄","lng":121.49342942842026,"lat":31.321526001904697,"确诊日期36":"y"},{"SH_ID_36":"10g9e5v","区36":"d","地址":"殷高西路711号","lng":121.4691672116093,"lat":31.320016265782197,"确诊日期36":"y"},{"SH_ID_36":"10g9e5w","区36":"d","地址":"永乐路115弄","lng":121.50221934238675,"lat":31.39803001933222,"确诊日期36":"y"},{"SH_ID_36":"10g9e5x","区36":"d","地址":"永乐路738弄","lng":121.48815636315992,"lat":31.390715355120104,"确诊日期36":"y"},{"SH_ID_36":"10g9ebk","区36":"d","地址":"永清二村","lng":121.49484660897275,"lat":31.38851259728407,"确诊日期36":"y"},{"SH_ID_36":"10g9ebj","区36":"d","地址":"永清新村","lng":121.498146815093,"lat":31.391147706408194,"确诊日期36":"y"},{"SH_ID_36":"10g9e5y","区36":"d","地址":"永顺路28弄","lng":121.35168558890585,"lat":31.414655566967927,"确诊日期36":"y"},{"SH_ID_36":"10g9e5z","区36":"d","地址":"永顺路81弄","lng":121.34891004461647,"lat":31.41210301704368,"确诊日期36":"y"},{"SH_ID_36":"10g9e63","区36":"d","地址":"友谊路1136号","lng":121.46054561856944,"lat":31.396452841325384,"确诊日期36":"y"},{"SH_ID_36":"10g9e64","区36":"d","地址":"友谊路1502号","lng":121.45728353290164,"lat":31.394763840453226,"确诊日期36":"y"},{"SH_ID_36":"10g9e65","区36":"d","地址":"友谊路1506号","lng":121.456102635694,"lat":31.394023424517137,"确诊日期36":"y"},{"SH_ID_36":"10g9e66","区36":"d","地址":"友谊路1518号","lng":121.45703582068106,"lat":31.3939835706209,"确诊日期36":"y"},{"SH_ID_36":"10g9e67","区36":"d","地址":"友谊路1588弄","lng":121.45413541064332,"lat":31.39317404267189,"确诊日期36":"y"},{"SH_ID_36":"10g9e60","区36":"d","地址":"友谊路16弄","lng":121.49120491303849,"lat":31.407602458189,"确诊日期36":"y"},{"SH_ID_36":"10g9e68","区36":"d","地址":"友谊路1869弄","lng":121.44480475675329,"lat":31.39452308960846,"确诊日期36":"y"},{"SH_ID_36":"10g9e69","区36":"d","地址":"友谊路1999弄","lng":121.44720494567723,"lat":31.39098745154362,"确诊日期36":"y"},{"SH_ID_36":"10g9e62","区36":"d","地址":"友谊路240号","lng":121.4774745732122,"lat":31.403284033607413,"确诊日期36":"y"},{"SH_ID_36":"10g9e6a","区36":"d","地址":"友谊路2699号","lng":121.43662770288009,"lat":31.38678550036474,"确诊日期36":"y"},{"SH_ID_36":"10g9e61","区36":"d","地址":"友谊路43弄","lng":121.48882149599011,"lat":31.40716476669797,"确诊日期36":"y"},{"SH_ID_36":"10g9e6b","区36":"d","地址":"友谊西路101号","lng":121.4264061955653,"lat":31.3820728775061,"确诊日期36":"y"},{"SH_ID_36":"10g9e6c","区36":"d","地址":"友谊西路588号","lng":121.41475292351288,"lat":31.382480242486718,"确诊日期36":"y"},{"SH_ID_36":"10g9e6d","区36":"d","地址":"园新路58号","lng":121.35112710155121,"lat":31.301287089250188,"确诊日期36":"y"},{"SH_ID_36":"10g9ebl","区36":"d","地址":"远景村","lng":121.33774833503152,"lat":31.40394198812678,"确诊日期36":"y"},{"SH_ID_36":"10g9e6e","区36":"d","地址":"月城路300弄","lng":121.43491971841065,"lat":31.37851742525913,"确诊日期36":"y"},{"SH_ID_36":"10g9e6f","区36":"d","地址":"月川路33弄","lng":121.40597110530278,"lat":31.4459995276681,"确诊日期36":"y"},{"SH_ID_36":"10g9e6g","区36":"d","地址":"月春路589号","lng":121.38910929734436,"lat":31.411870123904055,"确诊日期36":"y"},{"SH_ID_36":"10g9e6h","区36":"d","地址":"月富路218弄","lng":121.4102812181328,"lat":31.42647159797232,"确诊日期36":"y"},{"SH_ID_36":"10g9e6i","区36":"d","地址":"月辉路218弄","lng":121.40895763801508,"lat":31.42668651224218,"确诊日期36":"y"},{"SH_ID_36":"10g9e6j","区36":"d","地址":"月罗公路2380号","lng":121.35100170741308,"lat":31.40928842868289,"确诊日期36":"y"},{"SH_ID_36":"10g9e6m","区36":"d","地址":"月罗路2425弄","lng":121.3484723235848,"lat":31.408703208944043,"确诊日期36":"y"},{"SH_ID_36":"10g9e6k","区36":"d","地址":"月罗路307弄","lng":121.41131113696714,"lat":31.418546410243632,"确诊日期36":"y"},{"SH_ID_36":"10g9e6l","区36":"d","地址":"月罗路888弄","lng":121.3950029444917,"lat":31.41180965756394,"确诊日期36":"y"},{"SH_ID_36":"10g9ebp","区36":"d","地址":"月浦八村","lng":121.42569402904276,"lat":31.415405360712118,"确诊日期36":"y"},{"SH_ID_36":"10g9ebm","区36":"d","地址":"月浦二村","lng":121.42857049069615,"lat":31.41948870821349,"确诊日期36":"y"},{"SH_ID_36":"10g9ebq","区36":"d","地址":"月浦九村","lng":121.42196317392967,"lat":31.416775264024547,"确诊日期36":"y"},{"SH_ID_36":"10g9ebo","区36":"d","地址":"月浦六村","lng":121.49566395927424,"lat":31.385162669431388,"确诊日期36":"y"},{"SH_ID_36":"10g9ebr","区36":"d","地址":"月浦十村","lng":121.43069631663282,"lat":31.41476801722809,"确诊日期36":"y"},{"SH_ID_36":"10g9ebn","区36":"d","地址":"月浦五村","lng":121.42674789033404,"lat":31.41778932479229,"确诊日期36":"y"},{"SH_ID_36":"10g9e6n","区36":"d","地址":"月泉路58弄","lng":121.41107204360516,"lat":31.42080007772799,"确诊日期36":"y"},{"SH_ID_36":"10g9ebs","区36":"d","地址":"月狮村","lng":121.40725994983721,"lat":31.449368967727423,"确诊日期36":"y"},{"SH_ID_36":"10g9e6o","区36":"d","地址":"云西路168弄","lng":121.47525730320515,"lat":31.3174785020481,"确诊日期36":"y"},{"SH_ID_36":"10g9e6p","区36":"d","地址":"云西路219弄","lng":121.47297893076762,"lat":31.318659340734513,"确诊日期36":"y"},{"SH_ID_36":"10g9e6y","区36":"d","地址":"张桥街5弄","lng":121.34754805535371,"lat":31.40849814069943,"确诊日期36":"y"},{"SH_ID_36":"10g9ebt","区36":"d","地址":"张墅村","lng":121.32851389663935,"lat":31.387624919184432,"确诊日期36":"y"},{"SH_ID_36":"10g9ebu","区36":"d","地址":"长春村","lng":121.38859484725188,"lat":31.407268566187913,"确诊日期36":"y"},{"SH_ID_36":"10g9dqx","区36":"d","地址":"长发路188号","lng":121.32607329369506,"lat":31.46829408068127,"确诊日期36":"y"},{"SH_ID_36":"10g9dqy","区36":"d","地址":"长发路375号","lng":121.32564620075819,"lat":31.471054370899644,"确诊日期36":"y"},{"SH_ID_36":"10g9dqz","区36":"d","地址":"长虹路449号","lng":121.33004411455696,"lat":31.46877954447717,"确诊日期36":"y"},{"SH_ID_36":"10g9dr0","区36":"d","地址":"长虹路718弄","lng":121.32834556547587,"lat":31.47542008845344,"确诊日期36":"y"},{"SH_ID_36":"10g9dr1","区36":"d","地址":"长虹路779弄","lng":121.32661267414555,"lat":31.476702230939694,"确诊日期36":"y"},{"SH_ID_36":"10g9dr2","区36":"d","地址":"长江路20弄","lng":121.4992307102338,"lat":31.35180456877407,"确诊日期36":"y"},{"SH_ID_36":"10g9dr3","区36":"d","地址":"长江路43号","lng":121.49749824963874,"lat":31.35348299003555,"确诊日期36":"y"},{"SH_ID_36":"10g9dr4","区36":"d","地址":"长江路500号","lng":121.49077916946253,"lat":31.34900458448617,"确诊日期36":"y"},{"SH_ID_36":"10g9dr5","区36":"d","地址":"长江路860弄","lng":121.48561407839831,"lat":31.343506145308044,"确诊日期36":"y"},{"SH_ID_36":"10g9dr7","区36":"d","地址":"长江南路579号","lng":121.48155119765109,"lat":31.337208999521053,"确诊日期36":"y"},{"SH_ID_36":"10g9dr6","区36":"d","地址":"长江南路76号","lng":121.48196028633207,"lat":31.33584332007523,"确诊日期36":"y"},{"SH_ID_36":"10g9dr8","区36":"d","地址":"长江南路958号","lng":121.47937329497343,"lat":31.34095545632606,"确诊日期36":"y"},{"SH_ID_36":"10g9drd","区36":"d","地址":"长江西路1000号","lng":121.46184516720193,"lat":31.339437872225222,"确诊日期36":"y"},{"SH_ID_36":"10g9dre","区36":"d","地址":"长江西路1158号","lng":121.4593966909972,"lat":31.338512253705957,"确诊日期36":"y"},{"SH_ID_36":"10g9drf","区36":"d","地址":"长江西路1160弄","lng":121.4593572695241,"lat":31.338323177120408,"确诊日期36":"y"},{"SH_ID_36":"10g9drg","区36":"d","地址":"长江西路1361号","lng":121.45469492364954,"lat":31.3371205856965,"确诊日期36":"y"},{"SH_ID_36":"10g9drh","区36":"d","地址":"长江西路1869号","lng":121.44504200905084,"lat":31.333147441361035,"确诊日期36":"y"},{"SH_ID_36":"10g9dri","区36":"d","地址":"长江西路2700号","lng":121.42912359962564,"lat":31.326976877975486,"确诊日期36":"y"},{"SH_ID_36":"10g9dr9","区36":"d","地址":"长江西路52弄","lng":121.45235476048455,"lat":31.335969865722866,"确诊日期36":"y"},{"SH_ID_36":"10g9drb","区36":"d","地址":"长江西路720号","lng":121.47244605371053,"lat":31.34271458138934,"确诊日期36":"y"},{"SH_ID_36":"10g9drc","区36":"d","地址":"长江西路755号","lng":121.47164865504942,"lat":31.343313698019212,"确诊日期36":"y"},{"SH_ID_36":"10g9dra","区36":"d","地址":"长江西路96号","lng":121.48023041536054,"lat":31.345888917320924,"确诊日期36":"y"},{"SH_ID_36":"10g9drj","区36":"d","地址":"长临路1118弄","lng":121.43188001734524,"lat":31.326139809266085,"确诊日期36":"y"},{"SH_ID_36":"10g9drk","区36":"d","地址":"长临路1318弄","lng":121.43188391312734,"lat":31.330779894827703,"确诊日期36":"y"},{"SH_ID_36":"10g9drl","区36":"d","地址":"长逸路301弄","lng":121.49109523522235,"lat":31.338067980198584,"确诊日期36":"y"},{"SH_ID_36":"10g9ebv","区36":"d","地址":"长征新村","lng":121.49172674056031,"lat":31.37059476776607,"确诊日期36":"y"},{"SH_ID_36":"10g9e6z","区36":"d","地址":"真北路4333弄","lng":121.40465763549541,"lat":31.29278180195032,"确诊日期36":"y"},{"SH_ID_36":"10g9e70","区36":"d","地址":"真陈路1398弄","lng":121.35128866094541,"lat":31.316233635034923,"确诊日期36":"y"},{"SH_ID_36":"10g9e71","区36":"d","地址":"真大路333弄","lng":121.40257456233961,"lat":31.28913595176053,"确诊日期36":"y"},{"SH_ID_36":"10g9e72","区36":"d","地址":"真大路358弄","lng":121.39910922434224,"lat":31.289534259405638,"确诊日期36":"y"},{"SH_ID_36":"10g9e73","区36":"d","地址":"真大路450号","lng":121.39803395787116,"lat":31.29485520313019,"确诊日期36":"y"},{"SH_ID_36":"10g9e74","区36":"d","地址":"真大路520号","lng":121.40789126671169,"lat":31.296579043630057,"确诊日期36":"y"},{"SH_ID_36":"10g9e75","区36":"d","地址":"真华路1030弄","lng":121.41243397554388,"lat":31.27556674843185,"确诊日期36":"y"},{"SH_ID_36":"10g9e76","区36":"d","地址":"真华路1615弄","lng":121.4101400290201,"lat":31.286659514437762,"确诊日期36":"y"},{"SH_ID_36":"10g9e77","区36":"d","地址":"真华路1800弄","lng":121.41193750882883,"lat":31.289589869437037,"确诊日期36":"y"},{"SH_ID_36":"10g9e78","区36":"d","地址":"真华路1801弄","lng":121.41053297076375,"lat":31.28952052614439,"确诊日期36":"y"},{"SH_ID_36":"10g9e79","区36":"d","地址":"真华路1958弄","lng":121.4116170404576,"lat":31.29134787293624,"确诊日期36":"y"},{"SH_ID_36":"10g9e7b","区36":"d","地址":"真金路1039弄","lng":121.40510254874593,"lat":31.282071707241844,"确诊日期36":"y"},{"SH_ID_36":"10g9e7c","区36":"d","地址":"真金路1041号","lng":121.40613032929329,"lat":31.283584170993365,"确诊日期36":"y"},{"SH_ID_36":"10g9e7a","区36":"d","地址":"真金路179弄","lng":121.40637006286717,"lat":31.28061775433544,"确诊日期36":"y"},{"SH_ID_36":"10g9ebw","区36":"d","地址":"镇东新村","lng":121.34605037528308,"lat":31.414167304994212,"确诊日期36":"y"},{"SH_ID_36":"10g9e7d","区36":"d","地址":"镇泰路388弄","lng":121.4355268298274,"lat":31.38092670405532,"确诊日期36":"y"},{"SH_ID_36":"10g9ebx","区36":"d","地址":"正义村","lng":121.3546662202517,"lat":31.350437457329235,"确诊日期36":"y"},{"SH_ID_36":"10g9e7e","区36":"d","地址":"朱家弄","lng":121.39413736412669,"lat":31.34317020205296,"确诊日期36":"y"},{"SH_ID_36":"10g9eby","区36":"d","地址":"朱家弄村","lng":121.38767737706401,"lat":31.340553903614296,"确诊日期36":"y"},{"SH_ID_36":"10g9e7g","区36":"d","地址":"竹韵路128弄","lng":121.44425485726849,"lat":31.365714605201138,"确诊日期36":"y"},{"SH_ID_36":"10g9e7h","区36":"d","地址":"竹韵路258弄","lng":121.44276406068785,"lat":31.36769664393321,"确诊日期36":"y"},{"SH_ID_36":"10g9e7i","区36":"d","地址":"竹韵路259弄","lng":121.44146574028986,"lat":31.36721382971324,"确诊日期36":"y"},{"SH_ID_36":"10g9e7f","区36":"d","地址":"竹韵路58弄","lng":121.44517379655863,"lat":31.364301855602484,"确诊日期36":"y"},{"SH_ID_36":"10g9f0u","区36":"u","地址":"江南大道","lng":121.73771689678193,"lat":31.368506894486273,"确诊日期36":"y"},{"SH_ID_36":"10g9f0v","区36":"u","地址":"长凯路253号","lng":121.73731802990761,"lat":31.373438365770223,"确诊日期36":"y"},{"SH_ID_36":"10g9f02","区36":"k","地址":"安邬路188号","lng":121.3975519459599,"lat":30.962221480342347,"确诊日期36":"y"},{"SH_ID_36":"10g9f03","区36":"k","地址":"八字桥路288弄","lng":121.46242859614492,"lat":30.937138563209114,"确诊日期36":"y"},{"SH_ID_36":"10g9f04","区36":"k","地址":"大叶公路7188号","lng":121.61083227271561,"lat":30.984669467884014,"确诊日期36":"y"},{"SH_ID_36":"10g9f05","区36":"k","地址":"德丰路69弄","lng":121.49164089281723,"lat":30.92611552156235,"确诊日期36":"y"},{"SH_ID_36":"10g9f06","区36":"k","地址":"灯塔村","lng":121.42461985571224,"lat":30.984941723722663,"确诊日期36":"y"},{"SH_ID_36":"10g9f07","区36":"k","地址":"发展村","lng":121.43188343438769,"lat":30.96582370946525,"确诊日期36":"y"},{"SH_ID_36":"10g9f08","区36":"k","地址":"奉云路899弄","lng":121.62420435762006,"lat":30.930368149299326,"确诊日期36":"y"},{"SH_ID_36":"10g9f09","区36":"k","地址":"光钱路510-1号","lng":121.50862472279138,"lat":30.90526430934141,"确诊日期36":"y"},{"SH_ID_36":"10g9f0a","区36":"k","地址":"海兴路1501弄","lng":121.58853246781275,"lat":30.86100261496317,"确诊日期36":"y"},{"SH_ID_36":"10g9f0b","区36":"k","地址":"沪杭公路1758号","lng":121.45134981384429,"lat":30.934402559328937,"确诊日期36":"y"},{"SH_ID_36":"10g9f0c","区36":"k","地址":"化工路62弄","lng":121.45263879100384,"lat":30.917433820447112,"确诊日期36":"y"},{"SH_ID_36":"10g9f0d","区36":"k","地址":"汇中路126号","lng":121.39965387213869,"lat":30.962176730249475,"确诊日期36":"y"},{"SH_ID_36":"10g9f0e","区36":"k","地址":"集贤村","lng":121.69650711485845,"lat":30.915572277289655,"确诊日期36":"y"},{"SH_ID_36":"10g9f0f","区36":"k","地址":"金港村","lng":121.4552628713717,"lat":30.97976867164491,"确诊日期36":"y"},{"SH_ID_36":"10g9f0g","区36":"k","地址":"金齐路348弄","lng":121.49254629497487,"lat":30.954152532220352,"确诊日期36":"y"},{"SH_ID_36":"10g9f0h","区36":"k","地址":"金星村","lng":121.52105319019039,"lat":30.992384668636934,"确诊日期36":"y"},{"SH_ID_36":"10g9f0i","区36":"k","地址":"乐善村","lng":121.57550305817588,"lat":30.97226198072209,"确诊日期36":"y"},{"SH_ID_36":"10g9f0j","区36":"k","地址":"梁典村","lng":121.59802268897776,"lat":30.963523094486884,"确诊日期36":"y"},{"SH_ID_36":"10g9f0k","区36":"k","地址":"梅园村","lng":121.59711670389474,"lat":30.990392696444307,"确诊日期36":"y"},{"SH_ID_36":"10g9f0l","区36":"k","地址":"南渡村","lng":121.45147849382037,"lat":30.999687218855605,"确诊日期36":"y"},{"SH_ID_36":"10g9f0m","区36":"k","地址":"南奉公路7058号","lng":121.4969514861454,"lat":30.922010763493144,"确诊日期36":"y"},{"SH_ID_36":"10g9f0n","区36":"k","地址":"南奉公路8505号","lng":121.48545297769576,"lat":30.916546339247976,"确诊日期36":"y"},{"SH_ID_36":"10g9f0o","区36":"k","地址":"三团港村","lng":121.72215538798316,"lat":30.883954429099475,"确诊日期36":"y"},{"SH_ID_36":"10g9f0p","区36":"k","地址":"西闸公路1373弄","lng":121.4386213977329,"lat":30.992103352045397,"确诊日期36":"y"},{"SH_ID_36":"10g9f0q","区36":"k","地址":"小荡村","lng":121.70384831345498,"lat":30.97742134010954,"确诊日期36":"y"},{"SH_ID_36":"10g9f0r","区36":"k","地址":"岳和村","lng":121.5698190003421,"lat":30.93100446779713,"确诊日期36":"y"},{"SH_ID_36":"10g9f0s","区36":"k","地址":"展园路303弄","lng":121.48255126831549,"lat":30.92607477986984,"确诊日期36":"y"},{"SH_ID_36":"10g9f0t","区36":"k","地址":"资福村","lng":121.60363114163047,"lat":30.966624821065665,"确诊日期36":"y"},{"SH_ID_36":"10g9da7","区36":"9","地址":"宝安路160弄","lng":121.48769794339897,"lat":31.264851883718386,"确诊日期36":"y"},{"SH_ID_36":"10g9da8","区36":"9","地址":"宝安路7号","lng":121.48807230608664,"lat":31.263004713447856,"确诊日期36":"y"},{"SH_ID_36":"10g9da9","区36":"9","地址":"宝安支路49号","lng":121.4884100976478,"lat":31.264665383591606,"确诊日期36":"y"},{"SH_ID_36":"10g9daa","区36":"9","地址":"宝安支路79弄","lng":121.48801665000693,"lat":31.26457071103444,"确诊日期36":"y"},{"SH_ID_36":"10g9dab","区36":"9","地址":"宝山路571号","lng":121.47815559566706,"lat":31.258997997505812,"确诊日期36":"y"},{"SH_ID_36":"10g9dac","区36":"9","地址":"宝山路621号","lng":121.47903119166772,"lat":31.25963663482671,"确诊日期36":"y"},{"SH_ID_36":"10g9dad","区36":"9","地址":"宝山路625号","lng":121.47963331976025,"lat":31.260232298555238,"确诊日期36":"y"},{"SH_ID_36":"10g9dae","区36":"9","地址":"宝山路778号","lng":121.47965814047241,"lat":31.26210205467355,"确诊日期36":"y"},{"SH_ID_36":"10g9daf","区36":"9","地址":"保定路20弄","lng":121.514563817008,"lat":31.255188171350156,"确诊日期36":"y"},{"SH_ID_36":"10g9dag","区36":"9","地址":"保定路520弄","lng":121.50705353230846,"lat":31.261259429628808,"确诊日期36":"y"},{"SH_ID_36":"10g9dah","区36":"9","地址":"北宝兴路103弄","lng":121.4665138822066,"lat":31.272494083756246,"确诊日期36":"y"},{"SH_ID_36":"10g9dai","区36":"9","地址":"北苏州路400号","lng":121.48340577459786,"lat":31.243250182758587,"确诊日期36":"y"},{"SH_ID_36":"10g9dam","区36":"9","地址":"车站北路491弄","lng":121.47424105813072,"lat":31.296090011118764,"确诊日期36":"y"},{"SH_ID_36":"10g9dan","区36":"9","地址":"车站北路507弄","lng":121.47355098309043,"lat":31.296653014050392,"确诊日期36":"y"},{"SH_ID_36":"10g9dao","区36":"9","地址":"车站西路80弄","lng":121.48345495512523,"lat":31.295972547329356,"确诊日期36":"y"},{"SH_ID_36":"10g9dap","区36":"9","地址":"赤峰路626弄","lng":121.48550986063897,"lat":31.28439691946154,"确诊日期36":"y"},{"SH_ID_36":"10g9daq","区36":"9","地址":"川公路167弄","lng":121.48079518831359,"lat":31.25613885328135,"确诊日期36":"y"},{"SH_ID_36":"10g9dar","区36":"9","地址":"川公路176弄","lng":121.4807738384457,"lat":31.255722096912773,"确诊日期36":"y"},{"SH_ID_36":"10g9das","区36":"9","地址":"大连西路157号","lng":121.49691775608214,"lat":31.27641661429895,"确诊日期36":"y"},{"SH_ID_36":"10g9dat","区36":"9","地址":"大连西路201号","lng":121.4941254186031,"lat":31.276038856977575,"确诊日期36":"y"},{"SH_ID_36":"10g9dau","区36":"9","地址":"大连西路23号","lng":121.49857855009061,"lat":31.27630142115943,"确诊日期36":"y"},{"SH_ID_36":"10g9dav","区36":"9","地址":"大连西路261号","lng":121.48742862372504,"lat":31.276287477346813,"确诊日期36":"y"},{"SH_ID_36":"10g9daw","区36":"9","地址":"东宝兴路254弄","lng":121.48093435446319,"lat":31.257840465813103,"确诊日期36":"y"},{"SH_ID_36":"10g9dax","区36":"9","地址":"东宝兴路258弄","lng":121.48217780150112,"lat":31.257371916861544,"确诊日期36":"y"},{"SH_ID_36":"10g9day","区36":"9","地址":"东宝兴路272弄","lng":121.48103533059025,"lat":31.25839169349831,"确诊日期36":"y"},{"SH_ID_36":"10g9daz","区36":"9","地址":"东宝兴路312弄","lng":121.4808190174586,"lat":31.258360534534738,"确诊日期36":"y"},{"SH_ID_36":"10g9db0","区36":"9","地址":"东宝兴路334弄","lng":121.4802396257303,"lat":31.26047024438055,"确诊日期36":"y"},{"SH_ID_36":"10g9db1","区36":"9","地址":"东宝兴路667弄","lng":121.47652643960569,"lat":31.261644440902813,"确诊日期36":"y"},{"SH_ID_36":"10g9db2","区36":"9","地址":"东宝兴路753弄","lng":121.47521383131196,"lat":31.262823108474468,"确诊日期36":"y"},{"SH_ID_36":"10g9db3","区36":"9","地址":"东汉阳路338弄","lng":121.49659106925711,"lat":31.251453331238714,"确诊日期36":"y"},{"SH_ID_36":"10g9db4","区36":"9","地址":"东汉阳路440号","lng":121.49705679213366,"lat":31.252081443018483,"确诊日期36":"y"},{"SH_ID_36":"10g9db5","区36":"9","地址":"东江湾路570弄","lng":121.48024061777909,"lat":31.273876820463848,"确诊日期36":"y"},{"SH_ID_36":"10g9db6","区36":"9","地址":"东江湾路580弄","lng":121.48013927492848,"lat":31.274080089283775,"确诊日期36":"y"},{"SH_ID_36":"10g9db7","区36":"9","地址":"东体育会路100弄","lng":121.48161386732893,"lat":31.27436320644651,"确诊日期36":"y"},{"SH_ID_36":"10g9db8","区36":"9","地址":"东体育会路115弄","lng":121.48236163782921,"lat":31.273931329300783,"确诊日期36":"y"},{"SH_ID_36":"10g9db9","区36":"9","地址":"东体育会路119弄","lng":121.4818932712423,"lat":31.27302105920518,"确诊日期36":"y"},{"SH_ID_36":"10g9dba","区36":"9","地址":"东体育会路29号","lng":121.48082161014293,"lat":31.274250580898904,"确诊日期36":"y"},{"SH_ID_36":"10g9dbb","区36":"9","地址":"东长治路330号","lng":121.4950254460337,"lat":31.248548579011604,"确诊日期36":"y"},{"SH_ID_36":"10g9dbc","区36":"9","地址":"东长治路340弄","lng":121.49544947477644,"lat":31.24891350430756,"确诊日期36":"y"},{"SH_ID_36":"10g9dbd","区36":"9","地址":"多伦路165号","lng":121.48147528458284,"lat":31.26315172664671,"确诊日期36":"y"},{"SH_ID_36":"10g9dbe","区36":"9","地址":"多伦路201弄","lng":121.48122301131485,"lat":31.263768229408615,"确诊日期36":"y"},{"SH_ID_36":"10g9dbf","区36":"9","地址":"广联路29弄","lng":121.47166914122646,"lat":31.267436466258815,"确诊日期36":"y"},{"SH_ID_36":"10g9dbg","区36":"9","地址":"广灵二村","lng":121.47865741146774,"lat":31.28576664213864,"确诊日期36":"y"},{"SH_ID_36":"10g9dbh","区36":"9","地址":"广粤路287弄","lng":121.46423934460414,"lat":31.28756083456044,"确诊日期36":"y"},{"SH_ID_36":"10g9dbi","区36":"9","地址":"广粤路577弄","lng":121.46701407775899,"lat":31.294147231873616,"确诊日期36":"y"},{"SH_ID_36":"10g9dbj","区36":"9","地址":"广中二村","lng":121.47859278196239,"lat":31.27862931358602,"确诊日期36":"y"},{"SH_ID_36":"10g9dbk","区36":"9","地址":"广中路310弄","lng":121.47418017807709,"lat":31.2781906631936,"确诊日期36":"y"},{"SH_ID_36":"10g9dbl","区36":"9","地址":"广中路320号","lng":121.47399771998427,"lat":31.278305708494216,"确诊日期36":"y"},{"SH_ID_36":"10g9dbm","区36":"9","地址":"广中路368弄","lng":121.47289557650856,"lat":31.278058565696256,"确诊日期36":"y"},{"SH_ID_36":"10g9dbo","区36":"9","地址":"广中三村","lng":121.47636055805941,"lat":31.278661882188242,"确诊日期36":"y"},{"SH_ID_36":"10g9dbp","区36":"9","地址":"广中五村","lng":121.47640998244204,"lat":31.27789431797755,"确诊日期36":"y"},{"SH_ID_36":"10g9dbn","区36":"9","地址":"广中一村","lng":121.47782066008634,"lat":31.27710748044678,"确诊日期36":"y"},{"SH_ID_36":"10g9dbq","区36":"9","地址":"海伦路188弄","lng":121.49333893460759,"lat":31.2575870716673,"确诊日期36":"y"},{"SH_ID_36":"10g9dbr","区36":"9","地址":"海伦路555弄","lng":121.48693363022457,"lat":31.258454021510854,"确诊日期36":"y"},{"SH_ID_36":"10g9dbs","区36":"9","地址":"海门路609弄","lng":121.499816160191,"lat":31.257206023611264,"确诊日期36":"y"},{"SH_ID_36":"10g9dbt","区36":"9","地址":"海宁路358号","lng":121.48562737064763,"lat":31.25082016119536,"确诊日期36":"y"},{"SH_ID_36":"10g9dbu","区36":"9","地址":"恒业路115弄","lng":121.4759890278469,"lat":31.26918331321037,"确诊日期36":"y"},{"SH_ID_36":"10g9dbv","区36":"9","地址":"恒业路118弄","lng":121.47632713951718,"lat":31.268723366158568,"确诊日期36":"y"},{"SH_ID_36":"10g9dbw","区36":"9","地址":"恒业路387弄","lng":121.47233056193608,"lat":31.26582475159635,"确诊日期36":"y"},{"SH_ID_36":"10g9dbx","区36":"9","地址":"横浜路43号","lng":121.48048797048577,"lat":31.262400372643818,"确诊日期36":"y"},{"SH_ID_36":"10g9dby","区36":"9","地址":"衡水路89弄","lng":121.48623340940615,"lat":31.254767994871504,"确诊日期36":"y"},{"SH_ID_36":"10g9dbz","区36":"9","地址":"虹湾路55弄","lng":121.47475994448986,"lat":31.31260178769245,"确诊日期36":"y"},{"SH_ID_36":"10g9dc0","区36":"9","地址":"虹湾路86弄","lng":121.47466034225504,"lat":31.313251121466298,"确诊日期36":"y"},{"SH_ID_36":"10g9dc1","区36":"9","地址":"华昌路68弄","lng":121.47854561112509,"lat":31.262261509501432,"确诊日期36":"y"},{"SH_ID_36":"10g9dc2","区36":"9","地址":"华严路68弄","lng":121.47437821913,"lat":31.30306149970809,"确诊日期36":"y"},{"SH_ID_36":"10g9dc3","区36":"9","地址":"黄渡路103弄","lng":121.48139657230433,"lat":31.26813100636929,"确诊日期36":"y"},{"SH_ID_36":"10g9dc4","区36":"9","地址":"黄渡路105号","lng":121.481493679625,"lat":31.268042840525332,"确诊日期36":"y"},{"SH_ID_36":"10g9dc5","区36":"9","地址":"黄渡路109号","lng":121.48174510741056,"lat":31.268099427663113,"确诊日期36":"y"},{"SH_ID_36":"10g9dc6","区36":"9","地址":"黄渡路17弄","lng":121.48111445046138,"lat":31.266197817267834,"确诊日期36":"y"},{"SH_ID_36":"10g9dc7","区36":"9","地址":"惠民路117弄","lng":121.511647200024,"lat":31.253182706326335,"确诊日期36":"y"},{"SH_ID_36":"10g9dc8","区36":"9","地址":"吉祥路184弄","lng":121.4849414970321,"lat":31.265650514713514,"确诊日期36":"y"},{"SH_ID_36":"10g9dc9","区36":"9","地址":"江杨南路55弄","lng":121.47008196117154,"lat":31.309526947105827,"确诊日期36":"y"},{"SH_ID_36":"10g9dca","区36":"9","地址":"金属新村","lng":121.47368716323305,"lat":31.276998988962514,"确诊日期36":"y"},{"SH_ID_36":"10g9dcb","区36":"9","地址":"九龙路575号","lng":121.4910369560338,"lat":31.253625214412306,"确诊日期36":"y"},{"SH_ID_36":"10g9dcc","区36":"9","地址":"奎照路789弄","lng":121.47036388991486,"lat":31.300623802711243,"确诊日期36":"y"},{"SH_ID_36":"10g9dcd","区36":"9","地址":"昆山花园路1号","lng":121.48546450996406,"lat":31.24889038258364,"确诊日期36":"y"},{"SH_ID_36":"10g9dce","区36":"9","地址":"昆山花园路5号","lng":121.48555896588864,"lat":31.248885290795265,"确诊日期36":"y"},{"SH_ID_36":"10g9dcf","区36":"9","地址":"昆山花园路6号","lng":121.48581929235229,"lat":31.248771757405176,"确诊日期36":"y"},{"SH_ID_36":"10g9dcg","区36":"9","地址":"昆山花园路7号","lng":121.48623932827617,"lat":31.24905785251299,"确诊日期36":"y"},{"SH_ID_36":"10g9dch","区36":"9","地址":"昆山花园路9号","lng":121.48609940226098,"lat":31.248898642284185,"确诊日期36":"y"},{"SH_ID_36":"10g9dci","区36":"9","地址":"昆山路172弄","lng":121.48740957399839,"lat":31.24973474239546,"确诊日期36":"y"},{"SH_ID_36":"10g9dcj","区36":"9","地址":"凉城路1201弄","lng":121.47002106496937,"lat":31.303324560660982,"确诊日期36":"y"},{"SH_ID_36":"10g9dck","区36":"9","地址":"凉城路341弄","lng":121.46950420548275,"lat":31.28050252250098,"确诊日期36":"y"},{"SH_ID_36":"10g9dcl","区36":"9","地址":"凉城路585弄","lng":121.47094623026601,"lat":31.29322029470034,"确诊日期36":"y"},{"SH_ID_36":"10g9dcm","区36":"9","地址":"凉城路847弄","lng":121.4704848678426,"lat":31.29945115919419,"确诊日期36":"y"},{"SH_ID_36":"10g9dcn","区36":"9","地址":"临平北路89弄","lng":121.49211585427257,"lat":31.264821507346596,"确诊日期36":"y"},{"SH_ID_36":"10g9dco","区36":"9","地址":"临潼路303弄","lng":121.51108801319009,"lat":31.255332101072362,"确诊日期36":"y"},{"SH_ID_36":"10g9dcq","区36":"9","地址":"柳营路125号","lng":121.46834524504482,"lat":31.271287916026658,"确诊日期36":"y"},{"SH_ID_36":"10g9dcp","区36":"9","地址":"柳营路45弄","lng":121.46918222581746,"lat":31.272393587695955,"确诊日期36":"y"},{"SH_ID_36":"10g9dcr","区36":"9","地址":"罗浮路89弄","lng":121.48138721822845,"lat":31.25250675800098,"确诊日期36":"y"},{"SH_ID_36":"10g9dcs","区36":"9","地址":"旅顺路71弄","lng":121.49584817619466,"lat":31.24841342724042,"确诊日期36":"y"},{"SH_ID_36":"10g9dct","区36":"9","地址":"马厂路49弄","lng":121.49564486432884,"lat":31.24802376149124,"确诊日期36":"y"},{"SH_ID_36":"10g9dcu","区36":"9","地址":"密云路199弄","lng":121.49561763596398,"lat":31.272327352248894,"确诊日期36":"y"},