SH_ID_36,区36,地址,lng,lat
10g9dqa,d,爱辉路1018弄,121.44693084263137,31.345801750766984
10g9dq7,d,爱辉路171号,121.44940133956844,31.341577934880547
10g9dq8,d,爱辉路213号,121.45452708498291,31.33285050249327
10g9dq5,d,爱辉路27弄,121.45545977477458,31.32782860560935
10g9dq9,d,爱辉路319号,121.4534697112195,31.33490318984837
10g9dq6,d,爱辉路49号,121.45568775969812,31.32813689019246
10g9dqb,d,安达路5号,121.4957274186421,31.36365145568047
10g9dqc,d,安家路165弄,121.42695067291447,31.40972344499687
10g9e7j,d,八字桥村,121.4679793725546,31.39040869820437
10g9dqd,d,白沙园路333弄,121.42901404682509,31.391627399455942
10g9e7k,d,白杨村,121.39623675335162,31.342310965297514
10g9e7l,d,宝城二村,121.48933170884388,31.408793369816095
10g9dqe,d,宝荻路516号,121.39665455041563,31.361179934774487
10g9dqf,d,宝东路888弄,121.49871584380915,31.399911270426873
10g9e7s,d,宝钢八村,121.47907819956133,31.407820518300156
10g9e7n,d,宝钢二村,121.48434589541108,31.404113354019707
10g9e7t,d,宝钢九村,121.4758441345803,31.406639981650954
10g9e7q,d,宝钢六村,121.48060245718962,31.404147504377825
10g9e7r,d,宝钢七村,121.48276598038291,31.409240935880824
10g9e7o,d,宝钢三村,121.4811319569311,31.40303466058437
10g9e7u,d,宝钢十村,121.47862052579538,31.40235966090336
10g9e7p,d,宝钢四村,121.48646965360727,31.406806524327425
10g9e7m,d,宝钢一村,121.48719501624075,31.40500831371779
10g9dqg,d,宝菊路133弄,121.36525513751386,31.34265233991179
10g9dqh,d,宝菊路655号,121.36252926423826,31.353683939502297
10g9e7y,d,宝林六村,121.4989682054765,31.402397848301003
10g9dqi,d,宝林路277号,121.48660975548296,31.401352887474765
10g9e7z,d,宝林七村,121.49525019512463,31.405456776612095
10g9e7w,d,宝林三村,121.49356159712877,31.402009402248105
10g9e7x,d,宝林五村,121.49148796364639,31.405671879017408
10g9e7v,d,宝林一村,121.48335811524133,31.400514822935715
10g9e83,d,宝山八村,121.4945999065805,31.395788482268156
10g9e81,d,宝山二村,121.50027073289333,31.39367821905661
10g9e84,d,宝山九村,121.49666655274488,31.399982277724675
10g9e82,d,宝山三村,121.49712357440431,31.39342496994633
10g9e80,d,宝山一村,121.503026530726,31.396671156575334
10g9dql,d,宝杨路1850号,121.47605944627897,31.392228633314097
10g9dqm,d,宝杨路2000号,121.47110903841221,31.391084261574335
10g9dqn,d,宝杨路2050号,121.46286526217206,31.385602485994358
10g9dqo,d,宝杨路2121号,121.45535975300585,31.383813595294196
10g9dqj,d,宝杨路258号,121.49846043047461,31.401284453520642
10g9dqp,d,宝杨路3176号,121.4398298103647,31.374742568859165
10g9dqq,d,宝杨路3211号,121.43866094798567,31.374906887728184
10g9dqr,d,宝杨路3256弄,121.43778787210846,31.372117845321675
10g9dqs,d,宝杨路3288弄,121.43751333534334,31.371121922019878
10g9dqk,d,宝杨路555弄,121.49212842279208,31.4012916321847
10g9dqt,d,保德路448弄,121.45842002625358,31.317575670118867
10g9e85,d,北金村,121.3578165004238,31.38510853552391
10g9e86,d,北宗村,121.40312627502963,31.388052746163744
10g9dqu,d,布长街25弄,121.34522499436879,31.411309323414788
10g9dqv,d,布长街52弄,121.34467175290165,31.411843563724787
10g9dqw,d,采江路9弄,121.48332573472187,31.413508198340658
10g9e87,d,蔡家弄村,121.36575664069835,31.372992100152352
10g9dro,d,场北路1079号,121.42016863740623,31.336477634400612
10g9drm,d,场北路39弄,121.43647664381228,31.33451104166719
10g9drn,d,场北路704号,121.42527271263315,31.33200779492324
10g9e88,d,场南村,121.41600834728536,31.289526740155026
10g9e89,d,场中村,121.41545967209791,31.29784080268105
10g9drp,d,场中路3658弄,121.4261878601805,31.301764085591284
10g9drr,d,陈川路1051号,121.3238036981489,31.472503170586673
10g9drq,d,陈川路555弄,121.33285976879428,31.47814985677223
10g9drs,d,陈功路666弄,121.32997073314898,31.483082932251378
10g9e8a,d,陈家行村,121.35069646798223,31.327522030152483
10g9e8b,d,陈巷村,121.47386248996266,31.376730706620112
10g9drt,d,陈行街17弄,121.34373788571595,31.47886334228721
10g9e8c,d,城西二村,121.43424079367806,31.39378889213579
10g9dru,d,城银路555弄,121.34985344815306,31.314494374609573
10g9e8d,d,川沙村,121.37129742539335,31.475089504255127
10g9drv,d,春雷路136弄,121.43361027251963,31.404975343365575
10g9drw,d,春雷路331弄,121.43588173239522,31.40931427589804
10g9drx,d,春雷路354弄,121.43328452947631,31.41158244744028
10g9dry,d,春雷路431弄,121.43649451610263,31.410098356389273
10g9e8e,d,大华二村,121.42020971536529,31.273810901995763
10g9drz,d,大华路455弄,121.41552755665238,31.27117121776987
10g9ds0,d,大华路693弄,121.41536137585985,31.274294953535325
10g9ds1,d,大华三路66号,121.41762026740719,31.276060167075485
10g9ds2,d,大华三路81号,121.41881857257023,31.275916159464906
10g9ds3,d,大康路251号,121.42723820818894,31.317386679225
10g9ds4,d,大康路700号,121.42577405314691,31.33205684012595
10g9ds5,d,大康路891弄,121.42331825446269,31.3304000989127
10g9ds6,d,大康路896弄,121.42334593280772,31.3306319962335
10g9ds8,d,丹霞山路257弄,121.36302338198755,31.361901587590257
10g9ds7,d,丹霞山路50弄,121.36225826367152,31.35907700037442
10g9dsb,d,德都路165弄,121.42662734105687,31.409173174894192
10g9dsc,d,德都路168弄,121.4250906247601,31.409237507311357
10g9dsd,d,德都路218弄,121.42308968020416,31.411335267298487
10g9ds9,d,德都路28弄,121.4253977481643,31.40330651548356
10g9dse,d,德都路399弄,121.42383170328308,31.41955678294704
10g9dsa,d,德都路88弄,121.4253516891813,31.40639883935783
10g9dsf,d,电台路599弄,121.39197041325879,31.356770506736545
10g9e8f,d,东街村,121.43770041407386,31.382306510480607
10g9e8g,d,东界泾村,121.33821309156875,31.411783549272435
10g9e8h,d,东南弄村,121.35052701912478,31.412358627613635
10g9dsg,d,东升路75号,121.49953546616432,31.374418720587283
10g9dsh,d,东太东路777号,121.37198280531277,31.389572644561323
10g9dsi,d,东太东路838号,121.37151014240216,31.388903918502127
10g9dsj,d,东太东路885号,121.36987376371698,31.388123987904976
10g9dsm,d,东太路118号,121.36556788767119,31.386357930579994
10g9dsn,d,东太路362号,121.36149504294987,31.384324333479395
10g9dsk,d,东太路44号,121.36131656118863,31.384557310434563
10g9dsl,d,东太路80弄,121.36728360318968,31.386096643753266
10g9dso,d,东西巷街79弄,121.34206078278638,31.41401766673522
10g9e8i,d,段泾村,121.39627751872546,31.4216187241468
10g9dsp,d,鄂尔多斯路67弄,121.39073133158838,31.29494252116239
10g9dsq,d,鄂尔多斯路98弄,121.39135086729773,31.295671158037432
10g9e8j,d,繁荣村,121.36145320411504,31.40811003322855
10g9dsr,d,丰皓路138弄,121.39491124376785,31.30522028369557
10g9dss,d,丰皓路658弄,121.38921110642734,31.306361430339063
10g9dst,d,丰翔路619号,121.36821132487589,31.309555004190283
10g9e8k,d,葑村村,121.37122780906905,31.316758823513645
10g9dsv,d,抚远路1211号,121.36240185084071,31.40842656355648
10g9dsw,d,抚远路1211弄,121.3625562271863,31.40830814673717
10g9dsx,d,抚远路1288弄,121.35964170838635,31.40827880259354
10g9dsy,d,抚远路2588号,121.35293080893264,31.42903436675261
10g9dsu,d,抚远路885弄,121.36567899076239,31.401603066196706
10g9dsz,d,富锦路1815弄,121.4339988387186,31.403171194202436
10g9dt0,d,富锦路2785号,121.39456381113511,31.393003439826504
10g9dt1,d,富锦路4888号,121.38147597198932,31.388758001322962
10g9dt2,d,富锦路5332号,121.36175847255635,31.382508650549607
10g9dt6,d,富联路1188号,121.40025980106567,31.372691678784918
10g9dt3,d,富联路128弄,121.41038126815235,31.35360873780395
10g9dt4,d,富联路200号,121.41278822792509,31.353979008226265
10g9dt5,d,富联路646弄,121.40739389243585,31.361116918398434
10g9dt7,d,富南路199弄,121.36603177998678,31.38975010516415
10g9dt8,d,富杨路223号,121.43696275721022,31.388325998219052
10g9e8l,d,高椿树村,121.35271596598575,31.46678678800778
10g9e8m,d,高境村,121.48720742880218,31.315483059227205
10g9e8o,d,高境二村,121.47890826193368,31.32217666844225
10g9dt9,d,高境路477弄,121.47178810662598,31.323736045255064
10g9e8n,d,高境一村,121.47834401128188,31.3191140002113
10g9dta,d,高逸路110弄,121.4888669489397,31.325865235529147
10g9dtb,d,高跃路133弄,121.47202497573019,31.318105490184806
10g9dtd,d,革新路11号,121.45520981414587,31.338906525051915
10g9dte,d,革新路37号,121.4518582592455,31.33809997582541
10g9dtc,d,革新路7号,121.45593988736915,31.33903009945032
10g9e8q,d,共富二村,121.43186702501244,31.350289432336588
10g9dtf,d,共富路154号,121.4313513556694,31.34987909105814
10g9dtg,d,共富路351弄,121.4242352847104,31.35024831505854
10g9dth,d,共富路381号,121.42415671732185,31.348783958059
10g9e8r,d,共富四村,121.42476095682007,31.34981956529367
10g9e8p,d,共富一村,121.43337008488659,31.350794971804465
10g9e8t,d,共和二村,121.46105678457755,31.32181620952501
10g9e8u,d,共和三村,121.45875825169065,31.32196912577134
10g9e8v,d,共和五村,121.46409916206173,31.324128310172323
10g9dti,d,共和新路4701弄,121.45024239305118,31.31747350093858
10g9dtj,d,共和新路4703弄,121.44879067596949,31.31894746118722
10g9dtk,d,共和新路4719弄,121.44936130303822,31.319449400080625
10g9dtl,d,共和新路5219号,121.44502770129704,31.3262560181845
10g9dtm,d,共和新路5288号,121.44154223563075,31.327184296360944
10g9dtn,d,共和新路5308弄,121.44239013919287,31.327884418562117
10g9e8s,d,共和一村,121.46419193153093,31.322537346982717
10g9dto,d,共江路721号,121.45351197213257,31.330582114448156
10g9dtp,d,共江路992号,121.4485759325443,31.328788248502466
10g9dtq,d,共康路169弄,121.44218412851593,31.323263426055526
10g9dtr,d,共康路828号,121.42949008227933,31.32058574940226
10g9e8w,d,共康五村,121.4381801374861,31.32244638789198
10g9dtt,d,顾北东路155弄,121.41197397350574,31.360908039955532
10g9dtu,d,顾北东路188弄,121.41328566378067,31.35918467235977
10g9dts,d,顾北东路39弄,121.41516176856055,31.36258620013266
10g9dtv,d,顾北东路501弄,121.40722731007477,31.358721807507763
10g9dtx,d,顾北路101号,121.39438585199396,31.353061854808015
10g9dtw,d,顾北路85号,121.39800138015913,31.354532103466347
10g9dty,d,顾陈路510号,121.37709967360837,31.331974454319383
10g9e8x,d,顾村村,121.39752237642182,31.35386488690175
10g9dtz,d,顾泾河路30弄,121.4022320562523,31.453537753671267
10g9du0,d,顾太路380号,121.39759509720136,31.348205350521592
10g9e8y,d,广福村,121.33955312095436,31.34833709956998
10g9e8z,d,归王村,121.35668605612393,31.358575669479798
10g9du2,d,国权北路290弄,121.49447264163761,31.317229314875732
10g9du3,d,国权北路351弄,121.49624847024025,31.315536189285368
10g9du1,d,国权北路61号,121.49638628509861,31.311753629948534
10g9du4,d,国权北路828弄,121.49216948032102,31.329492609163545
10g9e94,d,海滨八村,121.49991390129769,31.38261757001867
10g9e92,d,海滨三村,121.49266206088166,31.38252484038888
10g9e93,d,海滨五村,121.49677816060652,31.38283079174437
10g9e90,d,海滨新村,121.49314080088347,31.37705530980347
10g9e91,d,海江二村,121.50311002446634,31.393056970669406
10g9du5,d,海江路337号,121.49527863947289,31.398011322741006
10g9du6,d,海江路667弄,121.48928224548038,31.397732355653424
10g9du7,d,涵青路100弄,121.40258466626544,31.332899181297254
10g9e95,d,合建村,121.33636276215144,31.466644918647543
10g9dub,d,何家湾路48号,121.49579574678647,31.328439623603337
10g9duc,d,鹤林路58弄,121.40432022040883,31.446671007582268
10g9due,d,恒高路100号,121.47074892920918,31.325223704695663
10g9duf,d,恒高路127弄,121.46892567052178,31.32624968566818
10g9dug,d,恒高路128弄,121.4703905300091,31.32352607443433
10g9dud,d,恒高路83弄,121.4713207420609,31.326117162142133
10g9duh,d,红林路158弄,121.42499296100881,31.365817965146814
10g9dui,d,呼兰路201弄,121.4579862170314,31.348825627650847
10g9duj,d,呼兰路455号,121.45337092586796,31.3463483624867
10g9duk,d,呼兰路515弄,121.45008000800443,31.34678344799339
10g9dul,d,呼兰路911弄,121.43897566647821,31.34386629337065
10g9e97,d,呼玛二村,121.4467113254505,31.34067050001798
10g9dum,d,呼玛路549号,121.4494238288753,31.339734864944724
10g9dun,d,呼玛路599号,121.4412955855805,31.3390007320584
10g9e98,d,呼玛三村,121.44144678074983,31.339294975225098
10g9e99,d,呼玛四村,121.44514033326853,31.343830067952965
10g9e9a,d,呼玛五村,121.43889099497024,31.34135210399657
10g9e96,d,呼玛一村,121.45196382272086,31.341863875711127
10g9dup,d,虎林路518弄,121.45589159490022,31.340026135731254
10g9duo,d,虎林路58号,121.4594229925681,31.328221598063376
10g9duq,d,虎林路800弄,121.45379600772186,31.343600561977635
10g9dur,d,沪太路1500弄,121.42407568483931,31.278452796816207
10g9dus,d,沪太路1933号,121.41783355087733,31.29427704448729
10g9dut,d,沪太路2009号,121.414528884063,31.298283668284522
10g9duu,d,沪太路2529弄,121.44201039764725,31.26800762448806
10g9duv,d,沪太路2588弄,121.40899553480742,31.31029997637833
10g9duw,d,沪太路2999弄,121.41043243726278,31.315929445776575
10g9dux,d,沪太路3717弄,121.40081863933769,31.344046195870696
10g9duy,d,沪太路4099弄,121.40636273158287,31.332881274049118
10g9duz,d,沪太路4361号,121.39732777890556,31.34506630843148
10g9dv0,d,沪太路5355弄,121.37853419555027,31.359317044244037
10g9dv1,d,沪太路6040号,121.36591315678153,31.37264856284082
10g9dv2,d,沪太路6387号,121.35927207370135,31.38315770352328
10g9dv3,d,沪太路6397号,121.35941298969973,31.383952388188856
10g9dv4,d,沪太路6525弄,121.35906542973842,31.387790166740515
10g9dv5,d,沪太路6545弄,121.36101731033571,31.38949355286274
10g9dv6,d,沪太路7300弄,121.3319321307987,31.411680160534925
10g9dv7,d,沪太路7759号,121.33734783871813,31.4297674490879
10g9dv8,d,沪太路8188弄,121.32995463136318,31.44124000626512
10g9e9b,d,华浜新村,121.49380350207358,31.348720922083455
10g9dvh,d,华灵路1225弄,121.41944654860187,31.281595958555396
10g9dvi,d,华灵路1280弄,121.41678617131718,31.27801426603841
10g9dvj,d,华灵路1351弄,121.41503995357984,31.281284398385846
10g9dvk,d,华灵路1781弄,121.40870679339928,31.28037617559263
10g9dvl,d,华灵路1895弄,121.40249856812089,31.28248790815843
10g9dvm,d,华灵路1900弄,121.40459825222455,31.277730809573097
10g9dv9,d,华灵路198弄,121.42175080031946,31.2718531329789
10g9dva,d,华灵路201弄,121.42367242056704,31.272127779129985
10g9dvb,d,华灵路410弄,121.42272764408254,31.272921779343765
10g9dvc,d,华灵路510弄,121.4220350183657,31.273517072870796
10g9dvd,d,华灵路515号,121.42335925023403,31.273562620702748
10g9dve,d,华灵路561弄,121.42314623120436,31.27491464077612
10g9dvf,d,华灵路591弄,121.42365129074702,31.27502774054689
10g9dvg,d,华灵路680弄,121.42228079343731,31.279169807145806
10g9dvn,d,化成路366弄,121.49975903311018,31.379608745951206
10g9dvu,d,环镇北路1366弄,121.38583289393834,31.307682384629025
10g9dvo,d,环镇北路300弄,121.40853693742169,31.307935301054364
10g9dvp,d,环镇北路500弄,121.40458443765753,31.307680553200836
10g9dvq,d,环镇北路600弄,121.40245047529365,31.305199544184962
10g9dvr,d,环镇北路655弄,121.40480496935886,31.309926132865975
10g9dvs,d,环镇北路699弄,121.40215584984878,31.309434470669554
10g9dvt,d,环镇北路789号,121.4017162884693,31.30765448167419
10g9dvv,d,环镇南路858弄,121.396516957356,31.296777874559492
10g9dvw,d,吉浦路218弄,121.48947392750124,31.31143322083735
10g9dvx,d,吉浦路521号,121.49041139485146,31.313140611094056
10g9dvy,d,吉浦路615弄,121.49323381240481,31.317118204965148
10g9dvz,d,集贤路151弄,121.35561150541015,31.41717092533009
10g9dw0,d,集贤路500弄,121.34993449421232,31.420581035601824
10g9dw1,d,集贤路501弄,121.35390178841871,31.421766859225485
10g9dw2,d,集贤路600弄,121.35153345932858,31.423252847939498
10g9dw3,d,集贤路700弄,121.35043969551302,31.428309128170703
10g9dw4,d,集贤路800弄,121.3503709714911,31.423924938220818
10g9dw5,d,佳龙路309号,121.3869239543983,31.340686832907274
10g9e9c,d,江杨村,121.46672837189627,31.32098230204344
10g9dw7,d,江杨南路1505号,121.46723957791986,31.33453879213217
10g9dw8,d,江杨南路1675号,121.46678469450515,31.337355909652523
10g9dw9,d,江杨南路1706号,121.46616411457583,31.33723365374529
10g9dwa,d,江杨南路1803号,121.46601555922459,31.339907340449052
10g9dwb,d,江杨南路2058号,121.4614511617201,31.342360016354373
10g9dwc,d,江杨南路2446号,121.46112181797518,31.349856013058186
10g9dwd,d,江杨南路2546弄,121.45993547479861,31.35034484087186
10g9dwe,d,江杨南路2550弄,121.46068672147287,31.351263053324423
10g9dwf,d,江杨南路2588号,121.45995912180744,31.352731253164716
10g9dwg,d,江杨南路2618号,121.45969404537432,31.353332567755338
10g9dw6,d,江杨南路927号,121.47083809374953,31.32919441682069
10g9e9d,d,江杨新村,121.46650685248903,31.340317953434727
10g9dwh,d,教育路555弄,121.3951987780164,31.35718543105923
10g9dwi,d,界华路100弄,121.42319174992231,31.30207127045962
10g9dwj,d,金勺路1412号,121.34606022318572,31.450400770375314
10g9dwk,d,金勺路1688号,121.33913536135083,31.449166126337232
10g9dwl,d,金石路163号,121.37416135500447,31.465671480624273
10g9dwm,d,锦秋路101号,121.40382007510001,31.321605889883628
10g9dwo,d,锦秋路1188弄,121.38414811418092,31.31970591957775
10g9dwp,d,锦秋路1456弄,121.37691354390095,31.317778478440886
10g9dwq,d,锦秋路1505弄,121.37232400451542,31.319438123673027
10g9dwr,d,锦秋路2509号,121.35732478309609,31.317424351802163
10g9dwn,d,锦秋路699弄,121.39081079518004,31.325529048270404
10g9dwu,d,菊联路232弄,121.36272789871337,31.34714177849612
10g9dwv,d,菊联路233弄,121.36371385118827,31.346298082745395
10g9dws,d,菊联路68弄,121.36783382561913,31.35031099286454
10g9dwt,d,菊联路89弄,121.36773523258543,31.347824868526576
10g9dwx,d,菊泉街1280弄,121.37179067981327,31.360551980765464
10g9dwy,d,菊泉街1281弄,121.37398116376642,31.360999995457373
10g9dwz,d,菊泉街1346弄,121.36958859165568,31.363193550818266
10g9dx0,d,菊泉街1969弄,121.37180270552676,31.36390828851435
10g9dww,d,菊泉街39弄,121.37860152171058,31.351279557047935
10g9dx1,d,菊盛路851弄,121.36845230326321,31.359134320018757
10g9dx2,d,菊盛路920号,121.36865960652331,31.361697368158918
10g9dx4,d,菊太路1198弄,121.35864404899478,31.346320564641655
10g9dx5,d,菊太路1221弄,121.35676322304492,31.349393138945956
10g9dx6,d,菊太路1399弄,121.35281376519752,31.345909293987248
10g9dx7,d,菊太路1609弄,121.34825857251926,31.345835187467774
10g9dx8,d,菊太路1755弄,121.3461269380567,31.344612679114082
10g9dx3,d,菊太路999弄,121.3613282593306,31.351334942507297
10g9dxa,d,聚丰园路105弄,121.3846945261131,31.31764468050374
10g9dxb,d,聚丰园路188弄,121.38273481961679,31.314606006197874
10g9dxc,d,聚丰园路388弄,121.37856733024962,31.313349667232284
10g9dxd,d,聚丰园路500弄,121.3777948262757,31.311421309438597
10g9dx9,d,聚丰园路95弄,121.38417384438242,31.316059153506373
10g9e9e,d,聚源桥村,121.38537743478291,31.4394046851196
10g9e9f,d,康家村,121.43145556863458,31.316285270654664
10g9e9g,d,老安村,121.37344015064535,31.36575704865252
10g9dxe,d,莲花山路517弄,121.44514094503042,31.36206837786614
10g9e9h,d,联东村,121.41076366201513,31.31150967101315
10g9e9i,d,联合村,121.3233637583746,31.405902981070103
10g9dxf,d,联泰路158弄,121.42763158186064,31.34664473717788
10g9dxg,d,联泰路518弄,121.42442889175632,31.350283830217823
10g9e9j,d,联西村,121.39790905215715,31.305387719732053
10g9dxh,d,联杨路1078弄,121.35442251128441,31.345291718305337
10g9dxi,d,联杨路3606弄,121.32978278147303,31.389432660681397
10g9dxj,d,联杨路4568号,121.3233965386813,31.405767667433963
10g9dxl,d,联谊路398号,121.4308078056192,31.343218447725246
10g9dxk,d,联谊路40号,121.44523706180685,31.35254806137785
10g9dxm,d,联谊路477号,121.4285859178436,31.345160707329793
10g9dxn,d,联谊路612弄,121.42159246445824,31.338859189700482
10g9dxo,d,联谊路649弄,121.41829698416294,31.343104836030655
10g9dxp,d,联长路55号,121.46540035843714,31.337534977939104
10g9dxq,d,联长路57号,121.46546331410252,31.33728883995559
10g9dxr,d,联长路80号,121.46458548960533,31.336863795639104
10g9e9k,d,临江二村,121.48647454968206,31.410975316580533
10g9e9l,d,临江三村,121.48847625640458,31.41082205999929
10g9e9m,d,临江四村,121.49134833894858,31.411964890928516
10g9dxs,d,岭南路1118弄,121.45653282508871,31.322277577230064
10g9dxt,d,岭南路1288弄,121.45669410545257,31.32473421577268
10g9dxu,d,岭南路1289弄,121.45454511825604,31.324795488990066
10g9dxv,d,岭南路1320号,121.45555453648595,31.32559258590218
10g9dxw,d,陆翔路111弄,121.37019283121148,31.345231529200454
10g9dy0,d,陆翔路3489弄,121.33749403641964,31.400437477367724
10g9dy1,d,陆翔路3500弄,121.34003001678535,31.402262767162412
10g9dxx,d,陆翔路358弄,121.36969726571043,31.351551135372127
10g9dxy,d,陆翔路678弄,121.36820486658937,31.353433822185544
10g9dxz,d,陆翔路698弄,121.36677892086075,31.354909736920074
10g9dy2,d,罗北路200弄,121.38359897695945,31.454051099810112
10g9dy8,d,罗东路1505号,121.36772861297169,31.457160407204128
10g9dy9,d,罗东路1825号,121.36716853121231,31.46592332650842
10g9dy4,d,罗东路230号,121.37496460499001,31.421409123626194
10g9dy5,d,罗东路313弄,121.37711347973932,31.430163638267633
10g9dy6,d,罗东路500弄,121.37079785023789,31.430513691534607
10g9dy7,d,罗东路501弄,121.37543114423312,31.43155768047057
10g9dy3,d,罗东路50弄,121.37798953892954,31.417504440179318
10g9dya,d,罗芬路1266号,121.34804103243538,31.404354993277877
10g9dyb,d,罗和路118弄,121.34181885815774,31.38136428746821
10g9dyc,d,罗和路855弄,121.33470631370535,31.391227658490326
10g9e9o,d,罗南二村,121.36637557173395,31.387687595368643
10g9dyd,d,罗南路368弄,121.34109904701752,31.38909785765554
10g9e9n,d,罗南一村,121.36219944093266,31.38391750546412
10g9dye,d,罗宁路1168号,121.34307154459698,31.453918964165307
10g9dyf,d,罗宁路3030弄,121.32733221602679,31.485875434515076
10g9dyg,d,罗平路3号,121.37768781882053,31.428480782552036
10g9dyh,d,罗太路235弄,121.34458775262651,31.40807083660664
10g9dyi,d,罗太路447号,121.33910824035505,31.41343109461845
10g9dyj,d,罗太路533弄,121.34135067755797,31.416808822294552
10g9dyk,d,罗太路539弄,121.33869518883863,31.416709713059625
10g9dyl,d,罗太路869弄,121.33943246573865,31.427564631083182
10g9e9p,d,罗溪村,121.34293490631617,31.409594223001232
10g9dyp,d,罗溪路1000弄,121.34347983587966,31.423653742076556
10g9dyq,d,罗溪路1001弄,121.34356942371322,31.424818660060595
10g9dyr,d,罗溪路1079弄,121.34227806132571,31.42749170814653
10g9dys,d,罗溪路1099弄,121.34360425483658,31.42880276463156
10g9dyn,d,罗溪路121号,121.35048626551429,31.413035360913515
10g9dyt,d,罗溪路1400弄,121.34059988059278,31.431080238887787
10g9dym,d,罗溪路60弄,121.34844969596323,31.411731297698974
10g9dyo,d,罗溪路671弄,121.34686329871644,31.41906440442909
10g9dyu,d,罗迎路188弄,121.36317288146456,31.400866520550245
10g9dyv,d,罗迎路558弄,121.35567971044692,31.40530672464705
10g9dyw,d,罗迎路800弄,121.3543734146668,31.409030746953743
10g9dyx,d,罗智路258弄,121.34685548836153,31.385870383716306
10g9e9q,d,马泾桥二村,121.41508750829792,31.418141540877855
10g9e9r,d,马泾桥三村,121.41404654538648,31.418571700248325
10g9dz0,d,毛家路212弄,121.38687749686783,31.426519193208133
10g9dyz,d,毛家路31号,121.38963256829804,31.419752544306846
10g9dz1,d,毛家路399号,121.38628438760131,31.428238339115637
10g9dz2,d,毛家路600弄,121.38405531361406,31.43287649370634
10g9dyy,d,毛家路8号,121.38934268207477,31.418887656282635
10g9e9s,d,毛家弄村,121.3875107987111,31.42550073418272
10g9e9t,d,茂盛村,121.39923904095531,31.410496016635012
10g9dz4,d,梅林路666弄,121.43627878928676,31.3690370848903
10g9dz5,d,梅林路866弄,121.43531457881386,31.37114567724538
10g9dz3,d,梅林路97弄,121.4383034218136,31.36276090964826
10g9e9u,d,梅园村,121.41975533315379,31.414800907866212
10g9e9v,d,湄浦村,121.42573608028886,31.387503494869772
10g9dz6,d,湄星路1816弄,121.4140749432467,31.374205029184967
10g9dz7,d,美艾路177弄,121.36392773655797,31.393946749437966
10g9dz8,d,美艾路198弄,121.36232390641236,31.394029317756658
10g9dz9,d,美安路215弄,121.35201693529253,31.388319001024172
10g9dza,d,美安路218弄,121.3489897504547,31.389152104749463
10g9dze,d,美丹路1033弄,121.33745083897848,31.39216840403742
10g9dzf,d,美丹路1058弄,121.33723727340147,31.395558024315648
10g9dzb,d,美丹路18弄,121.35482318899358,31.40541555076175
10g9dzc,d,美丹路222号,121.35143952050086,31.402354849667464
10g9dzd,d,美丹路998弄,121.34020325542147,31.395321855199654
10g9dzg,d,美康路818弄,121.33250962524947,31.39573445242561
10g9dzh,d,美兰湖路98弄,121.36166778580744,31.402996945313234
10g9dzp,d,美平路1060弄,121.33609544598121,31.387362786755133
10g9dzi,d,美平路288弄,121.3480018288523,31.39082461330066
10g9dzj,d,美平路391号,121.35080136281036,31.39070623863965
10g9dzk,d,美平路428弄,121.34550271581276,31.389647695092087
10g9dzl,d,美平路500弄,121.34261582486175,31.38990712530258
10g9dzm,d,美平路696弄,121.33899594979734,31.38849363628534
10g9dzn,d,美平路745弄,121.33948176362256,31.387390419493567
10g9dzo,d,美平路999弄,121.33697457771544,31.386218579008077
10g9dzq,d,美秀路358弄,121.35119872885726,31.383798304162386
10g9dzr,d,美秀路558弄,121.34378079950393,31.381827718754163
10g9e9x,d,密山二村,121.48684213911977,31.40325731927738
10g9dzt,d,密山路500弄,121.4815722880339,31.401608380127552
10g9dzs,d,密山路60号,121.48215674476248,31.402101482335944
10g9e9w,d,密山新村,121.48162534229164,31.40131428157635
10g9dzu,d,苗圃路117号,121.39356246851725,31.428789154255643
10g9dzv,d,苗圃路680号,121.36179919186554,31.420967407875366
10g9dzw,d,民康路95号,121.50231642030012,31.384924376733853
10g9dzx,d,漠河路151号,121.4803545387158,31.410965609383055
10g9e00,d,牡丹江路1211号,121.48758317395448,31.39391108248501
10g9e01,d,牡丹江路1298弄,121.48402674311976,31.3958156905433
10g9e02,d,牡丹江路1378弄,121.48558946485012,31.39693161514983
10g9e03,d,牡丹江路1761号,121.48199775694938,31.405748957098695
10g9dzy,d,牡丹江路377号,121.49626216649611,31.38307130879421
10g9dzz,d,牡丹江路700号,121.49265347948553,31.387667021988918
10g9e04,d,南陈路260号,121.39780600588927,31.308056292474134
10g9e05,d,南陈路278弄,121.39454124118899,31.309845422934124
10g9e06,d,南陈路279弄,121.39841194173357,31.309110748233635
10g9e0b,d,南大路126弄,121.4030611208084,31.299593561417204
10g9e0c,d,南大路138弄,121.40246395363017,31.30058891111529
10g9e0d,d,南大路146弄,121.40212065216949,31.300805247189547
10g9e0e,d,南大路158弄,121.4017739565715,31.302589758525937
10g9e07,d,南大路17号,121.40714579354399,31.29883999075455
10g9e0f,d,南大路190弄,121.39876712559749,31.300643768676643
10g9e0g,d,南大路201号,121.39750206713538,31.299377426619753
10g9e08,d,南大路30号,121.4072799655172,31.302132059284787
10g9e0h,d,南大路355号,121.3910250064113,31.299557789101065
10g9e0i,d,南大路363号,121.38941205920153,31.299835194773316
10g9e09,d,南大路76号,121.40302680250136,31.299492625946293
10g9e0a,d,南大路86弄,121.40611403987106,31.29974988684902
10g9e0k,d,南东路108弄,121.36095659350838,31.386900263309055
10g9e0j,d,南东路20弄,121.36246845630863,31.38470502699743
10g9e0m,d,南弄街162号,121.48957402025601,31.40558602175621
10g9e0l,d,南弄街77弄,121.4895357453426,31.405436622186606
10g9e0n,d,南汀路203号,121.47279890986363,31.370553786882375
10g9e0o,d,南卫路38弄,121.35980368045313,31.384729709263336
10g9e0p,d,南蕰藻路776弄,121.42155142588325,31.335730920534424
10g9e9y,d,南周村,121.3402531701394,31.37763211143877
10g9e0q,d,年吉路100弄,121.34442299014334,31.402183325492437
10g9e0r,d,年吉路358弄,121.35536248169127,31.399178154648506
10g9e0s,d,年吉路442号,121.33614576901749,31.39877519900813
10g9e0t,d,年吉路650弄,121.33426266650862,31.39959920935212
10g9e0v,d,潘川路2185号,121.33141793226798,31.456618620782557
10g9e0u,d,潘川路555号,121.36075599120832,31.47311313197651
10g9e0x,d,潘广路1765弄,121.3679940555824,31.364896051722088
10g9e0w,d,潘广路699号,121.38085794667141,31.36937606816082
10g9e0z,d,潘沪路188弄,121.33324917940321,31.48195019822113
10g9e10,d,潘沪路197号,121.3327487703435,31.480276874204456
10g9e11,d,潘沪路201号,121.3331723884476,31.48034318787161
10g9e12,d,潘沪路203号,121.33233589290879,31.48010658947002
10g9e0y,d,潘沪路69弄,121.33686513838327,31.480121545382772
10g9e13,d,潘泾路1101号,121.38956812311135,31.3845978123784
10g9e14,d,潘泾路1318弄,121.3829945270553,31.380379719033282
10g9e15,d,潘泾路2999号,121.36225078464456,31.4334891621032
10g9e16,d,潘泾路4655弄,121.34944274872953,31.462475643744348
10g9e9z,d,潘桥村,121.32664219370622,31.45495355368588
10g9e17,d,潘新路118弄,121.33041086765938,31.487222814429717
10g9e18,d,潘新路558弄,121.32311942675905,31.485232335318255
10g9e19,d,盘古路226号,121.48868723249944,31.409492413352872
10g9e1a,d,盘古路588弄,121.47645881052966,31.405405387082933
10g9e1b,d,盘古路689弄,121.4718398282181,31.406778064727686
10g9e1c,d,盘古路777号,121.46720027733643,31.40360608655197
10g9e1d,d,盘古路927弄,121.46222483252171,31.401530116799982
10g9ea0,d,炮台村,121.49670706289093,31.387130407031904
10g9e1f,d,祁北东路209号,121.35036426305359,31.422742534440314
10g9e1g,d,祁北东路361弄,121.3465732793216,31.42112189994769
10g9e1e,d,祁北东路85弄,121.353108192127,31.424835779033284
10g9e1h,d,祁华路300弄,121.37078304591545,31.322795810406404
10g9ea1,d,祁连二村,121.38056157463554,31.31732360317978
10g9ea2,d,祁连三村,121.38290798804124,31.311573409438886
10g9ea3,d,祁连四村,121.38247947268533,31.31687449551276
10g9e1i,d,祁真路199弄,121.37743976844823,31.32039185300942
10g9e1j,d,钱陆路753弄,121.38843273723016,31.441502256636728
10g9e1k,d,乾溪路251弄,121.4100646819583,31.305842683920357
10g9ea4,d,勤丰村,121.39237596618513,31.414881361587998
10g9e1l,d,邱家弄,121.34363405686624,31.416869045971858
10g9e1m,d,瑞丰路456弄,121.37513360856009,31.31857867349076
10g9e1n,d,三门路485弄,121.49444790233564,31.314083585041466
10g9e1o,d,三门路497弄,121.49296040120046,31.311988744533256
10g9e1p,d,三门路505弄,121.49062778046088,31.311640903934887
10g9e1q,d,三门路555弄,121.48930811507775,31.312094790273388
10g9e1r,d,三门路559弄,121.48844241456395,31.31187104240951
10g9ea5,d,三星村,121.35058401097298,31.31103021754862
10g9e1s,d,沙浦路311弄,121.38705485324601,31.355594687599027
10g9e1t,d,沙浦路518弄,121.382368679315,31.35619501931027
10g9e1u,d,山连路168号,121.35688858565163,31.305351933227467
10g9e1w,d,上大路1288弄,121.38449283334556,31.308752739819013
10g9e1v,d,上大路128弄,121.40692896933662,31.31185359302333
10g9e1x,d,韶山路418弄,121.36564689580645,31.3652656218164
10g9e1y,d,申浦路288弄,121.41321274530644,31.425459083143725
10g9ea6,d,沈家桥村,121.38976815589959,31.4506181626842
10g9ea7,d,沈巷村,121.41147972104868,31.419713980072437
10g9ea8,d,沈杨村,121.37268295055233,31.330651146993
10g9ea9,d,盛桥三村,121.40092125787672,31.450188780992796
10g9eaa,d,盛星村,121.38562090228686,31.44930753314928
10g9eab,d,盛宅村,121.41029026086036,31.349060307009164
10g9e1z,d,石太路1588号,121.37360483284478,31.439632646816303
10g9e20,d,石太路2888号,121.34993073966747,31.431964665195004
10g9e21,d,石太路3121号,121.34188608427768,31.43020581023141
10g9e22,d,石太路3512弄,121.34263149281341,31.429654954889916
10g9eac,d,拾年村,121.37170776154534,31.391955278354164
10g9e23,d,市河街6弄,121.34179288005748,31.41192232348191
10g9e24,d,市台路388弄,121.35139065637628,31.31549694901992
10g9e25,d,市台路555弄,121.34930483211454,31.318362652649107
10g9e26,d,市一路153弄,121.34924809153635,31.414377481047797
10g9e27,d,市一路178弄,121.34823426702202,31.416331525805052
10g9e28,d,市一路199号,121.34757743211574,31.414680993986703
10g9e29,d,市一路200号,121.34657547796985,31.415259204903528
10g9e2a,d,市一路213号,121.34587551539248,31.41463830307543
10g9e2b,d,市一路220弄,121.34554251479143,31.41559340270984
10g9e2c,d,双城路803弄,121.4851679596602,31.389007748988035
10g9e2d,d,双庆路85弄,121.48772704637165,31.389208530123213
10g9e2f,d,水产路1269号,121.48667936872668,31.382068968906626
10g9e2e,d,水产路153号,121.50336652887644,31.39017717709781
10g9e2g,d,水产路1699号,121.46561013349827,31.378317257279715
10g9e2h,d,水产路2600弄,121.44251399447504,31.364608432421296
10g9e2i,d,水产西路268弄,121.42780096908706,31.360056146862245
10g9e2j,d,水产西路489弄,121.42088939874617,31.36020486345716
10g9e2k,d,水产西路495号,121.42188007650881,31.358474066387835
10g9e2l,d,水产西路729弄,121.41740213611737,31.358233087980793
10g9e2m,d,水产西路777弄,121.41545281860355,31.356827375749813
10g9e2n,d,水产西路858弄,121.41469577659855,31.354099190453766
10g9e2o,d,水产西路859弄,121.4135869097147,31.35598979111455
10g9ead,d,水上新村,121.48791390528766,31.408699528942957
10g9e2p,d,四元路20弄,121.43506430537236,31.41192305548081
10g9e2q,d,泗东路37号,121.48386908888422,31.368325060707765
10g9eae,d,泗东新村,121.48506941171452,31.368397648784164
10g9eal,d,泗塘八村,121.45728212117679,31.329846517168622
10g9eag,d,泗塘二村,121.45621466674288,31.337128871149737
10g9eak,d,泗塘七村,121.4623251457404,31.330329153080402
10g9eah,d,泗塘三村,121.45571580314947,31.33379659764108
10g9eai,d,泗塘四村,121.46015423470037,31.336849530928895
10g9eaj,d,泗塘五村,121.46171769252487,31.33319213574407
10g9eaf,d,泗塘一村,121.45180211459517,31.337739889888553
10g9e2r,d,松兰路198弄,121.45111253753734,31.367888848371482
10g9e2s,d,松兰路233弄,121.4489526772565,31.370631753949432
10g9e2t,d,松兰路328弄,121.44950331927072,31.373303636828535
10g9e2u,d,松兰路879号,121.44479390332158,31.37960764819522
10g9e2v,d,淞滨路15弄,121.49445399264545,31.372699307292805
10g9e2w,d,淞滨路48弄,121.50004593320136,31.374897209161045
10g9e2x,d,淞滨路803弄,121.48842006534367,31.37146395035448
10g9e2y,d,淞滨支路120弄,121.48678736712033,31.369713760192052
10g9e2z,d,淞发路500弄,121.49051334500471,31.34181139326787
10g9e30,d,淞发路901弄,121.48733189531286,31.342746369936965
10g9eas,d,淞南八村,121.4817043815069,31.335157775859017
10g9eaq,d,淞南六村,121.48425014843345,31.339866948368332
10g9e31,d,淞南路493号,121.49063506954653,31.347141845743778
10g9ear,d,淞南七村,121.48173720153024,31.333363372847213
10g9ean,d,淞南三村,121.48921318153148,31.344603434964707
10g9eat,d,淞南十村,121.47265833064448,31.333704933591612
10g9eao,d,淞南四村,121.49072013853869,31.348401771546758
10g9eap,d,淞南五村,121.48514980905883,31.339201744375387
10g9eam,d,淞南一村,121.4845226622983,31.342327686342436
10g9e32,d,淞浦路727号,121.49165452569301,31.36781064550089
10g9e33,d,淞青路18号,121.50104580016826,31.39057503589872
10g9e36,d,淞兴路163号,121.49721395756117,31.3726864978529
10g9e37,d,淞兴路305弄,121.49561357359929,31.371813446771824
10g9e34,d,淞兴路76弄,121.49857221281476,31.373110496077143
10g9e35,d,淞兴路92号,121.49124214156686,31.369224158838417
10g9e38,d,淞兴西路268号,121.48620495424335,31.367140674245714
10g9e39,d,淞肇路321号,121.48281332223483,31.34118012729422
10g9e3a,d,淞肇路323号,121.48231771551502,31.341965531533674
10g9e3b,d,苏家浜路388弄,121.39141801624466,31.36310071597022
10g9e3c,d,苏家浜路435弄,121.39202972042347,31.359774916492167
10g9eau,d,苏家村,121.41304468421386,31.401878638636457
10g9e3f,d,绥化路201弄,121.4316510045364,31.407164759911552
10g9e3d,d,绥化路50弄,121.43631291164937,31.404727933622652
10g9e3e,d,绥化路52弄,121.43409888405027,31.404407651518493
10g9e3h,d,塔源路150弄,121.39830946229205,31.44610010071031
10g9e3i,d,塔源路302弄,121.39765800471692,31.451287781845746
10g9e3g,d,塔源路58弄,121.40251282685145,31.448587888103418
10g9e3m,d,泰和路1700号,121.44840522405669,31.35480529760031
10g9e3j,d,泰和路318弄,121.49380245281301,31.373102360238626
10g9e3k,d,泰和路678弄,121.48786169016947,31.370254089576893
10g9e3l,d,泰和路710弄,121.48535456692943,31.370034983757247
10g9e3n,d,泰和西路3463弄,121.40591841048258,31.34945913303132
10g9e3o,d,泰和西路3493弄,121.40411504792208,31.35043103408904
10g9e3p,d,泰和西路3499弄,121.40238416393946,31.349871514841087
10g9e3q,d,泰和西路3527弄,121.40004546043329,31.347582452386614
10g9eav,d,谭杨村,121.39470623160612,31.37465308895909
10g9e3r,d,塘后路285弄,121.50492924306768,31.39651345333124
10g9e3s,d,塘后支路55弄,121.50737826634784,31.3912424647013
10g9e3t,d,塘南街57号,121.43068716051881,31.41923365952018
10g9eaw,d,塘湾村,121.31934375352425,31.49109800355838
10g9e3u,d,塘西街213弄,121.34326886621056,31.415640226972204
10g9e3v,d,塘西街259号,121.34301902344662,31.41863985770259
10g9e3w,d,塘西街397弄,121.34271613308337,31.421725524317402
10g9e3x,d,塘西街398弄,121.33930692137567,31.420956995696038
10g9eax,d,桃园新村,121.48893964007087,31.370826635269342
10g9e3z,d,天家路116弄,121.33967561362618,31.38453556459602
10g9e40,d,天家路199弄,121.33845044813569,31.38266324516627
10g9e41,d,天家路200弄,121.33802155947701,31.38387203492704
10g9e3y,d,天家路99弄,121.3406407249116,31.383418283740816
10g9e42,d,铁城路1555号,121.45148871999616,31.356270412949815
10g9e43,d,铁峰路2000弄,121.45321261091823,31.39593131170435
10g9e44,d,铁峰路2001弄,121.45634114100322,31.397379976836948
10g9e46,d,铁力路229号,121.47615827722807,31.375463014422174
10g9e47,d,铁力路388号,121.46923875034487,31.381098649955973
10g9e45,d,铁力路3号,121.47384968711276,31.368491572054577
10g9e48,d,铁力路785号,121.4692860209975,31.39575554184082
10g9e4a,d,铁山路38号,121.46715919324095,31.362984285672905
10g9e4b,d,铁山路55号,121.4680414625038,31.36287878178357
10g9e4c,d,铁山路69号,121.46978175364553,31.36399260680606
10g9e49,d,铁山路9号,121.46943321052802,31.360627235262747
10g9e4d,d,亭前街15号,121.34672576901855,31.41287501741891
10g9e4e,d,亭前街75号,121.3447655651947,31.41254778855583
10g9eb4,d,通河八村,121.44741366597864,31.32926926590835
10g9eaz,d,通河二村,121.44694971963675,31.333824829897157
10g9eb2,d,通河六村,121.45189603022855,31.331034755191954
10g9e4f,d,通河路221号,121.45220271530876,31.33140028312267
10g9eb3,d,通河七村,121.45192302364978,31.329315236789594
10g9eb0,d,通河三村,121.44459054510136,31.335462676717437
10g9eb1,d,通河四村,121.44507834936556,31.330888215778756
10g9eay,d,通河一村,121.44692780796582,31.333957184026204
10g9e4g,d,通南路328弄,121.4711655457099,31.334237172109425
10g9e4h,d,通南路369号,121.46819775408703,31.336024939201412
10g9e4i,d,同济路303号,121.48939733500714,31.38090241749779
10g9e4j,d,同济路333号,121.48759589422342,31.384140007637463
10g9e4k,d,同济路343号,121.48587157003875,31.38603753881378
10g9e4l,d,同济支路199号,121.49135230704246,31.378948645327107
10g9e4m,d,同泰北路447号,121.4924879012825,31.3817675733247
10g9e4n,d,同泰路135弄,121.49731642160087,31.374548597781963
10g9eb5,d,王家村,121.38847950346046,31.385857191854154
10g9eb6,d,王宅村,121.35962170847101,31.33574563359632
10g9e6q,d,蕰川路12号,121.43534829089306,31.346652139563023
10g9e6s,d,蕰川路1498弄,121.42536013342823,31.360691189813505
10g9e6t,d,蕰川路1623弄,121.43466069734171,31.368378284189042
10g9e6u,d,蕰川路2767号,121.422451790118,31.40450834825097
10g9e6v,d,蕰川路3995号,121.42022026271677,31.415459408203635
10g9e6r,d,蕰川路516弄,121.43531171921212,31.346617544151812
10g9e6w,d,蕰川路5575号,121.4054732970541,31.45381402013187
10g9e6x,d,蕰藻南路399号,121.46210552647565,31.353121129546324
10g9e4o,d,汶水路1585弄,121.41579053097063,31.289686006899203
10g9eb7,d,吴淞三村,121.49594479935365,31.37051551330339
10g9eb8,d,五星村,121.34690317021276,31.304563429581794
10g9eb9,d,西浜村,121.44117557271521,31.35841289478163
10g9eba,d,西街村,121.43242097990345,31.372489579583345
10g9ebb,d,西埝村,121.36472760485367,31.384184523063183
10g9ebc,d,西朱新村,121.49085688796754,31.37480083547604
10g9e4p,d,萧月路151号,121.32820742549092,31.48755212004889
10g9e4q,d,萧云路1318弄,121.3318970183526,31.45580461473021
10g9ebd,d,肖泾村,121.32368133120758,31.4654793358482
10g9e4u,d,新二路1088弄,121.47232843284957,31.33116897290134
10g9e4r,d,新二路168号,121.47481410965078,31.32567867501118
10g9e4s,d,新二路183弄,121.47508570972508,31.325864311574044
10g9e4t,d,新二路999弄,121.47689440994509,31.327085565424316
10g9e4y,d,新沪路1099弄,121.4203143656308,31.27680401168522
10g9e4z,d,新沪路1208号,121.42079399693557,31.276406466869982
10g9e4w,d,新沪路285弄,121.41800095813471,31.269167263053447
10g9e4v,d,新沪路58弄,121.41966920932799,31.267671079635267
10g9e4x,d,新沪路689弄,121.4180005993678,31.271350077715077
10g9ebe,d,新苗村,121.3163039936272,31.48337178979949
10g9ebf,d,星星村,121.41211278673747,31.37352167271742
10g9du8,d,行知路569弄,121.4120103029821,31.283429727643792
10g9du9,d,行知路572弄,121.4121586981473,31.28422368382816
10g9dua,d,行知路684弄,121.40866422463864,31.285456847586854
10g9e50,d,阳曲路1053号,121.4596167207369,31.323249940433467
10g9e51,d,阳曲路1111弄,121.45852354565362,31.32461005401463
10g9e52,d,阳曲路1388弄,121.46113903059404,31.32635117133076
10g9e53,d,杨北路1568弄,121.41423694411597,31.392251127221808
10g9e54,d,杨南路167号,121.41708288873092,31.406360183345342
10g9ebg,d,杨泰二村,121.44088881324036,31.369383562864478
10g9e57,d,杨泰路2158弄,121.42987602085248,31.393335185052866
10g9e56,d,杨泰路386号,121.44102523463056,31.374316635223682
10g9e55,d,杨泰路99弄,121.45113490935266,31.366637285208284
10g9ebh,d,杨泰三村,121.44928071934623,31.362831040480074
10g9e58,d,杨鑫路69号,121.45077333303115,31.372572042885405
10g9e59,d,杨鑫路98弄,121.4503934647294,31.37205442791501
10g9ebi,d,洋桥村,121.30526707861496,31.496909415846574
10g9e5b,d,业绩路23号,121.35600903617906,31.302445137909206
10g9e5c,d,业绩路800号,121.35616807905649,31.31488071587877
10g9e5a,d,业绩路8号,121.35481069672868,31.301337149892216
10g9e5d,d,一二八纪念路55弄,121.46667726513462,31.328769482768394
10g9e5e,d,一二八纪念路688弄,121.45304332831864,31.325985629450965
10g9e5f,d,一二八纪念路811弄,121.44948229195538,31.326320838849895
10g9e5g,d,一二八纪念路933弄,121.44692843128634,31.325445975238903
10g9e5h,d,依安路39号,121.42677719997863,31.36665435408558
10g9e5i,d,怡华苑路188弄,121.41875230150868,31.272021194209
10g9e5j,d,逸仙路1238弄,121.4819294958145,31.315253082795078
10g9e5k,d,逸仙路1321弄,121.48777736152364,31.31569658144669
10g9e5l,d,逸仙路1588弄,121.48381399837655,31.322054502068948
10g9e5m,d,逸仙路3456弄,121.50033423268425,31.347399720865635
10g9e5n,d,逸仙路3508弄,121.50102265664538,31.34897031200314
10g9e5o,d,逸仙路3945号,121.50258476247383,31.35457412570196
10g9e5p,d,逸仙路4127号,121.49893911307814,31.35947755815431
10g9e5q,d,逸仙路4318号,121.49546675989514,31.364784712615386
10g9e5s,d,殷高路21弄,121.49055209594817,31.322362544707058
10g9e5t,d,殷高路42号,121.48956372219548,31.320277380456215
10g9e5u,d,殷高路65号,121.48875040092808,31.320800426393312
10g9e5r,d,殷高路7弄,121.49342942842026,31.321526001904697
10g9e5v,d,殷高西路711号,121.4691672116093,31.320016265782197
10g9e5w,d,永乐路115弄,121.50221934238675,31.39803001933222
10g9e5x,d,永乐路738弄,121.48815636315992,31.390715355120104
10g9ebk,d,永清二村,121.49484660897275,31.38851259728407
10g9ebj,d,永清新村,121.498146815093,31.391147706408194
10g9e5y,d,永顺路28弄,121.35168558890585,31.414655566967927
10g9e5z,d,永顺路81弄,121.34891004461647,31.41210301704368
10g9e63,d,友谊路1136号,121.46054561856944,31.396452841325384
10g9e64,d,友谊路1502号,121.45728353290164,31.394763840453226
10g9e65,d,友谊路1506号,121.456102635694,31.394023424517137
10g9e66,d,友谊路1518号,121.45703582068106,31.3939835706209
10g9e67,d,友谊路1588弄,121.45413541064332,31.39317404267189
10g9e60,d,友谊路16弄,121.49120491303849,31.407602458189
10g9e68,d,友谊路1869弄,121.44480475675329,31.39452308960846
10g9e69,d,友谊路1999弄,121.44720494567723,31.39098745154362
10g9e62,d,友谊路240号,121.4774745732122,31.403284033607413
10g9e6a,d,友谊路2699号,121.43662770288009,31.38678550036474
10g9e61,d,友谊路43弄,121.48882149599011,31.40716476669797
10g9e6b,d,友谊西路101号,121.4264061955653,31.3820728775061
10g9e6c,d,友谊西路588号,121.41475292351288,31.382480242486718
10g9e6d,d,园新路58号,121.35112710155121,31.301287089250188
10g9ebl,d,远景村,121.33774833503152,31.40394198812678
10g9e6e,d,月城路300弄,121.43491971841065,31.37851742525913
10g9e6f,d,月川路33弄,121.40597110530278,31.4459995276681
10g9e6g,d,月春路589号,121.38910929734436,31.411870123904055
10g9e6h,d,月富路218弄,121.4102812181328,31.42647159797232
10g9e6i,d,月辉路218弄,121.40895763801508,31.42668651224218
10g9e6j,d,月罗公路2380号,121.35100170741308,31.40928842868289
10g9e6m,d,月罗路2425弄,121.3484723235848,31.408703208944043
10g9e6k,d,月罗路307弄,121.41131113696714,31.418546410243632
10g9e6l,d,月罗路888弄,121.3950029444917,31.41180965756394
10g9ebp,d,月浦八村,121.42569402904276,31.415405360712118
10g9ebm,d,月浦二村,121.42857049069615,31.41948870821349
10g9ebq,d,月浦九村,121.42196317392967,31.416775264024547
10g9ebo,d,月浦六村,121.49566395927424,31.385162669431388
10g9ebr,d,月浦十村,121.43069631663282,31.41476801722809
10g9ebn,d,月浦五村,121.42674789033404,31.41778932479229
10g9e6n,d,月泉路58弄,121.41107204360516,31.42080007772799
10g9ebs,d,月狮村,121.40725994983721,31.449368967727423
10g9e6o,d,云西路168弄,121.47525730320515,31.3174785020481
10g9e6p,d,云西路219弄,121.47297893076762,31.318659340734513
10g9e6y,d,张桥街5弄,121.34754805535371,31.40849814069943
10g9ebt,d,张墅村,121.32851389663935,31.387624919184432
10g9ebu,d,长春村,121.38859484725188,31.407268566187913
10g9dqx,d,长发路188号,121.32607329369506,31.46829408068127
10g9dqy,d,长发路375号,121.32564620075819,31.471054370899644
10g9dqz,d,长虹路449号,121.33004411455696,31.46877954447717
10g9dr0,d,长虹路718弄,121.32834556547587,31.47542008845344
10g9dr1,d,长虹路779弄,121.32661267414555,31.476702230939694
10g9dr2,d,长江路20弄,121.4992307102338,31.35180456877407
10g9dr3,d,长江路43号,121.49749824963874,31.35348299003555
10g9dr4,d,长江路500号,121.49077916946253,31.34900458448617
10g9dr5,d,长江路860弄,121.48561407839831,31.343506145308044
10g9dr7,d,长江南路579号,121.48155119765109,31.337208999521053
10g9dr6,d,长江南路76号,121.48196028633207,31.33584332007523
10g9dr8,d,长江南路958号,121.47937329497343,31.34095545632606
10g9drd,d,长江西路1000号,121.46184516720193,31.339437872225222
10g9dre,d,长江西路1158号,121.4593966909972,31.338512253705957
10g9drf,d,长江西路1160弄,121.4593572695241,31.338323177120408
10g9drg,d,长江西路1361号,121.45469492364954,31.3371205856965
10g9drh,d,长江西路1869号,121.44504200905084,31.333147441361035
10g9dri,d,长江西路2700号,121.42912359962564,31.326976877975486
10g9dr9,d,长江西路52弄,121.45235476048455,31.335969865722866
10g9drb,d,长江西路720号,121.47244605371053,31.34271458138934
10g9drc,d,长江西路755号,121.47164865504942,31.343313698019212
10g9dra,d,长江西路96号,121.48023041536054,31.345888917320924
10g9drj,d,长临路1118弄,121.43188001734524,31.326139809266085
10g9drk,d,长临路1318弄,121.43188391312734,31.330779894827703
10g9drl,d,长逸路301弄,121.49109523522235,31.338067980198584
10g9ebv,d,长征新村,121.49172674056031,31.37059476776607
10g9e6z,d,真北路4333弄,121.40465763549541,31.29278180195032
10g9e70,d,真陈路1398弄,121.35128866094541,31.316233635034923
10g9e71,d,真大路333弄,121.40257456233961,31.28913595176053
10g9e72,d,真大路358弄,121.39910922434224,31.289534259405638
10g9e73,d,真大路450号,121.39803395787116,31.29485520313019
10g9e74,d,真大路520号,121.40789126671169,31.296579043630057
10g9e75,d,真华路1030弄,121.41243397554388,31.27556674843185
10g9e76,d,真华路1615弄,121.4101400290201,31.286659514437762
10g9e77,d,真华路1800弄,121.41193750882883,31.289589869437037
10g9e78,d,真华路1801弄,121.41053297076375,31.28952052614439
10g9e79,d,真华路1958弄,121.4116170404576,31.29134787293624
10g9e7b,d,真金路1039弄,121.40510254874593,31.282071707241844
10g9e7c,d,真金路1041号,121.40613032929329,31.283584170993365
10g9e7a,d,真金路179弄,121.40637006286717,31.28061775433544
10g9ebw,d,镇东新村,121.34605037528308,31.414167304994212
10g9e7d,d,镇泰路388弄,121.4355268298274,31.38092670405532
10g9ebx,d,正义村,121.3546662202517,31.350437457329235
10g9e7e,d,朱家弄,121.39413736412669,31.34317020205296
10g9eby,d,朱家弄村,121.38767737706401,31.340553903614296
10g9e7g,d,竹韵路128弄,121.44425485726849,31.365714605201138
10g9e7h,d,竹韵路258弄,121.44276406068785,31.36769664393321
10g9e7i,d,竹韵路259弄,121.44146574028986,31.36721382971324
10g9e7f,d,竹韵路58弄,121.44517379655863,31.364301855602484
10g9f0u,u,江南大道,121.73771689678193,31.368506894486273
10g9f0v,u,长凯路253号,121.73731802990761,31.373438365770223
10g9f02,k,安邬路188号,121.3975519459599,30.962221480342347
10g9f03,k,八字桥路288弄,121.46242859614492,30.937138563209114
10g9f04,k,大叶公路7188号,121.61083227271561,30.984669467884014
10g9f05,k,德丰路69弄,121.49164089281723,30.92611552156235
10g9f06,k,灯塔村,121.42461985571224,30.984941723722663
10g9f07,k,发展村,121.43188343438769,30.96582370946525
10g9f08,k,奉云路899弄,121.62420435762006,30.930368149299326
10g9f09,k,光钱路510-1号,121.50862472279138,30.90526430934141
10g9f0a,k,海兴路1501弄,121.58853246781275,30.86100261496317
10g9f0b,k,沪杭公路1758号,121.45134981384429,30.934402559328937
10g9f0c,k,化工路62弄,121.45263879100384,30.917433820447112
10g9f0d,k,汇中路126号,121.39965387213869,30.962176730249475
10g9f0e,k,集贤村,121.69650711485845,30.915572277289655
10g9f0f,k,金港村,121.4552628713717,30.97976867164491
10g9f0g,k,金齐路348弄,121.49254629497487,30.954152532220352
10g9f0h,k,金星村,121.52105319019039,30.992384668636934
10g9f0i,k,乐善村,121.57550305817588,30.97226198072209
10g9f0j,k,梁典村,121.59802268897776,30.963523094486884
10g9f0k,k,梅园村,121.59711670389474,30.990392696444307
10g9f0l,k,南渡村,121.45147849382037,30.999687218855605
10g9f0m,k,南奉公路7058号,121.4969514861454,30.922010763493144
10g9f0n,k,南奉公路8505号,121.48545297769576,30.916546339247976
10g9f0o,k,三团港村,121.72215538798316,30.883954429099475
10g9f0p,k,西闸公路1373弄,121.4386213977329,30.992103352045397
10g9f0q,k,小荡村,121.70384831345498,30.97742134010954
10g9f0r,k,岳和村,121.5698190003421,30.93100446779713
10g9f0s,k,展园路303弄,121.48255126831549,30.92607477986984
10g9f0t,k,资福村,121.60363114163047,30.966624821065665
10g9da7,9,宝安路160弄,121.48769794339897,31.264851883718386
10g9da8,9,宝安路7号,121.48807230608664,31.263004713447856
10g9da9,9,宝安支路49号,121.4884100976478,31.264665383591606
10g9daa,9,宝安支路79弄,121.48801665000693,31.26457071103444
10g9dab,9,宝山路571号,121.47815559566706,31.258997997505812
10g9dac,9,宝山路621号,121.47903119166772,31.25963663482671
10g9dad,9,宝山路625号,121.47963331976025,31.260232298555238
10g9dae,9,宝山路778号,121.47965814047241,31.26210205467355
10g9daf,9,保定路20弄,121.514563817008,31.255188171350156
10g9dag,9,保定路520弄,121.50705353230846,31.261259429628808
10g9dah,9,北宝兴路103弄,121.4665138822066,31.272494083756246
10g9dai,9,北苏州路400号,121.48340577459786,31.243250182758587
10g9dam,9,车站北路491弄,121.47424105813072,31.296090011118764
10g9dan,9,车站北路507弄,121.47355098309043,31.296653014050392
10g9dao,9,车站西路80弄,121.48345495512523,31.295972547329356
10g9dap,9,赤峰路626弄,121.48550986063897,31.28439691946154
10g9daq,9,川公路167弄,121.48079518831359,31.25613885328135
10g9dar,9,川公路176弄,121.4807738384457,31.255722096912773
10g9das,9,大连西路157号,121.49691775608214,31.27641661429895
10g9dat,9,大连西路201号,121.4941254186031,31.276038856977575
10g9dau,9,大连西路23号,121.49857855009061,31.27630142115943
10g9dav,9,大连西路261号,121.48742862372504,31.276287477346813
10g9daw,9,东宝兴路254弄,121.48093435446319,31.257840465813103
10g9dax,9,东宝兴路258弄,121.48217780150112,31.257371916861544
10g9day,9,东宝兴路272弄,121.48103533059025,31.25839169349831
10g9daz,9,东宝兴路312弄,121.4808190174586,31.258360534534738
10g9db0,9,东宝兴路334弄,121.4802396257303,31.26047024438055
10g9db1,9,东宝兴路667弄,121.47652643960569,31.261644440902813
10g9db2,9,东宝兴路753弄,121.47521383131196,31.262823108474468
10g9db3,9,东汉阳路338弄,121.49659106925711,31.251453331238714
10g9db4,9,东汉阳路440号,121.49705679213366,31.252081443018483
10g9db5,9,东江湾路570弄,121.48024061777909,31.273876820463848
10g9db6,9,东江湾路580弄,121.48013927492848,31.274080089283775
10g9db7,9,东体育会路100弄,121.48161386732893,31.27436320644651
10g9db8,9,东体育会路115弄,121.48236163782921,31.273931329300783
10g9db9,9,东体育会路119弄,121.4818932712423,31.27302105920518
10g9dba,9,东体育会路29号,121.48082161014293,31.274250580898904
10g9dbb,9,东长治路330号,121.4950254460337,31.248548579011604
10g9dbc,9,东长治路340弄,121.49544947477644,31.24891350430756
10g9dbd,9,多伦路165号,121.48147528458284,31.26315172664671
10g9dbe,9,多伦路201弄,121.48122301131485,31.263768229408615
10g9dbf,9,广联路29弄,121.47166914122646,31.267436466258815
10g9dbg,9,广灵二村,121.47865741146774,31.28576664213864
10g9dbh,9,广粤路287弄,121.46423934460414,31.28756083456044
10g9dbi,9,广粤路577弄,121.46701407775899,31.294147231873616
10g9dbj,9,广中二村,121.47859278196239,31.27862931358602
10g9dbk,9,广中路310弄,121.47418017807709,31.2781906631936
10g9dbl,9,广中路320号,121.47399771998427,31.278305708494216
10g9dbm,9,广中路368弄,121.47289557650856,31.278058565696256
10g9dbo,9,广中三村,121.47636055805941,31.278661882188242
10g9dbp,9,广中五村,121.47640998244204,31.27789431797755
10g9dbn,9,广中一村,121.47782066008634,31.27710748044678
10g9dbq,9,海伦路188弄,121.49333893460759,31.2575870716673
10g9dbr,9,海伦路555弄,121.48693363022457,31.258454021510854
10g9dbs,9,海门路609弄,121.499816160191,31.257206023611264
10g9dbt,9,海宁路358号,121.48562737064763,31.25082016119536
10g9dbu,9,恒业路115弄,121.4759890278469,31.26918331321037
10g9dbv,9,恒业路118弄,121.47632713951718,31.268723366158568
10g9dbw,9,恒业路387弄,121.47233056193608,31.26582475159635
10g9dbx,9,横浜路43号,121.48048797048577,31.262400372643818
10g9dby,9,衡水路89弄,121.48623340940615,31.254767994871504
10g9dbz,9,虹湾路55弄,121.47475994448986,31.31260178769245
10g9dc0,9,虹湾路86弄,121.47466034225504,31.313251121466298
10g9dc1,9,华昌路68弄,121.47854561112509,31.262261509501432
10g9dc2,9,华严路68弄,121.47437821913,31.30306149970809
10g9dc3,9,黄渡路103弄,121.48139657230433,31.26813100636929
10g9dc4,9,黄渡路105号,121.481493679625,31.268042840525332
10g9dc5,9,黄渡路109号,121.48174510741056,31.268099427663113
10g9dc6,9,黄渡路17弄,121.48111445046138,31.266197817267834
10g9dc7,9,惠民路117弄,121.511647200024,31.253182706326335
10g9dc8,9,吉祥路184弄,121.4849414970321,31.265650514713514
10g9dc9,9,江杨南路55弄,121.47008196117154,31.309526947105827
10g9dca,9,金属新村,121.47368716323305,31.276998988962514
10g9dcb,9,九龙路575号,121.4910369560338,31.253625214412306
10g9dcc,9,奎照路789弄,121.47036388991486,31.300623802711243
10g9dcd,9,昆山花园路1号,121.48546450996406,31.24889038258364
10g9dce,9,昆山花园路5号,121.48555896588864,31.248885290795265
10g9dcf,9,昆山花园路6号,121.48581929235229,31.248771757405176
10g9dcg,9,昆山花园路7号,121.48623932827617,31.24905785251299
10g9dch,9,昆山花园路9号,121.48609940226098,31.248898642284185
10g9dci,9,昆山路172弄,121.48740957399839,31.24973474239546
10g9dcj,9,凉城路1201弄,121.47002106496937,31.303324560660982
10g9dck,9,凉城路341弄,121.46950420548275,31.28050252250098
10g9dcl,9,凉城路585弄,121.47094623026601,31.29322029470034
10g9dcm,9,凉城路847弄,121.4704848678426,31.29945115919419
10g9dcn,9,临平北路89弄,121.49211585427257,31.264821507346596
10g9dco,9,临潼路303弄,121.51108801319009,31.255332101072362
10g9dcq,9,柳营路125号,121.46834524504482,31.271287916026658
10g9dcp,9,柳营路45弄,121.46918222581746,31.272393587695955
10g9dcr,9,罗浮路89弄,121.48138721822845,31.25250675800098
10g9dcs,9,旅顺路71弄,121.49584817619466,31.24841342724042
10g9dct,9,马厂路49弄,121.49564486432884,31.24802376149124
10g9dcu,9,密云路199弄,121.49561763596398,31.272327352248894
10g9dcv,9,闵行路181号,121.49163372006409,31.24654695991433
10g9dcw,9,闵行路201号,121.49137919063865,31.247117310517268
10g9dcx,9,欧阳花苑,121.49130707727691,31.272665198301063
10g9dcy,9,欧阳路568号,121.48631036403538,31.273721459393713
10g9dcz,9,蟠龙街26号,121.48701833409561,31.247785746433912
10g9dd0,9,曲阳路118弄,121.49452893543214,31.2713984401173
10g9dd1,9,曲阳路58弄,121.49394774571566,31.269778393457486
10g9dd2,9,曲阳路820弄,121.4914830018907,31.287580451900602
10g9dd3,9,瑞虹路16号,121.50041232614466,31.26613828255664
10g9dd4,9,山阴路165弄,121.48525950494076,31.26674450056423
10g9dd5,9,山阴路44弄,121.48469021769276,31.26490525889747
10g9dd6,9,商丘路250号,121.49700152410844,31.251017895091017
10g9dd7,9,商业一村,121.47635586248649,31.275531650309496
10g9dd8,9,水电路108弄,121.47204019363988,31.273247505735167
10g9dd9,9,水电路261弄,121.47606421502833,31.272808544714703
10g9dda,9,水电路300弄,121.47357170143438,31.27599497456651
10g9ddb,9,水电路541弄,121.47646306055061,31.28084051832425
10g9ddc,9,水电路609弄,121.47723315969549,31.2813952431027
10g9ddd,9,水电路818弄,121.47620211001589,31.28631579452384
10g9dde,9,四川北路1274号,121.48468844457743,31.250844526309706
10g9ddf,9,四川北路1457号,121.48308464141462,31.254037614158104
10g9ddg,9,四川北路1545弄,121.48191345075935,31.255734799199576
10g9ddh,9,四川北路1569弄,121.4831199051224,31.25609875223898
10g9ddi,9,四川北路1589弄,121.48315332350839,31.25642740741702
10g9ddj,9,四川北路1706弄,121.48297820362373,31.264541617446454
10g9ddk,9,四川北路1865弄,121.48303557788573,31.26427307101261
10g9ddl,9,四川北路1885号,121.4835761752899,31.261953263500917
10g9ddm,9,四川北路1906弄,121.48429839502018,31.261864481237335
10g9ddn,9,四川北路2285号,121.48102456927265,31.268616365049397
10g9ddo,9,四平路283号,121.48971191794799,31.263714534364837
10g9ddp,9,四平路621弄,121.49642740947486,31.27215629283736
10g9ddq,9,四平路721号,121.49719085494878,31.271437327668945
10g9ddr,9,四平路97弄,121.48761370196907,31.259739980661422
10g9dds,9,塘沽路308弄,121.48898941175129,31.24825650690178
10g9ddt,9,塘沽路326号,121.48908988899606,31.24824953139209
10g9ddu,9,塘沽路328号,121.48873377005333,31.248254181763677
10g9ddv,9,塘沽路330号,121.48896147414999,31.248294870601114
10g9ddw,9,塘沽路346号,121.4884212469632,31.248131867321327
10g9ddx,9,天宝路388弄,121.49838041897232,31.26695481414686
10g9ddy,9,天宝路466弄,121.49683740441886,31.26726763640966
10g9ddz,9,天宝西路241弄,121.49415924117626,31.27494882719154
10g9de0,9,天宝西路248弄,121.49283674358077,31.273740539920045
10g9de1,9,天宝西路4弄,121.49581153299043,31.27194512333925
10g9de2,9,天通庵路569号,121.47648045935946,31.26246652452732
10g9de3,9,天通庵路570号,121.47584481531909,31.26296980940461
10g9de4,9,天通庵路715号,121.477799903624,31.264577791644413
10g9de5,9,甜爱路128弄,121.48375272450076,31.268008356081495
10g9de6,9,同丰路666弄,121.46834532820401,31.272818709151966
10g9de7,9,同鸣路140弄,121.47799621848091,31.268525186254205
10g9de8,9,同心路116弄,121.4774484478523,31.2660307329103
10g9de9,9,同心路121弄,121.47771567772388,31.266814767543472
10g9dea,9,同心路125弄,121.47751203074964,31.267348154516764
10g9deb,9,同心路189弄,121.47710015132036,31.267159096489866
10g9dec,9,同心路209弄,121.47612223310753,31.267595069030566
10g9ded,9,同心路338弄,121.47430362996434,31.268148262591886
10g9dee,9,同心路41弄,121.47784340427543,31.26681945627717
10g9def,9,同心路589号,121.4733552550118,31.268919991919287
10g9deg,9,汶水东路650弄,121.47643240365556,31.288756502563214
10g9deh,9,梧州路289号,121.49321956866541,31.255821759514237
10g9dei,9,武昌路338号,121.48816732997987,31.247071865603253
10g9dej,9,西宝兴路949弄,121.46957014014332,31.26985878500029
10g9dek,9,西江湾路122号,121.47838924459258,31.266949043093
10g9del,9,西江湾路700弄,121.48056299705785,31.276185748924892
10g9dem,9,祥德路139弄,121.48655417610382,31.271544076954804
10g9den,9,新同心路285弄,121.46870995937404,31.27860716393575
10g9deo,9,幸福村,121.49746207067642,31.2735233321639
10g9dep,9,邮电新村,121.4943880390574,31.270584168916375
10g9deq,9,友谊二村,121.47925913082022,31.285346256110092
10g9der,9,友谊一村,121.47857325352871,31.284871145357037
10g9des,9,玉田路311弄,121.49406416202869,31.277615462732946
10g9det,9,运光新村,121.49411979338655,31.29313993662183
10g9deu,9,乍浦路313弄,121.48656573730561,31.249754079634776
10g9dev,9,乍浦路425号,121.48653033621058,31.251375283823304
10g9daj,9,长春路158号,121.48687462546121,31.26122850357711
10g9dak,9,长春路361号,121.48421716586812,31.26318418732691
10g9dal,9,长春路361号,121.48440000200598,31.263108460025112
10g9dew,9,中山北一路48号,121.47513231063868,31.269445705361736
10g9dex,9,周家嘴路753弄,121.50185057191406,31.259026349595228
10g9c8y,1,安仁街185号,121.4928970361274,31.22633879454071
10g9c8z,1,百翎路5号,121.49125051048136,31.226253859391214
10g9c90,1,半淞园路650号,121.49448996089342,31.198776259079082
10g9c91,1,北海路261号,121.47806029587085,31.230427207688354
10g9c92,1,北海路267弄,121.47831435703803,31.230160907057588
10g9c93,1,北京东路159号,121.48779864794426,31.240412325762936
10g9c94,1,北京东路288弄,121.48390082016324,31.24127564252199
10g9c95,1,北京东路316弄,121.48390889029402,31.241360746493555
10g9c96,1,北京东路360弄,121.48328381541427,31.24059274914576
10g9c97,1,曹家街33号,121.48644858528493,31.21916370185779
10g9c98,1,曹家街65号,121.486451886501,31.218598662961853
10g9c9f,1,打浦路316弄,121.47101291617732,31.200044015479985
10g9c9g,1,打浦路318号,121.47144097253765,31.19934656547523
10g9c9h,1,打浦路339弄,121.47222024910182,31.199801898738688
10g9c9i,1,打浦路457弄,121.47350219417264,31.197862791470296
10g9c9j,1,打浦路500弄,121.47304243159563,31.196154113964162
10g9c9k,1,打浦路80弄,121.46945351109336,31.203251930803837
10g9c9l,1,大沽路181号,121.4709748618992,31.22590482730498
10g9c9m,1,大沽路191号,121.47047600266625,31.225928397295394
10g9c9n,1,大吉路173弄,121.48410286868693,31.214133240301848
10g9c9o,1,大吉路270号,121.48226576785775,31.213036469102686
10g9c9p,1,大林路37号,121.48765954687987,31.213879813800713
10g9c9q,1,淡水路256弄,121.47286253614067,31.216764573689847
10g9c9r,1,淡水路266弄,121.47289884670347,31.21606857598437
10g9c9s,1,淡水路460弄,121.47397710609877,31.21104078826625
10g9c9t,1,淡水路89弄,121.47278754135597,31.22128624230369
10g9c9u,1,滇池路119号,121.48714940578178,31.23941196522203
10g9c9v,1,东江阴街184号,121.49719546692303,31.21395725762962
10g9c9w,1,东街167弄,121.49684369364547,31.222227741599166
10g9c9x,1,东台路279号,121.48259652204501,31.217449844396796
10g9c9y,1,多稼路218号,121.50105752459007,31.212340624359623
10g9c9z,1,方浜西路63弄,121.48270399453055,31.220379976386265
10g9ca0,1,方浜中路523号,121.48724873007663,31.224486134765712
10g9ca1,1,方浜中路63弄,121.49582469689614,31.22562570894279
10g9ca2,1,凤阳路358弄,121.4691321578535,31.233841703046
10g9ca3,1,福建南路33号,121.48399643281209,31.230266654431286
10g9ca4,1,福佑路427号,121.48834491548836,31.228238319356848
10g9ca5,1,福州路37号,121.48925082722636,31.2352986710157
10g9ca6,1,复兴东路248号,121.49970410691057,31.220554630599516
10g9ca7,1,复兴东路404弄,121.49676149098867,31.22126735296165
10g9ca8,1,复兴东路427弄,121.49706904485363,31.222017141804436
10g9ca9,1,复兴东路701弄,121.49102999982547,31.22281095911951
10g9caa,1,复兴中路553弄,121.46695178680498,31.214731599379554
10g9cab,1,复兴中路583弄,121.46572489138498,31.214613807934555
10g9cac,1,牯岭路145弄,121.47140287721398,31.235947404636306
10g9cad,1,牯岭路180号,121.47041329220731,31.236079825779587
10g9cae,1,光启路129号,121.49412892532385,31.22371098591467
10g9caf,1,光启路215号,121.4940784411303,31.22273203166755
10g9cag,1,广东路138号,121.48818217868227,31.233935077343045
10g9cah,1,广东路212号,121.486911314099,31.233044127840188
10g9cai,1,广东路306号,121.48549525479126,31.232632215323193
10g9caj,1,广东路339号,121.48471523142513,31.232485690042708
10g9cak,1,广东路652号,121.47924367692296,31.23131026520266
10g9cal,1,广西北路118弄,121.4788434002462,31.23141608215412
10g9cam,1,广西北路119弄,121.47875414235584,31.231300269582572
10g9can,1,广西北路128号,121.47866179441301,31.231786499882702
10g9cao,1,广西北路228弄,121.4786987017801,31.233185718211207
10g9cap,1,广西北路255弄,121.47718468900374,31.23375124844065
10g9caq,1,国货路135号,121.49646370712745,31.209114102888577
10g9car,1,海潮路133号,121.49802142058424,31.209401141292062
10g9cas,1,海潮路230弄,121.4975321359368,31.207920712241002
10g9cat,1,海潮路240弄,121.49705862544067,31.207754734046716
10g9cau,1,海潮路256弄,121.4969618794019,31.20732859287801
10g9cav,1,海潮路93弄,121.49955896420187,31.210654600341787
10g9caw,1,汉口路766号,121.4758803477095,31.23297556746113
10g9cax,1,合肥路199号,121.47695603411788,31.215048218789647
10g9cay,1,合肥路223弄,121.47627906800864,31.21443730677805
10g9caz,1,合肥路564号,121.47299977547759,31.214200830881126
10g9cb0,1,和顺街53弄,121.49658171993033,31.22067986132267
10g9cb1,1,河南南路398弄,121.48840433621642,31.222687011010695
10g9cb2,1,河南南路600弄,121.49053907439271,31.21977845679422
10g9cb3,1,河南南路790弄,121.49074901328646,31.2162634569643
10g9cb4,1,河南中路130号,121.48617517493138,31.23310836145076
10g9cb5,1,河南中路88号,121.48705660928482,31.23250683179539
10g9cb6,1,淮海东路89弄,121.48195504253026,31.22537500179695
10g9cb7,1,淮海中路358弄,121.47244399286451,31.222982553968958
10g9cb8,1,淮海中路494弄,121.46960677720956,31.221495863639515
10g9cb9,1,淮海中路526弄,121.46934393449185,31.22126551777922
10g9cba,1,淮海中路542弄,121.46871795709339,31.221217978078503
10g9cbb,1,淮海中路774号,121.463067425046,31.218515747258678
10g9cbc,1,淮海中路809号,121.46305867486151,31.218124404483348
10g9cbd,1,黄陂南路506弄,121.47609054088014,31.21817592554265
10g9cbe,1,黄陂南路783号,121.47755786228687,31.212294766505824
10g9cbf,1,黄家路55弄,121.49726408485897,31.215887631182333
10g9cbg,1,黄家路88弄,121.49595058465424,31.215490826334044
10g9cbh,1,黄家路99弄,121.49661612302138,31.216146476824193
10g9cbi,1,黄家阙路68弄,121.48748634227282,31.215125651232675
10g9cbj,1,徽宁路201弄,121.49266813134649,31.21146311491316
10g9cbk,1,徽宁路716号,121.48487485276584,31.207537740702808
10g9cbl,1,会稽路108号,121.48194393122849,31.222719435177027
10g9cbm,1,会稽路38弄,121.48207297335767,31.222887244118034
10g9cbn,1,建德路9号,121.46726219356121,31.20993350032593
10g9cbo,1,建国西路120弄,121.46507271736435,31.207874310073027
10g9cbp,1,建国西路144号,121.46411733019794,31.207435772978343
10g9cbq,1,建国西路76号,121.4654180217736,31.208019382803005
10g9cbr,1,建国西路78弄,121.46509962392656,31.207946415531957
10g9cbs,1,建国西路91弄,121.46541403613236,31.206742903897293
10g9cbt,1,建国中路26号,121.46779991147183,31.20910604034772
10g9cbu,1,江西中路114号,121.48786012285241,31.23350560763967
10g9cbv,1,江西中路128号,121.48773818877582,31.234023650793482
10g9cbw,1,江西中路135弄,121.48676619689391,31.23367316776359
10g9cbx,1,江西中路374号,121.48598797614508,31.240097679828096
10g9cby,1,江西中路406号,121.48538094797019,31.240783587407766
10g9cbz,1,江西中路452号,121.4851378505702,31.24180509397869
10g9cc0,1,江西中路460弄,121.48574597848416,31.242188742093767
10g9cc1,1,江西中路467号,121.48479001733074,31.242042720230494
10g9cc2,1,江西中路481号,121.48490567720877,31.242420519964
10g9cc3,1,金陵东路111号,121.48975315290342,31.230987405459405
10g9cc4,1,金陵东路531号,121.48156141541267,31.227272428072116
10g9cc5,1,金坛路35弄,121.49823509075861,31.219606712978393
10g9cc6,1,进贤路135号,121.46026898942243,31.221450320030023
10g9cc7,1,进贤路138弄,121.45946683953814,31.221819360681753
10g9cc8,1,净土街62号,121.49196718220556,31.219086033877556
10g9cc9,1,静修路104弄,121.48675910171622,31.21952799077113
10g9cca,1,局门路241弄,121.48025925627356,31.207866315859796
10g9ccb,1,局门路365号,121.4820429476495,31.203935308782615
10g9ccc,1,局门路405弄,121.48263315608826,31.203940930186132
10g9ccd,1,局门路434弄,121.48117000120078,31.202670103969904
10g9cce,1,巨鹿路17号,121.46878140514552,31.223383267974164
10g9ccf,1,巨鹿路1号,121.46937199658011,31.223322511980534
10g9ccg,1,聚奎新村,121.49607745715811,31.223339224773135
10g9cch,1,丽园路333弄,121.4834726898344,31.20977490180331
10g9cci,1,丽园路43弄,121.48915230170036,31.211492160926785
10g9ccj,1,丽园路842弄,121.47617394287781,31.205735486565562
10g9cck,1,灵济街58号,121.49520905043757,31.22112686824133
10g9ccl,1,龙华东路522号,121.4802650343068,31.194582334855838
10g9ccm,1,鲁班路168弄,121.47290106475604,31.20477354466733
10g9ccn,1,鲁班路412号,121.47539170333289,31.200443323046436
10g9cco,1,鲁班路738弄,121.47761767941564,31.19424378164546
10g9ccp,1,鲁班路88弄,121.47291061416921,31.20709402672566
10g9ccq,1,陆家浜路1018弄,121.48914367752387,31.21196171049655
10g9ccr,1,陆家浜路1100号,121.48685604992903,31.211764756279965
10g9ccs,1,陆家浜路413弄,121.49956167663613,31.212557701537623
10g9cct,1,陆家浜路804弄,121.49279807634414,31.21185929906153
10g9ccu,1,陆家浜路961弄,121.48968103614833,31.21285841486838
10g9ccv,1,陆家浜路976号,121.49010008126506,31.21187759940296
10g9ccw,1,陆家宅路91弄,121.49578514207248,31.224407859368277
10g9ccx,1,马当路528号,121.47552192674202,31.211361864270252
10g9ccy,1,茂名南路58号,121.46003184838767,31.220038619717418
10g9ccz,1,蒙自路380弄,121.4787694734237,31.20306163194674
10g9cd0,1,蒙自西路2号,121.47644019760003,31.2076733918795
10g9cd1,1,梦花街163弄,121.48648360041982,31.218816807369024
10g9cd2,1,南昌路178弄,121.46637727806139,31.218473073854277
10g9cd3,1,南昌路272弄,121.46356675317128,31.217605094446366
10g9cd4,1,南昌路95号,121.46458345685632,31.217686234693797
10g9cd5,1,南车站路20弄,121.48989092989248,31.212011812152795
10g9cd6,1,南车站路30弄,121.48971355731433,31.21195088879949
10g9cd7,1,南京东路199号,121.48580015843321,31.23766559370954
10g9cd8,1,南塘浜路93弄,121.47407401453027,31.20424475084999
10g9cd9,1,宁波路219号,121.48306289181333,31.239139168702742
10g9cda,1,宁波路284弄,121.48175345584525,31.23895570417618
10g9cdb,1,牛庄路692号,121.47685871222977,31.23749474163049
10g9cdc,1,牌楼路41弄,121.48691460189224,31.21385761786476
10g9cdd,1,平望街36弄,121.47910085485289,31.23179528300647
10g9cde,1,普育东路101弄,121.49605297675822,31.20985153639633
10g9cdf,1,普育东路115号,121.49632447089695,31.209436274981655
10g9cdg,1,普育西路112弄,121.49371418999614,31.210712076368296
10g9cdh,1,普育西支路100号,121.4923103471545,31.2118650679047
10g9cdi,1,普育西支路77号,121.49237576850481,31.212354072938847
10g9cdj,1,瞿溪路1003弄,121.47706935076441,31.199842391419374
10g9cdk,1,瞿溪路110号,121.49609694059733,31.20717370971308
10g9cdl,1,瞿溪路1111弄,121.47412757211484,31.20048795848328
10g9cdm,1,瞿溪路112号,121.49535777131493,31.20695294406827
10g9cdn,1,瞿溪路1145弄,121.47275820915866,31.199219910546663
10g9cdo,1,瞿溪路117号,121.49486615449365,31.20693469515678
10g9cdp,1,瞿溪路1200弄,121.47278344322594,31.197246408370884
10g9cdq,1,瞿溪路120弄,121.49535787529882,31.206682527004432
10g9cdr,1,瞿溪路1240弄,121.47063543166743,31.197167088858116
10g9cds,1,瞿溪路126号,121.49430895422707,31.206290106251892
10g9cdt,1,瞿溪路132号,121.49372080101416,31.205872994559133
10g9cdu,1,瞿溪路562号,121.48658833941369,31.201768909669788
10g9cdv,1,瞿溪路883弄,121.4785698555648,31.201561952487477
10g9cdw,1,瞿溪路889号,121.47907598566599,31.20039923985055
10g9cdx,1,人民路777弄,121.48485884888345,31.22723775309094
10g9cdy,1,人民路875号,121.48377881859209,31.226677400324874
10g9cdz,1,汝南街72号,121.48421433592706,31.20283065809759
10g9ce0,1,瑞金二路204号,121.46628501673406,31.208505683460775
10g9ce1,1,瑞金二路378号,121.46679113201843,31.20686799792825
10g9ce2,1,瑞金二路410弄,121.4656930743248,31.206993149304466
10g9ce3,1,瑞金南路185弄,121.46899385378116,31.20043862056726
10g9ce4,1,瑞金南路333弄,121.46947616596958,31.198709974121666
10g9ce5,1,瑞金一路126弄,121.46350728402713,31.219552398981488
10g9ce6,1,山东北路83号,121.48227311340385,31.240119707877895
10g9ce7,1,山西南路31弄,121.48336586322093,31.234819498450804
10g9ce8,1,陕西南路15号,121.45724933457457,31.22165657188957
10g9ce9,1,陕西南路271弄,121.46413640712647,31.208214402809997
10g9cea,1,陕西南路582弄,121.46109239139949,31.207148077984048
10g9ceb,1,绍兴路18弄,121.46543957041612,31.210516977377367
10g9cec,1,绍兴路19号,121.46383627528743,31.20925944557455
10g9ced,1,绍兴路40号,121.46487935781973,31.210106607880903
10g9cee,1,绍兴路52号,121.46437408435628,31.209574700576336
10g9cef,1,绍兴路60号,121.46368736970308,31.20952154523221
10g9ceg,1,盛泽路80弄,121.48475861823016,31.229415690503217
10g9ceh,1,寿宁路10弄,121.48230837468152,31.22449630261702
10g9cei,1,寿宁路98号,121.48062074392953,31.22403928291258
10g9cej,1,顺昌路202号,121.47772629267436,31.216632208923226
10g9cek,1,顺昌路612弄43号,121.47913449133361,31.211343567169845
10g9cel,1,思南路88弄,121.4707393476322,31.208766042575203
10g9cem,1,思南路97号,121.46979411475907,31.210871961762095
10g9cen,1,四川中路126弄,121.48963292740305,31.23458379396415
10g9ceo,1,四川中路630号,121.48611119891657,31.242691492830552
10g9cep,1,四牌楼路104号,121.49516579974534,31.223624543278838
10g9ceq,1,四牌楼路113号,121.49509784877762,31.223810478040896
10g9cer,1,四牌楼路116号,121.49513830577784,31.223570438157843
10g9ces,1,四牌楼路117号,121.49544248895576,31.223534957564343
10g9cet,1,四牌楼路123号,121.49539452034034,31.223236127667775
10g9ceu,1,四牌楼路149号,121.4957200592483,31.222851721003764
10g9cev,1,泗泾路36号,121.48625753457385,31.23345782328765
10g9cew,1,泰康路10弄,121.47162107595085,31.208273483939
10g9cex,1,泰康路190弄,121.46978584924378,31.20797045114857
10g9cey,1,泰康路274弄,121.46814079920638,31.207818361162772
10g9cez,1,天津路110弄,121.48384502732989,31.238967167035174
10g9cf0,1,天津路179弄,121.48288536756203,31.23787097280366
10g9cf1,1,天津路44弄,121.48520355663919,31.239111084945165
10g9cf2,1,铁道路776弄,121.47551764722395,31.196174529671193
10g9cf3,1,外咸瓜街38号,121.49859970011374,31.224358220027664
10g9cf4,1,威海路12弄,121.47046562264195,31.229236025182637
10g9cf5,1,文昌路8号,121.49174924195209,31.226226903067776
10g9cf6,1,西仓桥街110号,121.48997627249715,31.22020169170181
10g9cf7,1,西仓桥街112弄,121.48960973398712,31.22020497744069
10g9cf8,1,西藏南路1090弄,121.4859246484403,31.211473248938233
10g9cf9,1,西藏南路1107号,121.48705530763415,31.211633051919467
10g9cfa,1,西藏南路555弄,121.48363952039381,31.219978728981605
10g9cfb,1,西藏南路569号,121.48278357119563,31.21966239417357
10g9cfc,1,西藏南路688弄,121.48309610454235,31.216590277065812
10g9cfd,1,西藏南路748号,121.48395377936238,31.216017586568817
10g9cfe,1,西藏南路900弄,121.48453741430907,31.213367553991652
10g9cff,1,西藏中路200号,121.4765137066895,31.23141603983656
10g9cfg,1,西姚家弄21弄,121.49705954179825,31.22392648243134
10g9cfh,1,西姚家弄52号,121.4958372126238,31.222710845574568
10g9cfi,1,西姚家弄53号,121.49591041039511,31.222553416430063
10g9cfj,1,斜土东路333弄,121.48506150316005,31.20754625517854
10g9cfk,1,斜土路102号,121.4830647657714,31.20627714698396
10g9cfl,1,斜土路520号,121.47653899099701,31.203101006800303
10g9cfm,1,斜土路556弄,121.47598525950222,31.20245750747594
10g9cfn,1,新昌路115弄,121.46916187256306,31.232884153652638
10g9cfo,1,徐家汇路135弄,121.47844952547558,31.208460358039382
10g9cfp,1,徐家汇路1弄,121.48182432519697,31.210192209553764
10g9cfq,1,徐家汇路268号,121.47717063901362,31.210259071592954
10g9cfr,1,徐家汇路396号,121.47362749685463,31.209274146369854
10g9cfs,1,徐家汇路515弄,121.4753787862827,31.20865612507599
10g9cft,1,徐家汇路536弄,121.47285857886465,31.20291643245979
10g9cfu,1,薛家浜路242弄,121.50181871113102,31.210810414889504
10g9cfv,1,学前街100号,121.4893291383375,31.215825134560326
10g9cfw,1,学院路121弄,121.49517835661051,31.223247949924474
10g9cfx,1,学院路135号,121.49439737445381,31.223356360742798
10g9cfy,1,学院路137号,121.49450113134628,31.22328806695284
10g9cfz,1,学院路72号,121.49581869048212,31.223154069754855
10g9cg0,1,学院路79弄,121.4960260138333,31.22375141182133
10g9cg1,1,延安东路172号,121.48891072870359,31.23199871238451
10g9cg2,1,延安东路385号,121.48053186456886,31.229451387872796
10g9cg3,1,延安中路529弄,121.4600565334803,31.223447089183527
10g9cg4,1,延安中路535弄,121.45996318618037,31.22337568384002
10g9cg5,1,也是园弄32号,121.49321941988042,31.21660837898359
10g9cg6,1,迎勋北路8弄,121.48963893845658,31.216924035180615
10g9cg7,1,永安路14号,121.49161497822614,31.230380784731235
10g9cg8,1,永嘉路19弄,121.46437386133329,31.211155892766346
10g9cg9,1,永年路117号,121.47950348275177,31.211925431425403
10g9cga,1,永寿路50号,121.48116203126796,31.229602691267683
10g9cgb,1,永泰街12号,121.49749001713643,31.216354712055736
10g9c99,1,长乐路272弄,121.46541797903535,31.22164201038754
10g9cgc,1,肇周路332弄,121.48112100738027,31.213540031590778
10g9cgd,1,肇周路98号,121.48217438316311,31.21686097162962
10g9cge,1,浙江中路109弄,121.48045209784041,31.232631888455753
10g9cgf,1,制造局路361号,121.4853014722716,31.206523032538076
10g9cgg,1,制造局路365弄2号,121.48478882529503,31.20628395937267
10g9cgh,1,制造局路500弄,121.48552203896395,31.198842746990838
10g9cgi,1,制造局路567弄,121.48660577523829,31.203608692294143
10g9cgj,1,制造局路646弄,121.484980770082,31.20211442516918
10g9cgk,1,制造局路833弄10号,121.48665345987067,31.19924894822522
10g9cgl,1,中华路1300弄,121.48652351264448,31.216581698924866
10g9cgm,1,中华路1409号,121.48596721858438,31.217915278523687
10g9cgn,1,中华路518弄,121.49877943332021,31.21791825250529
10g9cgo,1,中华路868弄,121.49506245729302,31.214629140842028
10g9cgp,1,中山东二路521号,121.49608684813332,31.22909568190488
10g9cgq,1,中山南路1586弄,121.49496426789655,31.205311712266457
10g9cgr,1,中山南路1671号,121.4947550207887,31.204604327646187
10g9cgs,1,中山南路1724号,121.49329252873936,31.20422775079895
10g9cgt,1,中山南路36号,121.49978321438076,31.224204295387167
10g9cgu,1,中山南一路1020弄,121.47263417185697,31.195550135820348
10g9cgv,1,中山南一路1042号,121.47078504756405,31.19474617753811
10g9cgw,1,中山南一路1065号,121.47204674024529,31.19600225664413
10g9cgx,1,中山南一路904号,121.47561173662729,31.196410066768724
10g9c9a,1,重庆北路177弄,121.46905096799233,31.226119135306735
10g9c9b,1,重庆北路318号,121.46910092194813,31.228528349238086
10g9c9c,1,重庆南路169弄,121.47249158998792,31.217044231792677
10g9c9d,1,重庆南路283号,121.473298273094,31.20935925653445
10g9c9e,1,重庆南路298弄,121.47081075192395,31.2108977863152
10g9cgy,1,昼锦路180弄,121.49084593619035,31.223302494135666
10g9em5,e,宝安公路2466弄,121.32681728923086,31.348289545442885
10g9em6,e,宝安公路3525弄,121.27684194018445,31.32853784707902
10g9em7,e,宝安公路3705号,121.26905082302628,31.324298882893153
10g9em8,e,宝安公路3799号,121.26329661385157,31.323278073384998
10g9em9,e,宝翔路560弄,121.32244723014608,31.3093853777226
10g9ema,e,宝翔路小学工地,121.26555967589479,31.345836128558698
10g9emb,e,北和公路1650号,121.17914776929138,31.42476046836613
10g9emc,e,博园路888号,121.20546307023292,31.264330806283965
10g9emd,e,曹安公路1525号,121.36962935837529,31.251490814054943
10g9eme,e,曹安公路1685号,121.36564191001001,31.252363920178606
10g9emf,e,曹安公路1775号,121.36361534383308,31.252520662576426
10g9emk,e,曹安公路1798号,121.36304793611784,31.25484027957818
10g9emg,e,曹安公路1991号,121.21503722400362,31.27375473127534
10g9emh,e,曹安公路2031号,121.34873847477878,31.257725498051144
10g9emi,e,曹安公路2388号,121.3396969805991,31.261934037112482
10g9emj,e,曹安公路2742号,121.328149402011,31.263887869295043
10g9eml,e,曹南路12弄,121.35264673605226,31.259980236454126
10g9emm,e,曹王村,121.30603158893578,31.44031418008702
10g9emn,e,槎溪路833弄,121.3197589497359,31.290348947189646
10g9emo,e,昌翔路288号,121.33310804516303,31.315183929802767
10g9emp,e,陈村村,121.32600611789665,31.35716238886737
10g9emq,e,陈家山路388弄,121.23962046637384,31.391385166600593
10g9emr,e,春归路258号,121.24637211909764,31.285863106356143
10g9ems,e,慈竹路176弄,121.21881933554207,31.37030665328291
10g9emt,e,慈竹路69弄,121.21882876769638,31.368086389091363
10g9emu,e,大宏村,121.31858700443382,31.36984026651707
10g9emv,e,大石皮村,121.25562003723634,31.41919614264383
10g9emw,e,大裕村,121.31614999555448,31.381287184893033
10g9emx,e,德华路226弄,121.31487197399576,31.295869427550056
10g9emy,e,德园路1055弄,121.30342321807684,31.30540061174015
10g9emz,e,德园路1259弄,121.30057794756941,31.308153340729202
10g9en0,e,樊家村,121.29192082366924,31.340845835269413
10g9en1,e,丰翔路3055弄,121.32715190411909,31.299577606317968
10g9en2,e,丰庄北路5弄,121.35511500078083,31.2496349633594
10g9en3,e,丰庄路399弄,121.3638258836464,31.248835631071245
10g9en4,e,丰庄西路551弄,121.35555064943243,31.248105832160437
10g9en5,e,丰庄西路558弄,121.35850981076128,31.246801105813084
10g9en6,e,封周路885弄,121.26337605984848,31.327600420706094
10g9en7,e,海波路1000弄,121.32997300236208,31.269901443523402
10g9en8,e,海波路1308号,121.31371901763919,31.27150622671358
10g9en9,e,海波路358号,121.33878585780731,31.26719725825907
10g9ena,e,和桥村,121.32927396635564,31.41696741758942
10g9enb,e,红光村,121.29726959820307,31.271652996521514
10g9enc,e,红翔村,121.30587667277916,31.287534832278702
10g9end,e,沪宜公路1866弄,121.29253210334133,31.322756857553706
10g9ene,e,花园新村,121.21513249783325,31.316917386677634
10g9enf,e,环城路160弄,121.25542459997509,31.394430453886308
10g9eng,e,火车站路118弄,121.30667679945267,31.28579177171918
10g9enh,e,火车站路308号,121.30542473566993,31.281532264685733
10g9eni,e,火车站路318号,121.30457624707142,31.282693676749044
10g9enj,e,嘉罗公路2078号,121.29507182127246,31.402475774036557
10g9enk,e,嘉美路1398号,121.26747478680552,31.29770786327162
10g9enl,e,嘉新公路1415号,121.28822493137922,31.33881949833142
10g9enm,e,嘉涌路88弄,121.33704329412284,31.269101699279577
10g9enn,e,嘉峪关路280弄,121.31857618174429,31.27058986320886
10g9eno,e,金鼎路2388弄,121.36300809957535,31.259277016980015
10g9enp,e,金鼎路2588弄,121.35977373146105,31.26082811067124
10g9enq,e,金润路478弄,121.33116195764065,31.291912555968505
10g9enr,e,金沙江支路200号,121.35211308299262,31.24139934478431
10g9ens,e,金通路1737弄,121.32301845549789,31.285042054469958
10g9ent,e,金耀南路80弄,121.31131789751113,31.234196893650587
10g9enu,e,金园一路1115弄,121.31950846787554,31.24464351315269
10g9env,e,科盛路1065号,121.32647296357678,31.344833800462315
10g9enw,e,李家村,121.2343967349972,31.26000019987069
10g9enx,e,李园二村,121.25022067440631,31.388914320722613
10g9eny,e,联西村,121.25111291840452,31.272056934786377
10g9enz,e,临洮路1000弄,121.33473174332106,31.267241095090547
10g9eo1,e,临夏路1000弄,121.32240458321535,31.26043553271346
10g9eo0,e,临夏路999弄,121.3226081349534,31.257807580983748
10g9eo2,e,浏翔村,121.32074813812928,31.32266341875019
10g9eo4,e,浏翔公路1478号,121.3238690220692,31.31618805802148
10g9eo3,e,浏翔公路306号,121.2827926877372,31.471067399809947
10g9eo5,e,绿苑路576号,121.2116493533485,31.279780235070447
10g9eo6,e,绿苑支路85号,121.21309007267533,31.26739681935688
10g9eo7,e,马陆街248弄,121.28256227262507,31.33494475033419
10g9eo8,e,民主街32弄,121.3128900181185,31.291820516086734
10g9eo9,e,墨玉路164弄,121.15970917019654,31.29819087637198
10g9eoa,e,南安路188号工地,121.16363207315328,31.286624445495406
10g9eob,e,南辅路8号,121.29827383826888,31.28231532424522
10g9eoc,e,泥岗村,121.20126220830265,31.26255698921897
10g9eod,e,年丰村,121.27258554635655,31.258404617917815
10g9eoe,e,彭赵村,121.28427686705912,31.34684474576917
10g9eof,e,曲江路99弄,121.34772500525601,31.254543053765396
10g9eog,e,沙霞路85弄,121.25389772422427,31.379281973707407
10g9eoh,e,墅沟路550弄,121.2682016801615,31.37891447224184
10g9eoi,e,塔城路450弄,121.2456780983911,31.37989253192225
10g9eoj,e,铜川路2395弄,121.37122347754682,31.254412201634533
10g9eok,e,铜川路2655弄,121.36580830909928,31.255312628370607
10g9eol,e,外青松公路164弄,121.17359865474936,31.359509848951962
10g9eom,e,温宿路61弄,121.2465128775654,31.386603603626146
10g9eon,e,吴杨路135弄,121.29681287694274,31.26777955088115
10g9eoo,e,五四村,121.32675819714,31.24971216712757
10g9eop,e,武威路2909弄,121.32388409664375,31.280220538832673
10g9eoq,e,先农村,121.32492205020753,31.26369814252267
10g9eor,e,翔方公路801弄,121.25003180355186,31.305937033208046
10g9eos,e,翔封路57号,121.29500543942225,31.269713873649692
10g9eot,e,翔封路68号,121.29500387494147,31.26967447653209
10g9eou,e,翔黄公路580号,121.29622907178282,31.271864180468228
10g9eov,e,翔江公路3588号,121.274072492507,31.256652619478814
10g9eow,e,新丰村,121.30197062820942,31.3205470263943
10g9eox,e,新江村,121.27204046610098,31.264960646891943
10g9eoy,e,新郁路846弄,121.36373323564108,31.25223890505363
10g9eoz,e,星华公路1945号,121.29089185405597,31.27211556188327
10g9ep0,e,兴顺路555号,121.1910552790075,31.443802254372002
10g9ep1,e,依玛路389弄,121.2482272435843,31.354246491772606
10g9ep2,e,迎园十坊,121.26336178327176,31.38547869802239
10g9ep3,e,永乐村,121.29206304482332,31.293322246730032
10g9ep4,e,永盛路1200弄33号,121.25606308711086,31.347296355105183
10g9ep5,e,蕴北路1755弄,121.33230762256264,31.323996893539217
10g9ep6,e,蕴北路2221弄,121.32088610939773,31.32257291847793
10g9ep7,e,蕴北路2281弄,121.31619577724925,31.322432029187304
10g9ep8,e,增建村,121.29030455148319,31.242235226169623
10g9ep9,e,长泾村,121.16345712759835,31.34398046436321
10g9epa,e,招贤路767号,121.24186734003058,31.35864999608644
10g9epb,e,众仁南路79弄,121.33103943073063,31.279767545109657
10g9epc,g,城中路38弄,121.16435354442307,30.895052566282367
10g9epd,g,枫阳新村,121.01914847881585,30.893164656108528
10g9epe,g,红旗新村,121.15739399432631,30.894949297369372
10g9epf,g,开乐街218号,121.34057340646396,30.8496796324433
10g9epg,g,老卫清路3178号,121.31050340511663,30.72436630454504
10g9eph,g,龙航路1508号,121.32911092301673,30.7567877974062
10g9epi,g,龙皓路1738弄,121.32393501394095,30.749589250116816
10g9epj,g,农建村,121.31419227994479,30.752369166320765
10g9epk,g,亭卫南路399弄,121.36640916010441,30.732715176258857
10g9epl,g,同凯路40弄,121.36546248190811,30.731075784222018
10g9epm,g,月工路888号,121.34655612860253,30.808583285912164
10g9epn,g,志伟路808号,121.31040065024642,30.835822361910054
10g9cgz,6,安远路777弄,121.43489055807596,31.234950401571208
10g9ch0,6,宝昌路788弄,121.46919793330758,31.265361637162414
10g9ch1,6,宝山路499弄,121.47813916647092,31.257831425261728
10g9ch2,6,宝通路389号,121.47629338069491,31.259074802330183
10g9ch3,6,宝通路416弄,121.47558388076152,31.258904497165908
10g9ch4,6,宝源路145号,121.47923824620935,31.255923949732118
10g9ch5,6,宝源路149号,121.4794291103086,31.256265050278326
10g9ch6,6,保德路1213弄,121.44269756660808,31.312965691817634
10g9ch7,6,保德路1316弄,121.44228829555293,31.31480816723978
10g9ch8,6,保德路241弄,121.4635561213755,31.31750092820728
10g9ch9,6,保德路425弄,121.4591794478314,31.31694597431165
10g9cha,6,保德路429号,121.45891091210551,31.317106735756653
10g9chb,6,保德路831弄,121.4516619672876,31.31474337462736
10g9chc,6,北宝兴路10弄,121.46719568822307,31.27058535204779
10g9chd,6,北京西路1345号,121.44985143766966,31.228428401044457
10g9che,6,北京西路968号,121.45661941105867,31.231035299262665
10g9chk,6,昌化路410弄,121.45064667312603,31.23864491593881
10g9chl,6,昌化路453弄,121.45009118042853,31.238839849983567
10g9chm,6,昌平路88弄,121.4523690218238,31.239056452400575
10g9chn,6,场中路1909弄,121.45854043542191,31.3059759425967
10g9cho,6,场中路2351弄,121.44746812897861,31.307259891135864
10g9chp,6,场中路2380弄,121.44500606140878,31.304609189254908
10g9chq,6,场中路2401弄,121.44422163469537,31.30698698923331
10g9chr,6,场中路2600弄,121.44109509495367,31.307579363894593
10g9chs,6,场中路2601弄,121.44083125998827,31.305175162131622
10g9cht,6,场中路2765弄,121.4391196494865,31.305424938247082
10g9chu,6,场中路2800弄,121.44081776112674,31.303556780828163
10g9chv,6,场中路2950弄,121.43822819164471,31.302975245833622
10g9chw,6,场中路3300弄,121.46377571841852,31.261477518740282
10g9chx,6,场中路3386弄,121.42774359436113,31.3028564274478
10g9chy,6,陈家宅路56号,121.46506218713242,31.264295860296034
10g9chz,6,成都北路337号,121.4665658237649,31.228664996768178
10g9ci0,6,大沽路368弄,121.46679392480067,31.22596882818096
10g9ci1,6,大宁路540弄,121.4501648586568,31.272600256871645
10g9ci2,6,大宁路883弄,121.4419551509173,31.271270125944092
10g9ci3,6,大统路933弄,121.45965275300709,31.254864629740442
10g9ci4,6,大统路938弄,121.4590110073159,31.255563108334048
10g9ci5,6,汾西路260弄,121.46306285570321,31.31477501376919
10g9ci6,6,汾西路825号,121.4504142272843,31.313221490844043
10g9ci7,6,汾西路87弄,121.46640503840568,31.313294984383763
10g9ci8,6,汾西路88弄,121.46792175717259,31.315158204899447
10g9ci9,6,高平路811号,121.4275932142118,31.291222751076543
10g9cia,6,高平路889弄,121.42766327047738,31.2873696342548
10g9cib,6,高平路999弄,121.42780881333402,31.287324795480934
10g9cic,6,共和新路1725弄,121.45649024424607,31.270977652806717
10g9cid,6,共和新路3650弄,121.44839562493739,31.303944350461123
10g9cie,6,共和新路555弄,121.46325792745577,31.25300766838224
10g9cif,6,共和新路710弄,121.4616393191496,31.255330805295777
10g9cig,6,广中西路818弄,121.4351693204119,31.273753471077125
10g9cih,6,广中西路99弄,121.45010427895882,31.280073936899473
10g9cii,6,海防路100弄,121.44872375843205,31.24058208759137
10g9cij,6,和田路229弄,121.46209874149345,31.26522945799403
10g9cik,6,和田路300号,121.46270098202316,31.265893710663214
10g9cil,6,恒丰路318弄,121.45480457324526,31.24195143555354
10g9cim,6,鸿兴路42号,121.47579290195392,31.25476237617878
10g9cin,6,沪太路1051弄,121.42898846114174,31.276855199838486
10g9cio,6,沪太路1170弄,121.42631861293937,31.276804505447778
10g9cip,6,沪太路1188弄,121.42579193906245,31.277519549133732
10g9ciq,6,沪太路1228号,121.4252675294053,31.278719475500036
10g9cir,6,沪太路909弄,121.43369691914262,31.272457791219338
10g9cis,6,沪太路935弄,121.4320815143272,31.273859564519086
10g9cit,6,沪太路941弄,121.43118926287802,31.274450432944978
10g9ciu,6,沪太支路668弄,121.42263777995676,31.292789069529096
10g9civ,6,江场西路1288号,121.42730106174255,31.2963789620557
10g9ciw,6,江场西路277号,121.44312728053193,31.297443581390233
10g9cix,6,江场西路299弄,121.44226319740804,31.296793575311046
10g9ciy,6,江宁路936弄,121.44659702414702,31.24142734572626
10g9ciz,6,江杨南路466弄,121.46790021300731,31.316732662247585
10g9cj0,6,胶州路649号,121.44006810738296,31.23433441543121
10g9cj1,6,胶州路699号,121.4397757856006,31.234923369343836
10g9cj2,6,晋元路88弄,121.4702843060567,31.241020112527792
10g9cj3,6,景凤路280弄,121.46177479383375,31.32061054357396
10g9cj4,6,景凤路380弄,121.46066912850692,31.32030150226207
10g9cj5,6,康定东路33弄,121.45719717044531,31.23696971265777
10g9cj6,6,康定路297弄,121.4505628716794,31.23480167175169
10g9cj7,6,康定路947号,121.43894921015762,31.230659386940903
10g9cj8,6,康定路950弄,121.43856801597704,31.231261759755082
10g9cj9,6,康定路991号,121.43805735837186,31.23072938554125
10g9cja,6,老沪太路230号,121.44828664918312,31.270058006670755
10g9cjb,6,临汾路1105弄,121.44405974168112,31.309367064175888
10g9cjc,6,临汾路1244弄,121.4426747045475,31.311495974357342
10g9cjd,6,临汾路1513弄,121.43866305278574,31.307852094991276
10g9cje,6,临汾路1515弄,121.43805827089882,31.30657383424872
10g9cjf,6,临汾路1564弄,121.4368989052028,31.312001512771978
10g9cjg,6,临汾路1565弄,121.43753554884563,31.309504934416868
10g9cjh,6,临汾路80弄,121.46595937765308,31.31193521284633
10g9cji,6,临汾路850弄,121.450453151539,31.31113979612088
10g9cjj,6,灵石路733弄,121.43917863685176,31.28374562683214
10g9cjk,6,灵石路737弄,121.4386207260565,31.285051855681942
10g9cjl,6,灵石路963弄,121.43078848375906,31.27755783021673
10g9cjm,6,岭南路100弄,121.45581999622246,31.307097461651725
10g9cjn,6,岭南路539弄,121.45507358942591,31.31417015109433
10g9cjo,6,柳营路1025弄,121.45036011647801,31.261868811731787
10g9cjp,6,柳营路309弄,121.4641100272405,31.26866233978027
10g9cjq,6,柳营路319弄,121.4629330250243,31.267872605642232
10g9cjr,6,柳营路669弄,121.45551163788318,31.265433306347894
10g9cjs,6,柳营路768弄,121.4559982812421,31.262880543636403
10g9cjt,6,陆丰路2号,121.47551960528935,31.259002889011125
10g9cju,6,洛川东路140弄,121.46493968466127,31.271584988819527
10g9cjv,6,洛川东路161号,121.46461966671843,31.27199441261441
10g9cjw,6,洛川东路220号,121.46410279477223,31.2710811065053
10g9cjx,6,洛川中路600弄,121.4565665400677,31.26715794524361
10g9cjy,6,洛川中路836号,121.4522835397864,31.265873826804363
10g9cjz,6,洛川中路901弄,121.45006550315001,31.265196996798846
10g9ck0,6,洛川中路952弄,121.45032834743452,31.264785861428845
10g9ck1,6,南京西路1081弄,121.45706345954336,31.228212472733205
10g9ck2,6,南京西路587号,121.4660613451708,31.230594047788404
10g9ck3,6,南京西路591弄,121.4660661737253,31.23045833973373
10g9ck4,6,南京西路612弄,121.46563329445092,31.23140094529066
10g9ck5,6,南京西路803号,121.4614730357922,31.23072701427257
10g9ck6,6,彭浦新村234号,121.45194727788561,31.308443437380767
10g9ck7,6,彭浦新村286号,121.45453467966225,31.305886907020565
10g9ck8,6,彭越浦路800弄,121.43599000390238,31.285730969003797
10g9ck9,6,平顺路373弄,121.45234226956758,31.314670779297675
10g9cka,6,平顺路96号,121.45254438024415,31.311061635496177
10g9ckb,6,平型关路230弄,121.4658668865275,31.269393745816693
10g9ckc,6,平型关路300弄,121.46477891665401,31.269863751589526
10g9ckd,6,平型关路305弄,121.46569440697849,31.270643125295297
10g9cke,6,平型关路315弄,121.46462010670747,31.270562719254052
10g9ckf,6,普善路376号,121.45448131271165,31.259956603685634
10g9ckg,6,普善路643号,121.4691165827151,31.257262701440585
10g9ckh,6,普善路878号,121.45024538075698,31.266505551443764
10g9cki,6,普善路铁路新村18号,121.45491483016477,31.255952812631755
10g9ckj,6,虬江路1150号,121.47114099331777,31.249053325018103
10g9ckk,6,虬江路1368弄,121.46690628097826,31.2493415225438
10g9ckl,6,虬江路1488弄,121.46558273269906,31.249220972660922
10g9ckm,6,虬江路1688号,121.46483810270401,31.24958884102401
10g9ckn,6,曲沃路470弄,121.44505201754136,31.31360763425151
10g9cko,6,三泉路415弄,121.44184517276193,31.307916657317882
10g9ckp,6,三泉路510弄,121.44142060755718,31.309679655738815
10g9ckq,6,三泉路770弄,121.44195185753706,31.315120031158543
10g9ckr,6,三泉路821弄,121.43959868224073,31.315632758839936
10g9cks,6,三泉路900弄,121.4419545130874,31.317511236650486
10g9ckt,6,三泉路999弄,121.43930906023358,31.318987903384972
10g9cku,6,山西北路222弄,121.48013321207259,31.244244797452996
10g9ckv,6,陕西北路470弄,121.45274873008275,31.2309694188792
10g9ckw,6,少年村路479弄,121.4309903843583,31.299687407319297
10g9ckx,6,少年村路662弄,121.4291977336957,31.30157757829304
10g9cky,6,升平街41弄,121.4612393301507,31.225124007139158
10g9ckz,6,石门二路186弄,121.46105789466692,31.234085075899152
10g9cl0,6,石门一路299号,121.46174923716039,31.229238519850295
10g9cl1,6,石门一路59号,121.46311452905083,31.225306187347904
10g9cl2,6,谈家桥路90号,121.45260546825585,31.260356863648244
10g9cl3,6,塘沽路835号,121.47954707873743,31.246008410903674
10g9cl4,6,通阁路135弄,121.47064480121692,31.25920723741526
10g9cl5,6,通阁路195弄,121.47070271179473,31.261251190376402
10g9cl6,6,通阁路215弄,121.47054884851791,31.26128163175291
10g9cl7,6,万春街162弄,121.43801938914017,31.228427973855457
10g9cl8,6,万春街4号,121.43631599784986,31.22977686889584
10g9cl9,6,万航渡路269弄,121.43926701126105,31.226243067833103
10g9cla,6,万航渡路340号,121.43847624126744,31.225261364273067
10g9clb,6,万航渡路388号,121.43765418861882,31.224677524325607
10g9clc,6,万航渡路393弄,121.43680456205536,31.225857525294725
10g9cld,6,万航渡路623弄,121.43346084677898,31.22702835900876
10g9cle,6,万航渡路661弄,121.432842746617,31.227201725571724
10g9clf,6,万航渡路666号,121.43266892144385,31.226631578369147
10g9clg,6,万航渡路677号,121.43288786520385,31.226990529308623
10g9clh,6,万航渡路829弄,121.4305276638388,31.228101020406577
10g9cli,6,万航渡路858弄,121.42902860128785,31.22635447460145
10g9clj,6,万荣路1050弄,121.44151902733215,31.28996444398034
10g9clk,6,威海路333弄,121.46424223765992,31.226619420398873
10g9cll,6,闻喜路1223弄,121.4423712127644,31.307653277123613
10g9clm,6,闻喜路533号,121.45832816614896,31.308181867513635
10g9cln,6,闻喜路806弄,121.44947291404979,31.309121984004097
10g9clo,6,武定路1128弄,121.43894552768019,31.229189192421863
10g9clp,6,武定路80弄,121.45533062599432,31.235258566087314
10g9clq,6,武定西路1158弄,121.43594590822731,31.2272935033481
10g9clr,6,武定西路1335号,121.4318223398409,31.22430231042
10g9cls,6,武定西路1398弄,121.42960975668741,31.22466988004859
10g9clt,6,武宁南路88弄,121.43693199147322,31.226875111692546
10g9clu,6,西宝兴路922弄,121.46775019296162,31.26929444120149
10g9clv,6,西藏北路1308弄,121.46633556107345,31.263777387557504
10g9clw,6,西藏北路1377弄,121.46454960873018,31.264929644750584
10g9clx,6,西藏北路1388弄,121.46520921142701,31.265434725058597
10g9cly,6,西藏北路985弄,121.46601615240746,31.260445552923734
10g9clz,6,西康路259号,121.45007505086689,31.2303806454428
10g9cm0,6,西苏州路71号,121.4517618364834,31.24114585399884
10g9cm1,6,西苏州路85弄,121.45243515011705,31.240815931274856
10g9cm2,6,襄阳北路44弄,121.454809197281,31.21954099626933
10g9cm3,6,新疆路500号,121.46671354874007,31.2423606912013
10g9cm4,6,新闸路1001号,121.45722378782224,31.233243054233423
10g9cm5,6,新闸路1910弄,121.44029834697504,31.226744001334986
10g9cm6,6,新闸路1990弄,121.4403650780133,31.226362527172874
10g9cm7,6,新闸路888弄,121.45720454185548,31.23551241186135
10g9cm8,6,延安中路470弄,121.46532084791099,31.224375916639193
10g9cm9,6,延安中路632弄,121.46077590761362,31.224893174459428
10g9cma,6,延安中路810号,121.45929537793964,31.224149005612947
10g9cmb,6,延安中路930弄,121.45613605467037,31.224381670122323
10g9cmc,6,延平路123弄,121.44045877394784,31.228324221025467
10g9cmd,6,延平路237弄,121.43944179098925,31.230733676590482
10g9cme,6,延平路340弄,121.43903565912822,31.232013367074327
10g9cmf,6,延平路435弄,121.43747204825583,31.23388460380141
10g9cmg,6,延平路461弄,121.43504991710319,31.23392679753892
10g9cmh,6,延长中路600弄,121.4494961024733,31.26821020589228
10g9cmi,6,延长中路629弄,121.4477748395385,31.269090936161426
10g9cmj,6,延长中路700弄,121.44688704625091,31.266708474501204
10g9cmk,6,阳城路101弄,121.42949097341486,31.282993949011573
10g9cml,6,阳城路280弄,121.42591247955296,31.28451718890334
10g9cmm,6,阳城路283弄,121.42629044947806,31.284227384489558
10g9cmn,6,阳城路388弄,121.42318704572857,31.284938367930003
10g9cmo,6,宜川路778弄,121.43872338139839,31.270939267559843
10g9cmp,6,宜川路810弄,121.43751855930077,31.27234611759533
10g9cmq,6,永和路880弄,121.42989924191139,31.286817738061387
10g9cmr,6,永兴路310号,121.47123337100682,31.25216112197258
10g9cms,6,永兴路928弄,121.45951917913976,31.25056937608006
10g9cmt,6,余姚路487弄,121.43500234649287,31.233324268281606
10g9cmu,6,俞泾港路6号,121.46708909286286,31.26612753882269
10g9cmv,6,俞泾港路99弄,121.46357166400084,31.265185498789947
10g9chf,6,长临路200弄,121.43883345904571,31.307801567813176
10g9chg,6,长临路380弄,121.43696254429344,31.31825297804134
10g9chh,6,长宁路125号,121.42805889714245,31.226721646954687
10g9chi,6,长宁路165号,121.42830415713735,31.226018182294332
10g9chj,6,长宁路209弄,121.42904532541984,31.22535670651811
10g9cmw,6,止园路406弄,121.4684826574536,31.2601607795385
10g9cmx,6,芷江西路123弄,121.46560211069567,31.258799463647044
10g9cmy,6,芷江西路165弄,121.46408523370609,31.258368275724177
10g9cmz,6,芷江西路285弄,121.46060064003726,31.258339201529637
10g9cn0,6,芷江西路453弄,121.45672049788797,31.257298050500477
10g9cn1,6,芷江西路521弄,121.45634317951162,31.256767754938462
10g9cn2,6,芷江中路531弄,121.46797946093675,31.259100090884147
10g9cn3,6,中华新路455弄,121.46746650133804,31.254901959211395
10g9cn4,6,中华新路479号,121.46590718671108,31.253778155450455
10g9cn5,6,中山北路355弄,121.46695607357246,31.263975298519153
10g9cn6,6,中山北路570弄,121.46533864761572,31.261263355421175
10g9cn7,6,中山北路805弄,121.45770105743873,31.262027889949128
10g9cn8,6,中山北路864号,121.45632573999598,31.259246644141797
10g9cn9,6,中兴路1101号,121.46498421585525,31.25257852957989
10g9cna,6,中兴路1233号,121.46305507733771,31.252685303426148
10g9cnb,6,中兴路1321弄,121.46160891335765,31.25275718539077
10g9cnc,6,中兴路1377弄,121.46087735397809,31.253600790870813
10g9cnd,6,中兴路1385弄,121.46088714033513,31.252617579046497
10g9cne,6,中兴路1395弄,121.46019442833662,31.25265197848401
10g9ec0,c,爱博二村,121.30585337518305,31.206547246359904
10g9ec1,c,爱博四村,121.3048861011964,31.212771153451104
10g9ec2,c,爱博五村,121.30759252270181,31.215549719628456
10g9ebz,c,爱博一村,121.3109662765432,31.206589242869846
10g9ec3,c,安乐村,121.41100493731415,31.029363837147958
10g9ec4,c,报春路218弄,121.39087838631154,31.1261696495005
10g9ec5,c,报春路388弄,121.3884066813972,31.125020915445347
10g9ec6,c,报春路399弄,121.38753634945026,31.12393888137124
10g9ec7,c,报春路488弄,121.38658505873615,31.124554897183923
10g9ec8,c,报春路558弄,121.38428075989233,31.12373214724101
10g9ec9,c,报春路748弄,121.38018159694704,31.121607730620326
10g9eca,c,报春路816弄,121.37781853232535,31.12126478845391
10g9ecb,c,报春路817弄,121.37690900266757,31.120030644808104
10g9ecc,c,报春路862弄,121.37453683544355,31.120898947619768
10g9ecg,c,北翟路1444弄,121.34126680473749,31.229772764115285
10g9ech,c,北翟路1554弄,121.3394590095982,31.225525160909555
10g9eci,c,北翟路1555号,121.3358346363471,31.222736688157028
10g9ecj,c,北翟路3318弄,121.31328201064007,31.22557261255487
10g9ecd,c,北江榉路588弄,121.4864519308793,31.104503333083095
10g9ece,c,北江榉路688弄,121.48502475533512,31.10391392025931
10g9ecf,c,北江燕路68弄,121.50416100932124,31.080730411471958
10g9eck,c,碧秀路98弄,121.38473131044736,31.11345442557304
10g9ecl,c,沧源路755弄,121.42936171762719,31.015138851698325
10g9ecm,c,曹行村,121.44571068565084,31.095716142186802
10g9ecn,c,曹中村,121.43288503494637,31.08873035087026
10g9eco,c,漕宝路1467弄,121.38368581244606,31.16051486789914
10g9ecp,c,澄江路1322号,121.4406469899536,31.081233718144908
10g9ecq,c,春都路358弄,121.41428608160511,31.083986627400733
10g9ecr,c,春都路75弄,121.42015486716043,31.082895625658978
10g9ecs,c,春都路88弄,121.41920729695484,31.08445112989617
10g9ect,c,春申路1581弄,121.43220969897384,31.113859385580486
10g9ecw,c,灯辉路1058号,121.41190675517866,31.029676151768896
10g9ecv,c,灯辉路1109号,121.41214064881386,31.029435294460452
10g9ecu,c,灯辉路1169弄,121.4178059200464,31.028626124339986
10g9ecx,c,丁连村,121.481295413478,31.094596103107126
10g9ecy,c,东川路333弄,121.46775488013016,31.02648486074195
10g9ecz,c,东川路925弄,121.4261565949519,31.015444980586796
10g9ed0,c,东风村,121.54484364349835,31.102760376453393
10g9ed1,c,东华美路151弄,121.3320490530698,31.221487996550934
10g9ed2,c,东兰路1111弄,121.38577712540996,31.151985620352985
10g9ed3,c,东兰路1349弄,121.38088216867588,31.14961726822498
10g9ed4,c,东兰路258号,121.40081007132551,31.157373859541817
10g9ed5,c,东兰路288号,121.39944660830942,31.157320325599926
10g9ed6,c,东新街4号,121.37071239763301,31.02934895851674
10g9ed7,c,都会路258号,121.43157600014047,31.037171334562533
10g9ed8,c,都会路2799弄,121.41015099817409,31.080195416561534
10g9ed9,c,都会路3199弄,121.40935577442944,31.08441476442944
10g9eda,c,都会路3199弄对面工地,121.40933391702228,31.08459147780093
10g9edb,c,都会路3888弄,121.41121144551762,31.089248832982594
10g9edc,c,都会路3899弄,121.40806366056613,31.089770155173408
10g9edd,c,都市路2899弄,121.40138089830971,31.073587098089888
10g9ede,c,都市路3588弄,121.40242393358008,31.084081209789847
10g9edf,c,都市路3635弄,121.40004274543104,31.082386728022975
10g9edg,c,都市路399弄,121.42219375210264,31.035626712558674
10g9edh,c,都市路4499弄,121.39233678608406,31.09830153689784
10g9edi,c,都园路4288号,121.40121896423747,31.097171376904498
10g9edj,c,繁安路59弄,121.3929242113871,31.062675986062192
10g9edk,c,丰收村,121.49041155438246,31.060979164902008
10g9edl,c,丰顺路500弄,121.3978275905914,31.08067750015702
10g9edm,c,富国路39弄,121.37911125711923,31.01961909394327
10g9edn,c,富强街13号,121.35548548490665,31.15123863271863
10g9edo,c,富岩路328弄,121.3708048569875,31.03289369627345
10g9edp,c,富卓路789弄,121.38048263302301,31.02511341454152
10g9edq,c,高兴路666弄,121.39654273280688,31.108377089457434
10g9edr,c,共和村,121.46458654055809,31.049843275004697
10g9eds,c,古龙路287弄,121.40165545657422,31.15019029969106
10g9edt,c,古龙路666弄,121.39171404177839,31.14735343451749
10g9ee0,c,古美八村,121.40362794765828,31.139905230162782
10g9edu,c,古美路1455弄,121.39861101077985,31.158130218254588
10g9edz,c,古美七村,121.40836982059241,31.14402184126008
10g9edw,c,古美三村,121.40227803110625,31.141718044156494
10g9edx,c,古美四村,121.40388384846656,31.142402490055805
10g9edy,c,古美五村,121.40786162050902,31.145607927514796
10g9ee1,c,古美西路399弄,121.39502199768371,31.132700237883128
10g9ee2,c,古美西路628弄,121.39004400353765,31.13560203780091
10g9ee3,c,古美西路631弄,121.39067303273274,31.130873276598475
10g9ee4,c,古美西路752弄,121.38570548078275,31.131572600157288
10g9ee5,c,古美西路753弄,121.38695000905152,31.130742506506135
10g9ee6,c,古美西路86弄,121.40026909337669,31.134236203480057
10g9edv,c,古美一村,121.40134981439,31.143502808870597
10g9ee7,c,顾戴路1199弄,121.38970598454408,31.138366266503645
10g9ee8,c,顾戴路1325弄,121.38499649013504,31.136403991927033
10g9ee9,c,顾戴路2199弄,121.36988873161937,31.133016841528146
10g9eea,c,顾戴路388弄,121.4002118502359,31.14581876384045
10g9eeb,c,光继村,121.53426911723332,31.00258701560626
10g9eec,c,广南路333弄,121.46693701587039,31.0375155517809
10g9eed,c,贵都路345弄,121.399771345586,31.07670875101139
10g9eeg,c,航华二村,121.3493055286932,31.171602418489144
10g9eeh,c,航华四村,121.35926931474485,31.171893862689057
10g9eef,c,航华一村,121.35715066435513,31.17716330539043
10g9eei,c,航新路288号,121.34931728546508,31.16957617790373
10g9eej,c,和爱路59弄,121.45037836484082,31.039349408688963
10g9eek,c,鹤坡南路55弄,121.52930813030754,31.059284268451524
10g9eel,c,鹤庆路358弄,121.41386417042264,31.010009428600338
10g9eem,c,恒星村,121.49085079776033,31.11893797742167
10g9een,c,红松路175弄,121.37227303161316,31.180454469910718
10g9eeo,c,虹井路618弄,121.37093036670693,31.184827011023742
10g9eep,c,虹梅路3297弄,121.38601067487741,31.188457055304212
10g9eeq,c,虹梅路3321弄,121.38362005198701,31.187321583567048
10g9eer,c,虹梅路3329弄,121.38518821210195,31.1893847782469
10g9ees,c,虹梅路999弄,121.40340880098633,31.15521916691157
10g9eet,c,虹梅南路1526弄,121.43396657745816,31.118381374608575
10g9eeu,c,虹梅南路1728弄,121.42902310293626,31.113215095193986
10g9eev,c,虹梅南路1776弄,121.43061570417483,31.11102454212469
10g9eew,c,虹梅南路1781弄,121.42802256492263,31.106696291807914
10g9eex,c,虹梅南路2555弄,121.42996441181222,31.09807620404419
10g9eey,c,虹梅南路2638弄,121.44023795802421,31.095776618354865
10g9eez,c,虹梅南路4999弄,121.44928334695675,31.051344374388623
10g9ef0,c,虹梅南路788号,121.42275048850023,31.12572429042716
10g9ef1,c,虹莘路1638弄,121.38404509470045,31.131404605022965
10g9ef2,c,虹莘路2448弄,121.38260149951661,31.1468491305065
10g9ef3,c,虹莘路2591弄,121.38141450582667,31.138352159513843
10g9ef4,c,虹莘路3333弄,121.37501678249292,31.16186950869874
10g9ef5,c,虹莘路3799弄,121.37066922328111,31.16683366396423
10g9ef6,c,虹莘路东兰路口工地,121.47445087563995,31.104689932903163
10g9ef7,c,虹中路399弄,121.37972852208875,31.184438197120297
10g9ef8,c,沪光东路128号,121.42616552404122,31.081305233263055
10g9ef9,c,沪光路39弄,121.42134185514558,31.079088194752593
10g9efa,c,沪光路425弄,121.41072699186223,31.076742891096227
10g9efb,c,沪闵路2242弄,121.40856567911953,31.03993598682724
10g9efc,c,沪闵路2282弄65支弄,121.40927966104047,31.039185333659635
10g9efd,c,沪闵路3131弄,121.41024718098092,31.055287542955075
10g9efe,c,沪闵路319号,121.42319397756685,31.010747881221246
10g9eff,c,沪闵路5600弄88支弄,121.3810873742146,31.102901335236588
10g9efh,c,沪青平公路240号,121.3497896762052,31.18053543285821
10g9efg,c,沪青平公路249弄,121.35094948472161,31.17626652029447
10g9efi,c,沪青平公路391弄,121.34732197742531,31.176569452651567
10g9efj,c,沪松公路565弄,121.34538693714904,31.152008839396036
10g9efk,c,华宝路789弄,121.32847943088947,31.162221455119504
10g9efl,c,华宁路1399弄,121.39035951218685,31.02384235315168
10g9efm,c,华翔路3788弄,121.30386326289332,31.225813320094034
10g9efn,c,汇东村,121.56077372616652,31.01723555470811
10g9efo,c,汇红村,121.54413447847789,31.019034663125954
10g9efp,c,汇南村,121.56065129072121,31.004422755545615
10g9efq,c,汇中村,121.553977302573,31.009459823541256
10g9efr,c,季乐路476弄,121.28791579732125,31.216407905518352
10g9efs,c,佳宝三村,121.3456155378756,31.15417451960351
10g9eft,c,建新村,121.51945595228871,31.03830148574584
10g9efu,c,建中村,121.51464010299635,31.10246707393395
10g9efv,c,剑川路121弄,121.47005090494685,31.04193217421999
10g9efx,c,剑川路150弄,121.46532373046078,31.043567361768748
10g9efw,c,剑川路155号,121.467752463237,31.041389612489144
10g9efy,c,剑川路198弄,121.46232517590941,31.04207089675439
10g9efz,c,剑川路99号,121.47302492402548,31.043015217291984
10g9eg0,c,江川东路863弄,121.4259129979868,31.005160880067102
10g9eg1,c,江川路1565号,121.37281875302052,30.991913688219793
10g9eg2,c,江汉路751弄,121.49242113821113,31.062825450138096
10g9eg3,c,江汉路99弄,121.50598439940818,31.066075291279226
10g9eg4,c,江玮路298弄,121.53586043849133,31.059186350787986
10g9eg5,c,江文路125弄,121.54290590322941,31.06182421627347
10g9eg6,c,金都路978弄,121.4337655180651,31.092984479041945
10g9eg7,c,金丰路777弄,121.28835179461937,31.20002895203023
10g9eg8,c,金光路699弄,121.27352508946244,31.200279705459955
10g9eg9,c,金汇路588弄,121.37458266602994,31.183650891421816
10g9ega,c,金平路328弄,121.40800594111005,31.013102580170735
10g9egb,c,金星村,121.37955102049985,30.992685272043623
10g9egc,c,金阳路366弄,121.41843761036952,31.037760397487432
10g9egd,c,近浦村,121.47574361463076,31.09631645640929
10g9ege,c,景福路189弄,121.40961605933765,31.122374510052655
10g9egf,c,景谷路176弄,121.39977394404735,31.01312945153873
10g9egg,c,景联路1817号工地,121.45313017933786,31.10122714414526
10g9egh,c,景联路685号,121.44173486843063,31.09949286931017
10g9egi,c,景联路759号,121.43990044988676,31.098550940317757
10g9egj,c,九星建筑工地,121.47478678817332,31.104634429775277
10g9egk,c,涞亭北路888号,121.32269964996107,31.159237170476114
10g9egl,c,兰坪路352弄,121.41657783822183,31.007987140124243
10g9egm,c,老沪闵路1111弄,121.43572246758606,31.12616339477604
10g9egn,c,老沪闵路1319号,121.4345317233268,31.11630782225827
10g9ego,c,老沪闵路1345号,121.43554484282636,31.11398927604965
10g9egp,c,老沪闵路1351弄,121.43371039574255,31.113121934483953
10g9egq,c,老沪闵路1357号,121.43410801160172,31.111823624972498
10g9egr,c,老沪闵路1498弄,121.43461561167658,31.110348911424484
10g9egs,c,黎安二村,121.37326692405927,31.128213163575353
