SH_ID_36,区36,地址,lng,lat
10g8hzc,d,爱辉路171号,121.44965487171137,31.341488340761625
10g8i61,d,爱辉路61号,121.45637224728563,31.328417815856117
10g8i21,d,白沙园路333弄,121.42902415529592,31.39177761684432
10g8i2f,d,白杨村,121.39624213784751,31.342150659172756
10g8i3z,d,宝东路41号,121.50328167099795,31.395585083191957
10g8i26,d,宝钢八村,121.47894223472557,31.407768270266498
10g8i34,d,宝林八村,121.49417755918509,31.40664875019658
10g8i51,d,宝林九村,121.49924463884386,31.404223622837016
10g8i1b,d,宝林六村,121.49865193313676,31.40263327046036
10g8i38,d,宝林四村,121.49156763211712,31.405141046528342
10g8i14,d,宝林五村,121.49156708990091,31.405708940756597
10g8i5i,d,宝山九村,121.4967552820969,31.400051131224885
10g8i2i,d,宝山十村,121.49193555492916,31.397307805872252
10g8hzx,d,宝杨路3246号,121.43774019198804,31.37375819413852
10g8i42,d,北宗村,121.4033018021182,31.38801997851819
10g8i58,d,蔡家弄村,121.36593262342791,31.372855513950647
10g8i0b,d,场北路39弄,121.43656567168901,31.33450185141603
10g8hze,d,场北路669弄,121.42410645976811,31.333791158915822
10g8i2u,d,场中路3658弄,121.42633441611243,31.302154112239148
10g8i5e,d,春和路186号,121.41132970696769,31.410134343779607
10g8i03,d,大华路301弄,121.4163654700203,31.270627898937285
10g8i05,d,大华路518号,121.4140863354534,31.27151675948068
10g8hzz,d,大华路901弄,121.4156114315502,31.2765445851351
10g8i0x,d,大华路928弄,121.41642285314626,31.28128960557937
10g8hzk,d,大华路988弄,121.4131961036849,31.278406284526643
10g8i1w,d,大华路998弄,121.41625229694164,31.281144799592475
10g8i4u,d,大康路896弄,121.42327798551297,31.330728775535878
10g8i2p,d,丹霞山路257弄,121.36306163942284,31.361972705431512
10g8hzs,d,丹霞山路50弄,121.3622523138607,31.358996036857203
10g8i33,d,德都路28弄,121.42538073084333,31.403008498876673
10g8i65,d,电台路378号,121.39291353736417,31.35247546205619
10g8i69,d,电台路599弄,121.39220550322261,31.356456179801125
10g8i2x,d,东林路589号,121.48975560004142,31.413541811296376
10g8i18,d,东林路84号,121.4959810606121,31.404177908042673
10g8i3h,d,丰皓路138弄,121.39465131565613,31.3053093834312
10g8i1e,d,丰收村,121.36840134191564,31.30968143129486
10g8i50,d,抚远路1211弄,121.36267992304148,31.408371630904753
10g8i1q,d,抚远路1288弄,121.35985619010299,31.408314719063757
10g8i1h,d,富联路646弄,121.40710191268302,31.3612194014776
10g8i4d,d,高跃路133弄,121.47183881608399,31.318231433562282
10g8i4q,d,共富路11号,121.43355150055612,31.351074477334098
10g8hzv,d,共富路156弄,121.43141905337117,31.349737031873122
10g8i1n,d,共富路183弄,121.43081582555223,31.350758054972825
10g8i5a,d,共富路348号,121.42731920973692,31.34904874966345
10g8i3i,d,共富路351弄,121.42446291150422,31.350447353631075
10g8i5u,d,共富路99弄,121.43324232429606,31.351069586736358
10g8i1t,d,共和新路5308弄,121.44248758737633,31.328127545779576
10g8i1s,d,共江路1169弄,121.44454347271224,31.328495552764625
10g8i0c,d,共江路749号,121.44689854469382,31.32803226985784
10g8i0e,d,共康路88弄,121.44358731303245,31.32090926132245
10g8i2y,d,古莲路110弄,121.40310343713375,31.449654388138985
10g8i3q,d,古莲路328号,121.40312328432262,31.448548337641885
10g8i1c,d,古莲路80弄,121.40319805310406,31.449595079697048
10g8i5o,d,顾北东路188弄,121.41306334914694,31.35898858432406
10g8i3n,d,顾城路231弄,121.36893060851725,31.32815455900207
10g8i5q,d,顾泾河路30弄,121.40225693560298,31.453875402411803
10g8i67,d,顾新东路387弄,121.39877757308035,31.34860797462077
10g8i4c,d,国权北路515号,121.49589095823936,31.318787013453527
10g8i5j,d,海笛路199弄,121.41854769607549,31.388412494117976
10g8i1u,d,海江二村,121.50272044888428,31.392809372635643
10g8i1y,d,涵青路398弄,121.3967916533665,31.332720770405864
10g8i4j,d,恒高路100号,121.4704113035908,31.32490478099
10g8i4z,d,恒高路83弄,121.47125597206725,31.326076928048245
10g8i2v,d,红林路576弄,121.41829073114269,31.364446185783837
10g8i4e,d,呼兰路515弄,121.4500182145895,31.346685078542215
10g8hzf,d,呼玛二村,121.4467183059305,31.34065382303716
10g8i4w,d,呼玛路376号,121.4419989364614,31.33084135855571
10g8i5h,d,呼玛路528号,121.4506103402364,31.339761489661512
10g8i2z,d,呼玛路535号,121.44855238087202,31.339255988817694
10g8i1a,d,呼玛路599号,121.44136886888303,31.339082167323756
10g8i43,d,呼玛路659号,121.44541775469325,31.338468197518857
10g8i4r,d,呼玛路818号,121.44152902062366,31.335544339775545
10g8i23,d,胡庄村,121.42065048196079,31.347989372452673
10g8i17,d,虎林路135弄,121.46028112065792,31.33312254803448
10g8hzh,d,虎林路18弄,121.45748954659638,31.331909876947165
10g8i0z,d,虎林路329弄,121.45540182952149,31.341664558224313
10g8i0g,d,虎林路58号,121.4594630012599,31.327990449164915
10g8i0h,d,虎林路800弄,121.45348145453147,31.343788971251577
10g8i60,d,虎林路888弄,121.45546657075329,31.341650411112237
10g8i4f,d,虎林路948号,121.45172490673859,31.34909730983151
10g8i5m,d,沪太路3611弄,121.40832078899908,31.32531923350825
10g8i5r,d,沪太路3651弄,121.40994152066447,31.32816078626088
10g8i4x,d,沪太路4099弄,121.40624979998577,31.332734204739456
10g8i3d,d,沪太路4201弄,121.4036202333813,31.33612845632004
10g8i2m,d,沪太路4361号,121.39724802511823,31.34503484624041
10g8i4y,d,沪太路5355弄,121.37831728980134,31.359396295421554
10g8i0f,d,花园宅路52弄,121.4259519030188,31.32923901370925
10g8i55,d,华浜新村,121.49363138095137,31.348992290156897
10g8i00,d,华灵路1885弄,121.40517412803896,31.27964560508282
10g8i2o,d,华灵路1900弄,121.40458421720679,31.277652324543315
10g8hzm,d,华秋路666弄,121.37979913553023,31.325784099517488
10g8hzd,d,环镇南路326号,121.40845997622108,31.29320704835635
10g8i4k,d,吉浦路615弄,121.49308911446082,31.316920109149464
10g8i02,d,集贤路800弄,121.35020914437477,31.424045315410083
10g8i1z,d,江杨北路1568弄,121.43568720921822,31.39861025988275
10g8i3f,d,江杨北路2550弄,121.44515175469238,31.39019760432655
10g8i63,d,江杨南路1966号,121.46463552399311,31.342425944404784
10g8i1x,d,界华路100弄,121.42289799775763,31.302014574757557
10g8i3x,d,锦秋路1188弄,121.38420198452498,31.31937865324537
10g8hzn,d,锦秋路1588弄,121.3750588247456,31.316548318989852
10g8i08,d,锦秋路699弄,121.39066782869169,31.32564508143038
10g8i3w,d,菊联路233弄,121.36385299647927,31.34656386532338
10g8i0m,d,菊泉街1969弄,121.37155231044444,31.36380783028621
10g8i11,d,菊泉街2899弄,121.36946965276523,31.367072268588892
10g8i5p,d,菊盛路468弄,121.37109288416048,31.356586030952293
10g8i25,d,菊太路1755弄,121.346119431477,31.34468569033236
10g8i4v,d,聚丰园路105弄,121.38486789359187,31.3176065300648
10g8i1r,d,聚丰园路388弄,121.37860547194933,31.31331429148137
10g8i28,d,聚丰园路500弄,121.3777440027745,31.31162314225679
10g8i59,d,聚丰园路628弄,121.37409669809543,31.311251932065865
10g8hzt,d,聚丰园路95弄,121.38409205088136,31.315974908524964
10g8i57,d,聚源桥村,121.38532524830714,31.439607293164876
10g8i5s,d,老蕰川路5799号,121.40374034928868,31.460965720198487
10g8i2s,d,莲花山路517弄,121.44532586408485,31.36200093204218
10g8i45,d,联杨路1078弄,121.35418640570256,31.345237889209262
10g8hzj,d,联谊路58号,121.444348270256,31.350594249190152
10g8i52,d,联长路57号,121.46570683462652,31.337180293255585
10g8i2k,d,岭南路1289弄,121.45465826862093,31.32505478857166
10g8i27,d,陆翔路3489弄,121.33753401351873,31.400321891933146
10g8i3s,d,罗东路600弄,121.37038653757905,31.43578485397367
10g8i2c,d,罗和路855弄,121.3343533566124,31.39118115727771
10g8i22,d,罗宁路3030弄,121.32718439112827,31.485987575549295
10g8i5k,d,罗太路533弄,121.34151660067806,31.416696998295453
10g8i4g,d,罗溪路1001弄,121.34354484719894,31.42498243031356
10g8i5n,d,马泾桥三村,121.41409150558619,31.41865321569837
10g8i5z,d,梅林路666弄,121.43630032418902,31.369187510563638
10g8i0y,d,梅林路866弄,121.43538219067882,31.371003901841625
10g8i46,d,梅林路97弄,121.43841267128506,31.362637871491593
10g8i3j,d,湄浦村,121.42583683016562,31.387463906756718
10g8i3r,d,美艾路198弄,121.36241985869923,31.39388074751614
10g8i0v,d,美丹路1058弄,121.33705532894646,31.395177984393086
10g8i10,d,美康路818弄,121.33271106801584,31.39582023912626
10g8i4n,d,南大路126弄,121.40306520235391,31.29975970045262
10g8hzg,d,南大路138弄,121.40244931253406,31.30052817929199
10g8i54,d,南大路17号,121.4072605461416,31.298854452394185
10g8i35,d,南大路363号,121.38921984712594,31.299743495903375
10g8i53,d,南大路86弄,121.40599898196928,31.299897345893733
10g8i37,d,年吉路220弄,121.34329285084834,31.401596123639393
10g8i5v,d,年吉路650弄,121.33445768479316,31.399582369932237
10g8i29,d,潘泾路2100弄,121.36663019511484,31.415883844762217
10g8i2d,d,祁华路218弄,121.37788335782965,31.323218042106998
10g8i24,d,祁华路58弄,121.38081928319883,31.32391304063767
10g8i06,d,祁连山路2500弄,121.38047946797512,31.313354585120496
10g8i2e,d,祁连山路2555弄,121.38155385656744,31.31321411953438
10g8i2a,d,祁连山路2777弄,121.38302833754922,31.31663601700365
10g8i0t,d,祁连山路2828弄,121.38066527859192,31.317357905619414
10g8i0d,d,祁真路199弄,121.3776752979845,31.320701582392182
10g8i3o,d,祁真路800号,121.3700370950046,31.31918675931028
10g8i3e,d,前三营房,121.50007844619348,31.385583058810095
10g8i4o,d,钱潘村,121.40031181449287,31.431671163366815
10g8i07,d,乾溪路100弄,121.41266732163507,31.30379861594136
10g8i1i,d,羌家村,121.38600594752091,31.357570515949178
10g8i20,d,三门路555弄,121.48914062955394,31.312006228442698
10g8i12,d,三泉路1859弄,121.43629181354952,31.329867987408246
10g8i5c,d,沙浦路518弄,121.38224471856745,31.356269689267403
10g8i5l,d,上大路99号,121.39332104747322,31.31690169162964
10g8i39,d,沈家桥村,121.39002777399436,31.450713881890593
10g8hzi,d,沈杨村,121.37257753391692,31.330882286614173
10g8i2w,d,盛桥三村,121.40093349215532,31.45038141278606
10g8i3u,d,盛石路1号,121.41695792716212,31.462029233733833
10g8i64,d,盛宅村,121.41061156671441,31.34916190487257
10g8hzw,d,水产西路859弄,121.4137089829584,31.35604396924088
10g8i3k,d,泗塘二村,121.45632726844369,31.33714296769868
10g8i5b,d,松兰路328弄,121.44951565166859,31.373357396322508
10g8i2r,d,松兰路879号,121.44494211775702,31.37953987249689
10g8i1j,d,淞滨路165弄,121.49536248042006,31.373505722665016
10g8i5x,d,淞滨路860弄,121.48825600752183,31.36904487152336
10g8i3b,d,淞滨支路120弄,121.48662831786683,31.369471124019142
10g8i4a,d,淞良路525号,121.48860714585739,31.34144811922542
10g8i0r,d,淞南路200弄,121.48509303387112,31.33913901279033
10g8i0s,d,淞南七村,121.48159558732148,31.333401008286927
10g8hzp,d,淞南十村,121.47256361185359,31.334076117871085
10g8i36,d,淞兴路305弄,121.49593680880125,31.37192675419021
10g8i5y,d,淞兴西路258号,121.48692552928085,31.36652565982467
10g8i2h,d,塔源路150弄,121.39832342530552,31.446294487983018
10g8hzb,d,塔源路258弄,121.3998090831447,31.449134585846195
10g8i2n,d,塔源路302弄,121.39799200843684,31.4513949027582
10g8i5d,d,塔源路58弄,121.40272834047457,31.448410287574145
10g8i5t,d,泰和路1000号,121.48027875080628,31.36871761203222
10g8i4m,d,泰和路1906号,121.4449139626186,31.35804048904877
10g8i19,d,泰和路318弄,121.49371710272024,31.37319026236274
10g8i4l,d,泰和西路3381弄,121.40702190561693,31.351504768685537
10g8i3c,d,泰和西路3527弄,121.39980053230144,31.347721631040727
10g8i4i,d,泰兴桥200号,121.48248221605108,31.367020152150108
10g8i48,d,谭杨村,121.39481216698596,31.375021596688185
10g8hzy,d,塘祁路517弄,121.38097634726039,31.327151544626567
10g8i30,d,塘西街397弄,121.34243697241122,31.421765888536587
10g8i2q,d,塘西街398弄,121.33926209383408,31.420851486019927
10g8hzl,d,铁城路1555号,121.4515364613789,31.35661724517374
10g8i4h,d,铁峰路2000弄,121.45313485445892,31.39618256163578
10g8i3y,d,铁峰路477号,121.47029252196847,31.37198094286196
10g8i68,d,铁山路55号,121.4679268889242,31.362811702124475
10g8i4s,d,铁山路69号,121.46949328209527,31.363927351760516
10g8hzr,d,通河路100弄,121.44681186551207,31.333310625481875
10g8i1v,d,通河路254号,121.44846227095742,31.33029866272286
10g8i0i,d,通河七村,121.45206209592402,31.329229529350133
10g8i01,d,通河四村,121.44536959926668,31.330716355977838
10g8hzo,d,通南路369号,121.46802028199984,31.336047659839895
10g8i32,d,通南路55弄,121.47652569742357,31.339788420728393
10g8i16,d,同济路303号,121.48939820077561,31.380786528984103
10g8i1p,d,王家村,121.38861782044731,31.385872591352147
10g8i0p,d,蕰川路1498弄,121.42516159793077,31.361011534579387
10g8i1o,d,蕰川路1625弄,121.43279492956788,31.369355930342238
10g8i41,d,蕰川路1638号,121.43021083516274,31.36931756386488
10g8i1f,d,蕰川路5418号,121.40664912947733,31.44905700555347
10g8i40,d,汶水路1585弄,121.41600127254706,31.28963723857765
10g8i5g,d,五星村,121.34671558929513,31.304840483452686
10g8i2b,d,西界泾村,121.42743376375304,31.27805643321367
10g8hza,d,萧云路1318弄,121.33158104847068,31.45611456709983
10g8i47,d,新川沙路1015号,121.32920832490888,31.464965995761244
10g8i04,d,新沪路55弄,121.41876433879501,31.268072244636286
10g8i62,d,新沪路960弄,121.41881539645337,31.2729574280937
10g8i0n,d,阳曲路1111弄,121.45853305131158,31.324546431873188
10g8i44,d,杨南路399号,121.4048079709129,31.402700327454664
10g8i4p,d,杨泰路338弄,121.4403544015125,31.372253430215398
10g8i3t,d,杨泰路712号,121.43704117634216,31.38163539957721
10g8i2l,d,杨泰三村,121.4492349976666,31.36297560967426
10g8i09,d,一二八纪念路688弄,121.45338035894508,31.32596580754557
10g8i0q,d,逸仙路1511弄,121.48629165107315,31.318598829274638
10g8i3l,d,逸仙路3945号,121.50246151965423,31.35430849626918
10g8i0w,d,殷高西路81号,121.46957434753058,31.319630564150902
10g8i1l,d,永乐路115弄,121.50238807357307,31.398107492158484
10g8i1g,d,永乐路422号,121.49628787847809,31.39313288825411
10g8i1m,d,永清二村,121.49490803651497,31.388486231164013
10g8i1d,d,永清路699号,121.49438773858007,31.395310351927815
10g8i0j,d,永清路700号,121.49123793668694,31.39491876213895
10g8i3v,d,永顺路81弄,121.34902546761005,31.412030103912937
10g8i66,d,友谊路1151号,121.46018317195691,31.397044853340326
10g8i15,d,友谊路174号,121.48012505363229,31.404302916798155
10g8i5f,d,远景村,121.33779410878579,31.40417344892354
10g8i2t,d,月川路33弄,121.40598710592836,31.445918026599806
10g8i2j,d,月浦二村,121.42854127905042,31.419451352663074
10g8i2g,d,月狮村,121.40735867439642,31.449372916349276
10g8i1k,d,长江路366弄,121.49510460045812,31.350636641704668
10g8i4t,d,长江路43号,121.4972068515558,31.3531768292908
10g8i0u,d,长江路440弄,121.49095498280627,31.348385345789527
10g8i0a,d,长江西路1160弄,121.4594044898373,31.33821459462687
10g8i3g,d,长江西路1380号,121.45464126602978,31.336572079544915
10g8hzq,d,长江西路1568号,121.45017216664583,31.333429319228134
10g8i56,d,长江西路2311号,121.43606375609367,31.329127805021834
10g8hzu,d,长江西路53弄,121.45216417524932,31.33596280344376
10g8i0l,d,长江西路977号,121.46256770880076,31.340404083559793
10g8i13,d,长逸路388弄,121.49038456374721,31.336906946873526
10g8i31,d,真北路4333弄,121.40458446221342,31.292820155916857
10g8i3m,d,真华路1030弄,121.41225638188719,31.275862369030037
10g8i3p,d,真华路1116号,121.41135479948052,31.278792977276684
10g8i4b,d,真华路1615弄,121.41030564184312,31.286396161448927
10g8i0k,d,真华路1800弄,121.41189970319155,31.28948113906231
10g8i0o,d,真华路999弄,121.40890488202545,31.2759859454141
10g8i49,d,真金路1039弄,121.40495778320572,31.28219116918868
10g8i3a,d,朱家弄村,121.38777946532512,31.340791560548926
10g8i5w,d,竹韵路58弄,121.4451467435267,31.364280883876134
10g8iye,u,保东村,121.63207888676496,31.53958406000925
10g8iyk,u,创建村,121.6126027548665,31.428375547894415
10g8iyl,u,丰康路50弄,121.69972754593974,31.39401553023189
10g8iyg,u,江南大道,121.73776357431016,31.368425952121093
10g8iyo,u,湄洲路1288弄,121.40923812687095,31.64629233579949
10g8iyf,u,南海村,121.69061423521788,31.519955647071466
10g8iyp,u,向化村,121.72918924526341,31.5258740141254
10g8iyi,u,新港村,121.44314414556396,31.73686592231501
10g8iyq,u,瀛南村,121.67235251481307,31.51892639832853
10g8iyn,u,裕安路48号,121.83520135819887,31.526536676387895
10g8iym,u,圆展路135弄,121.77371523784703,31.360335270111197
10g8iyh,u,长橘路500弄,121.69586530476398,31.396684442228178
10g8iyj,u,长凯路277号,121.73488155635829,31.37544792244442
10g8iwm,k,八字桥路288弄,121.462488216596,30.93735213409192
10g8iwn,k,八字桥路829弄,121.45397772152299,30.934288730707536
10g8iwo,k,北行路555弄,121.50758431731568,30.97057846050722
10g8iwp,k,贝港南区,121.44629530035742,30.90773710918248
10g8iwr,k,大宅小区,121.64823502263233,30.95433299030897
10g8iws,k,灯塔村,121.4247527660217,30.984922492872172
10g8iwt,k,发展村,121.43199028583572,30.965777223011106
10g8iwu,k,冯家村,121.64057255916624,30.95543893383028
10g8iwv,k,奉城东街45弄,121.64714023244264,30.916520230062677
10g8iww,k,奉浦大道95弄,121.46437399252383,30.9421596751062
10g8iwx,k,扶兰路9弄,121.44135823952661,30.987443112080374
10g8iwy,k,富竹路39弄,121.46196708158504,30.92897795870059
10g8iwz,k,港极路568弄,121.72056202501139,30.89899097158622
10g8ix0,k,光钱路510号,121.50856171617674,30.905301239926487
10g8ix1,k,国顺路668弄,121.45396000758944,30.931137126498164
10g8ix2,k,海光路168弄,121.57165081957294,30.858038433925014
10g8ix3,k,海旗路1518弄,121.73762466337445,30.894574041530493
10g8ix4,k,韩村路173弄,121.46260248040164,30.940156282062034
10g8ix5,k,航南公路5388弄,121.56361102561691,30.987092946548184
10g8ix6,k,红旗村,121.6342806680497,30.94192166994166
10g8ix7,k,洪庙路126弄,121.68816556751004,30.926357541256305
10g8ix8,k,鸿乐路155弄,121.43003776000785,30.988305275023496
10g8ix9,k,沪杭公路149弄,121.43189953605093,30.991629561297092
10g8ixa,k,沪杭公路303弄,121.43453792729719,30.987703252027178
10g8ixb,k,沪杭公路32弄,121.42586835953021,30.993039289433025
10g8ixc,k,沪杭公路418弄,121.4342310287876,30.984361974171602
10g8ixd,k,沪杭公路66弄,121.44284257022026,30.962003692969496
10g8ixe,k,环城东路885弄,121.47011847715375,30.92813433070512
10g8ixf,k,环城南路1309弄,121.44712573264643,30.901347626416676
10g8ixg,k,汇安村,121.40248215986983,30.96001650458176
10g8ixh,k,嘉园路1258号,121.49207440105764,30.97507971362412
10g8ixi,k,江海村,121.44498092581235,30.894470069008115
10g8ixj,k,江海新村,121.45840371335257,30.906682967762727
10g8ixk,k,金碧路1959弄,121.51345535704574,30.974491914895196
10g8ixl,k,金碧路1980弄,121.50849403296537,30.97144876634078
10g8ixm,k,金汇村,121.50149068447361,30.98877358989043
10g8ixn,k,金齐路348弄,121.49269151591236,30.95407409212517
10g8ixo,k,燎原一村,121.63999149865863,30.86631190514296
10g8ixp,k,六墩村,121.46610702233262,30.894199484643817
10g8ixq,k,梅园村,121.59693348195097,30.99046261240293
10g8ixr,k,明星村,121.55297845494447,30.98203656433166
10g8ixs,k,南渡村,121.45157716533446,30.99953534205488
10g8iwq,k,南桥菜场路1113号,121.45132454503806,30.914448145057765
10g8ixt,k,青村人民路445弄,121.58391314494203,30.929155208032004
10g8ixu,k,清宁路359弄,121.51420918127917,30.94169604933784
10g8ixv,k,三团港村,121.72199971418935,30.88369257118396
10g8ixw,k,沈陆村,121.45354420172637,30.89470954579097
10g8ixx,k,水闸路14弄,121.68141062238863,30.92300267859483
10g8ixy,k,体育场路174号,121.12245165237343,31.151997119175903
10g8ixz,k,万顺路2278弄,121.51811606701476,30.962970620722093
10g8iy0,k,万顺路2768弄,121.51645335248982,30.969641208218118
10g8iy1,k,吴塘村,121.41231841307234,30.95906435365729
10g8iy2,k,西闸公路1800弄,121.42697143147942,30.984725939850257
10g8iy3,k,新粮路755弄,121.46482920545263,30.862927570993065
10g8iy4,k,新四平公路468弄,121.74183322863134,30.891845502245406
10g8iy5,k,新寺村,121.4617904034538,30.85921177894716
10g8iy6,k,新叶村,121.37630302183283,30.958373809153773
10g8iy7,k,永南路1688号,121.51683641968856,31.005993029911416
10g8iy8,k,永欣新村,121.45046709867155,30.91412580390283
10g8iy9,k,运河北路1351弄,121.43966353086672,30.918269818756972
10g8iya,k,运河北路785号,121.4535729072168,30.922206275367962
10g8iyb,k,振泰路51弄,121.56402082372279,30.979423577373467
10g8iyc,k,正环路158弄,121.47982458953857,30.912284869494883
10g8iyd,k,周家村,121.59890954570562,30.9877668555213
10g8hn3,9,安国路18号,121.50863384258994,31.257142404540986
10g8hn4,9,安国路280号,121.5051248724788,31.260237556160938
10g8hn5,9,安国路288弄,121.50553842517321,31.260077942595466
10g8hn6,9,宝安路141号,121.48813706248774,31.264437487570635
10g8hn7,9,宝安路145号,121.48821343208242,31.264829045411446
10g8hn8,9,宝安路155号,121.48803773735122,31.26476979332446
10g8hn9,9,宝安路17号,121.48825608119748,31.263129452151663
10g8hna,9,宝安路196号,121.48687018501776,31.266751545564418
10g8hnb,9,宝安路79弄,121.48697943699753,31.26641780368255
10g8hnc,9,宝安路7号,121.48811127485448,31.263142874723073
10g8hnd,9,宝安支路51号,121.48851753652278,31.264499427450215
10g8hne,9,宝安支路79弄,121.48811166828817,31.264481633907348
10g8hnf,9,宝山路778号,121.47957449621796,31.262116674268864
10g8hng,9,宝山路888弄,121.47919512420225,31.265313262193448
10g8hnh,9,保定路125号,121.51197991854964,31.256054903605484
10g8hni,9,保定路20弄,121.51449972544846,31.255047526142693
10g8hnj,9,保定路426号,121.50850179452529,31.259777779373934
10g8hnk,9,保定路458号,121.50846408709799,31.26002205507584
10g8hnl,9,北宝兴路163号,121.46615917627516,31.27331588288422
10g8hnp,9,场中路239弄,121.48095456963213,31.30834979124919
10g8hnq,9,场中路688号,121.46800673656882,31.30630191836347
10g8hnr,9,车站北路491弄,121.47394459936638,31.29616556106392
10g8hns,9,车站北路500弄,121.47334526380317,31.297299129308108
10g8hnt,9,车站北路715弄,121.46620333396868,31.296441339044765
10g8hnu,9,车站北路732弄,121.46593566108609,31.297853015909656
10g8hnv,9,车站南路39号,121.48154712540351,31.295185210177106
10g8hnw,9,车站南路407弄,121.47349309712736,31.29468582974843
10g8hnx,9,车站西路288弄,121.48261048063357,31.29944536795535
10g8hny,9,车站西路301弄,121.48300480414146,31.299938191213098
10g8hnz,9,车站西路307弄,121.48320083018376,31.301081487104476
10g8ho0,9,池沟路348弄,121.48000387329974,31.304499072774757
10g8ho1,9,川公路146弄,121.4821542320892,31.25580704487025
10g8ho2,9,川公路151号,121.48088352052577,31.256460572757028
10g8ho3,9,川公路175号,121.48050637958464,31.25589087746655
10g8ho4,9,川公路2号,121.48301433244086,31.25674690755271
10g8ho5,9,大连西路261号,121.48724139687671,31.276388034766864
10g8ho6,9,丹徒路340弄,121.50176031342393,31.256532029076745
10g8ho7,9,丹徒路371号,121.50178569367743,31.256408832518943
10g8ho8,9,东宝兴路669号,121.47644897531654,31.261652675990078
10g8ho9,9,东大名路1062号,121.50790192959776,31.251097946225432
10g8hoa,9,东大名路1096号,121.50876509977833,31.251704186132244
10g8hob,9,东汉阳路309弄,121.49422514988201,31.251865189136662
10g8hoc,9,东汉阳路418号,121.49648465435637,31.251813346042997
10g8hod,9,东横浜路122弄,121.4814216230105,31.262242954762584
10g8hoe,9,东江湾路300弄,121.47989344157338,31.268656844787543
10g8hof,9,东余杭路1051弄,121.50532172537666,31.258840415133626
10g8hog,9,东余杭路11号,121.49881227991433,31.253797921969714
10g8hoh,9,东余杭路1350号,121.5088284392819,31.261430971841474
10g8hoi,9,东长治路340弄,121.49515230721146,31.24888243754545
10g8hoj,9,东长治路665弄,121.50023913764184,31.25190870631992
10g8hok,9,多伦路17号,121.48094527938935,31.263302618758516
10g8hol,9,多伦路201弄,121.4810393542388,31.263760249743026
10g8hom,9,峨嵋路299弄,121.49060690377748,31.24979162868794
10g8hon,9,丰镇路555弄,121.47093646070495,31.304636558841057
10g8hoo,9,沽源路110弄,121.4772153062322,31.30248077007303
10g8hop,9,广灵二村,121.47843823087588,31.285918420610294
10g8hoq,9,广灵二路380弄,121.47065421697545,31.283664571631142
10g8hor,9,广灵四路140弄,121.47942785659129,31.28618542000251
10g8hos,9,广灵四路14号,121.46221819072098,31.284311718698596
10g8hot,9,广灵一村,121.47798273793757,31.286808464317758
10g8hou,9,广灵一路263号,121.47948457009925,31.28557065690762
10g8hov,9,广灵一路265号,121.47988950354365,31.28601248942786
10g8how,9,广灵一路74弄,121.47807241022676,31.280804685963584
10g8hox,9,广中路390号,121.47262245317633,31.278535804507595
10g8hoy,9,广中路586弄,121.46642358327152,31.279581004250392
10g8hoz,9,海伦路555弄,121.48669362728799,31.25852975089869
10g8hp0,9,海宁路100号,121.48936763449957,31.253170459662964
10g8hp1,9,海宁路300号,121.48661340456012,31.251136395693283
10g8hp2,9,海宁路340号,121.48531494967303,31.25077276523887
10g8hp3,9,海宁路5号,121.49183951596059,31.253273844636052
10g8hp4,9,恒业路313弄,121.47402184147714,31.2663414300241
10g8hp5,9,横浜路178弄,121.47809339733054,31.264106464329068
10g8hp6,9,横浜路35弄,121.48112616095698,31.262749914488726
10g8hp7,9,横浜路63弄,121.48028806701923,31.262804038884173
10g8hp8,9,横浜路75号,121.48010545621247,31.262905359891867
10g8hp9,9,衡山路8号,121.44736747450743,31.207211980088744
10g8hpa,9,虹湾路288弄,121.47021403625618,31.314449481413092
10g8hpb,9,虹湾路55弄,121.47498094533442,31.312382869606658
10g8hpc,9,花园路168弄,121.47273101293082,31.27218145917665
10g8hpd,9,华昌路183弄,121.4753492431635,31.264050125286612
10g8hpe,9,华昌路68弄,121.47881932436974,31.26222006915569
10g8hpf,9,华昌路9号,121.47830666038693,31.26114338937798
10g8hpg,9,惠民路250弄,121.5144213525893,31.254581787963378
10g8hph,9,江杨南路55弄,121.46990717146095,31.309562840131736
10g8hpi,9,奎照路280号,121.4798419284202,31.299502886719168
10g8hpj,9,奎照路411弄,121.47738513192039,31.300271193214794
10g8hpk,9,昆明路181号,121.50882020283262,31.25649838296662
10g8hpl,9,凉城路1201弄,121.4700821306394,31.303648001509202
10g8hpm,9,凉城路1319弄,121.46929496900462,31.280517048407265
10g8hpn,9,凉城路215弄,121.46852550189017,31.28390895649535
10g8hpo,9,凉城路539弄,121.47029743196168,31.28938163276119
10g8hpp,9,凉城路589弄,121.4689159488043,31.294025854143126
10g8hpq,9,凉城路838弄,121.47335176449754,31.299317622158746
10g8hpr,9,临平路133弄,121.49939883538876,31.260908624056476
10g8hps,9,临平路256弄,121.49557891117198,31.26253513298057
10g8hpt,9,临潼路102弄,121.51378730020532,31.25336940300828
10g8hpu,9,罗浮路89弄,121.48120506301166,31.2523756779936
10g8hpv,9,旅顺路199弄,121.49465965703392,31.250041713620522
10g8hpw,9,马厂路49弄,121.49582225527793,31.24809188659011
10g8hpx,9,马厂路62号,121.49515653503354,31.247477980549515
10g8hpy,9,虬江之路181号,121.48296146587042,31.253776842743445
10g8hpz,9,曲阳路630弄,121.49524803513668,31.284600546759872
10g8hq0,9,三门路747弄,121.48023467212091,31.313009577672325
10g8hq1,9,三门路759弄,121.47936547287026,31.3119512658911
10g8hq2,9,商丘路250号,121.4972725254339,31.250710964997563
10g8hq3,9,水电路1600弄,121.47563329656919,31.302594605531326
10g8hq4,9,水电路191弄,121.4742551349702,31.27367649107325
10g8hq5,9,水电路380号,121.47494436054146,31.276602721101913
10g8hq6,9,四川北路1569弄,121.48333399328028,31.25633794990241
10g8hq7,9,四川北路1581号,121.48320802320895,31.256441614789367
10g8hq8,9,四川北路1727弄,121.48237102565338,31.258542612499927
10g8hq9,9,四川北路1760号,121.48336177226487,31.259421985493578
10g8hqa,9,四川北路1774弄,121.48425900238452,31.259534158203696
10g8hqb,9,四川北路1906弄,121.48417724841491,31.261875959353134
10g8hqc,9,四川北路1999弄,121.48344337942036,31.2639268333801
10g8hqd,9,四川北路2023弄,121.48309218406315,31.26389030507762
10g8hqe,9,四川北路920号,121.4847301459621,31.250576235935316
10g8hqf,9,四川北路926号,121.48476225689835,31.250306991507045
10g8hqg,9,四平路273号,121.48959583949615,31.26218799098465
10g8hqh,9,四平路283号,121.48958710388986,31.263834062652304
10g8hqi,9,四平路3号,121.50160303803476,31.27579296370871
10g8hqj,9,唐山路424号,121.50401739691083,31.253759787242537
10g8hqk,9,塘沽路73弄,121.49315648473132,31.24708238861561
10g8hql,9,天宝路466弄,121.49678579929648,31.267215358916808
10g8hqm,9,天宝路882弄,121.50014412811436,31.272141520618757
10g8hqn,9,天宝西路299弄,121.49117704661407,31.274684048619367
10g8hqo,9,通州路400号,121.49409618097786,31.25899702510562
10g8hqp,9,通州路402号,121.4941668919591,31.258749151181306
10g8hqq,9,通州路88弄,121.49895722153043,31.254896774384946
10g8hqr,9,同丰路666弄,121.46814165247726,31.27269300175929
10g8hqs,9,同丰路667弄,121.46847857984082,31.272837963510774
10g8hqt,9,同心961弄,121.50530073681456,31.2646543410348
10g8hqu,9,同心路1045弄,121.46871060348222,31.275274569565198
10g8hqv,9,同心路159号,121.47724444247523,31.267248618144542
10g8hqw,9,同心路338弄,121.47439572196188,31.267911324526267
10g8hqx,9,同心路765弄,121.4721365385662,31.271447809916644
10g8hqy,9,同心路907号,121.47075323187154,31.27232379214824
10g8hqz,9,万安路358号,121.48375959846577,31.30199477244867
10g8hr0,9,万安路958号,121.47278453915382,31.3008344000321
10g8hr1,9,万安路979弄,121.47259844810965,31.301359232621994
10g8hr2,9,文迁路4号,121.48095599690654,31.302030713406516
10g8hr3,9,汶水东路510弄,121.47918278025226,31.28885645217014
10g8hr4,9,吴淞路130号,121.4904054591599,31.246341397210397
10g8hr5,9,西宝兴路949弄,121.46989099048582,31.269872784342265
10g8hr6,9,新港路190弄,121.50009965838085,31.269659216157606
10g8hr7,9,新港路311弄,121.49735453083346,31.269984137874143
10g8hr8,9,新广路265弄,121.48130441321982,31.25549004090293
10g8hr9,9,新市北路1390弄,121.48116339700802,31.302947025989752
10g8hra,9,新市南路1215弄,121.48200358208265,31.299998767622622
10g8hrb,9,新市南路780弄,121.47974666429582,31.29578260294235
10g8hrc,9,邢家桥北路163弄,121.48688459973128,31.260011799914118
10g8hrd,9,逸仙路458弄,121.48523387071138,31.30148478672591
10g8hre,9,岳州路425弄,121.5033489241144,31.262124195807484
10g8hnm,9,长春路158号,121.48656935124835,31.26145150975575
10g8hnn,9,长春路168号,121.48655989512885,31.260848080167378
10g8hno,9,长阳路8号,121.50909963455302,31.261560423447055
10g8hrf,9,中山北一路131弄,121.47651132383594,31.272770885952156
10g8hrg,9,中山北一路48号,121.47537720318489,31.269314492226133
10g8hrh,9,周家嘴路628号,121.50070769525699,31.256854651199916
10g8hri,9,周家嘴路734号,121.50198831542276,31.257998119923993
10g8hrj,9,周家嘴路86弄,121.49422409793117,31.25313209009467
10g8hrk,9,株洲路258弄,121.46464714293329,31.27645049739557
10g8hrl,9,株洲路299弄,121.46617868843543,31.277477760814936
10g8guj,1,安平街23弄,121.49192655945677,31.228831465172316
10g8guk,1,保屯路211弄,121.49148704519396,31.204011024044988
10g8gul,1,北京东路288弄,121.48409999528491,31.241433022396212
10g8gum,1,北京东路360弄,121.4829827467589,31.24029225008687
10g8gun,1,北京东路816号,121.47504283849631,31.238255155474896
10g8guo,1,北京西路239弄,121.46936307074391,31.235322381390542
10g8gup,1,北京西路256号,121.46875144710239,31.23576583215545
10g8guq,1,北京西路267号,121.46894481436223,31.235518636322308
10g8gur,1,北孔家弄23弄,121.48535739614628,31.221345052137963
10g8gus,1,曹家街45号,121.48644090050819,31.219087609141955
10g8gut,1,曹家街61号,121.48671394449946,31.218432435618283
10g8guu,1,成都北路1050号,121.46378426708311,31.240386232981304
10g8guv,1,成都北路162弄,121.46787123570002,31.22673511668187
10g8guw,1,成都南路132弄,121.46773789869002,31.22123279808273
10g8gv4,1,打浦路316弄,121.47113224999693,31.20000752535635
10g8gv5,1,打浦路318号,121.47144837761405,31.19945781295999
10g8gv6,1,打浦路339弄,121.47195702112319,31.199825736632306
10g8gv7,1,打浦路38弄,121.46869124970581,31.20469631820648
10g8gv8,1,打浦路398弄,121.47231458117238,31.197792147916314
10g8gv9,1,打浦路500弄,121.47299554476491,31.19635198266777
10g8gva,1,打浦路585弄,121.47418486130053,31.19543677247014
10g8gvb,1,大吉路135弄,121.4846780179753,31.214500543568416
10g8gvc,1,大境路250号,121.48451179770302,31.225091147964534
10g8gvd,1,大林路37号,121.48762505803072,31.213712421284367
10g8gve,1,大兴街115弄,121.48980749637015,31.21303596881046
10g8gvf,1,淡水路266弄,121.47308915434049,31.216277236447212
10g8gvg,1,淡水路442弄,121.47314566000998,31.212056535997906
10g8gvh,1,淡水路89弄,121.47282754715934,31.221263481280108
10g8gvi,1,定兴路24号,121.47105800812778,31.23513532048091
10g8gvj,1,定兴路6号,121.47176578287034,31.235265229041367
10g8gvk,1,东江阴街220号,121.49683055561428,31.213966351307505
10g8gvl,1,东台路279号,121.48273560749269,31.217280640548573
10g8gvm,1,方浜西路45号,121.48253390434672,31.221201819607167
10g8gvn,1,方浜西路59号,121.48229135115643,31.220960789355974
10g8gvo,1,方浜西路63弄,121.48273398745042,31.22050808125074
10g8gvp,1,凤阳路204号,121.47179257859246,31.23463986945853
10g8gvq,1,凤阳路228弄,121.47134980031014,31.234646859995063
10g8gvr,1,福佑路427号,121.48813030824795,31.228151782876253
10g8gvs,1,复兴东路464弄,121.49574883391546,31.221519830997416
10g8gvt,1,复兴东路539号,121.49458222633481,31.222451526156018
10g8gvu,1,复兴东路663弄,121.49209807525565,31.222206856622705
10g8gvv,1,复兴东路701弄,121.49120989172009,31.222553027909044
10g8gvw,1,复兴中路2号,121.4822576489964,31.218634774634438
10g8gvx,1,复兴中路455弄,121.47291872153664,31.215128071396723
10g8gvy,1,复兴中路476号,121.47271182364055,31.21578079058963
10g8gvz,1,复兴中路482号,121.47280436336646,31.21566175815066
10g8gw0,1,复兴中路485弄,121.47175185874558,31.214993360206513
10g8gw1,1,复兴中路490号,121.47232253211548,31.215453251197804
10g8gw2,1,复兴中路53号,121.48177710371124,31.21842715800036
10g8gw3,1,复兴中路553弄,121.46693882831882,31.214578524805102
10g8gw4,1,复兴中路565弄,121.46628696912653,31.21445545285785
10g8gw5,1,傅家街39弄,121.49356899410897,31.224767471878746
10g8gw6,1,高家弄54弄,121.48885799718875,31.220619727099926
10g8gw7,1,牯岭路145弄,121.47164972449795,31.23602095855314
10g8gw8,1,牯岭路178号,121.47069806309499,31.236041725925677
10g8gw9,1,牯岭路180号,121.47055282540933,31.235915914701415
10g8gwa,1,光启路103弄,121.49476755248283,31.223890788463727
10g8gwb,1,光启路215号,121.49401987700799,31.222809197060272
10g8gwc,1,广东路322弄,121.48539720841546,31.23297671659725
10g8gwd,1,广东路339号,121.48474548659615,31.23234243095718
10g8gwe,1,广东路500号,121.48171052775768,31.23264050961974
10g8gwf,1,广西北路118弄,121.47904356439281,31.23135759582369
10g8gwg,1,贵州路112号,121.47639034437253,31.236133962914447
10g8gwh,1,海潮路240弄,121.49726974649856,31.207902202818648
10g8gwi,1,海潮路256弄,121.49675496016452,31.20750189895635
10g8gwj,1,海潮路33号,121.4984803986896,31.21054673491544
10g8gwk,1,合肥路349弄,121.47349947815455,31.213720536762768
10g8gwl,1,合肥路381号,121.47232820200196,31.213516436476375
10g8gwm,1,合肥路592弄,121.47239278033234,31.21400866075742
10g8gwn,1,河南南路1001弄,121.49353532202726,31.213628657414613
10g8gwo,1,河南南路300弄,121.48763830756178,31.225177287923696
10g8gwp,1,河南南路368弄,121.48803633142855,31.223927834458795
10g8gwq,1,河南南路555弄,121.49108703557268,31.220777549193652
10g8gwr,1,河南南路747号,121.49297291872968,31.215787342018082
10g8gws,1,河南南路790弄,121.49089417479125,31.216516809872523
10g8gwt,1,淮海东路89弄,121.48179574212347,31.225362573367676
10g8gwu,1,淮海中路558号,121.46811501348837,31.221007837552772
10g8gwv,1,淮海中路668弄,121.46603272455589,31.22056023720614
10g8gww,1,淮海中路833弄,121.4626084507819,31.218075166614533
10g8gwx,1,淮海中路927弄,121.46083545672818,31.21598468477091
10g8gwy,1,淮海中路99号,121.47865741172548,31.224346227764897
10g8gwz,1,黄陂南路783号,121.47750328199848,31.212387357836917
10g8gx0,1,黄陂南路863弄,121.47857681922308,31.210936174645227
10g8gx1,1,黄河路107弄,121.46939200390246,31.233746144051217
10g8gx2,1,黄河路163号,121.46989285679763,31.235674650596472
10g8gx3,1,黄河路223弄,121.46977471988453,31.236683117819673
10g8gx4,1,黄河路253弄,121.46744052369611,31.237056085992325
10g8gx5,1,黄河路281弄,121.4688280953834,31.23708484093207
10g8gx6,1,黄家阙路68弄,121.48714444127584,31.214895275470226
10g8gx7,1,黄家阙路88弄,121.48770274265208,31.214756779873237
10g8gx8,1,建国东路489弄,121.47330384289852,31.211051898063044
10g8gx9,1,建国西路70号,121.46524895786065,31.207980523381636
10g8gxa,1,建国西路71号,121.46539629093863,31.20793402386489
10g8gxb,1,建国西路91弄,121.46554940386544,31.20678881687711
10g8gxc,1,建国新路91号,121.48142086451013,31.213943040372108
10g8gxd,1,建国中路1号,121.47159148036563,31.21044003530807
10g8gxe,1,建国中路26号,121.46781721310381,31.20896078622703
10g8gxf,1,江西中路412弄,121.48580042490728,31.241520017066325
10g8gxg,1,江西中路420号,121.48550894966715,31.241279373766492
10g8gxh,1,江西中路467号,121.48500768026425,31.241878821039176
10g8gxi,1,江阴街16号,121.49477115973743,31.214095685056737
10g8gxj,1,金坛路35弄,121.4980829901992,31.21972707800787
10g8gxk,1,进贤路157号,121.45954770113615,31.221376753516918
10g8gxl,1,静修路104弄,121.48708036987232,31.21952206377254
10g8gxm,1,静修路10弄,121.488488606164,31.219581835839108
10g8gxn,1,静修路114弄,121.48710608720049,31.2192114734154
10g8gxo,1,静修路126弄,121.4866559280524,31.219271644828307
10g8gxp,1,静修路41号,121.48789260032913,31.22030326066125
10g8gxq,1,静修路43号,121.48683239612413,31.219075728953435
10g8gxr,1,静修路64弄,121.48763125406352,31.219735549184392
10g8gxs,1,静修路66号,121.4874432171453,31.21996374322711
10g8gxt,1,静修路76号,121.48728875673764,31.21985851067046
10g8gxu,1,静修路79弄,121.48725416483512,31.22015650607159
10g8gxv,1,静修路80号,121.48730195298889,31.219552286758855
10g8gxw,1,局门后路7号,121.48034295801092,31.20955997715584
10g8gxx,1,局门路241弄,121.48059139523983,31.20779384852104
10g8gxy,1,局门路361弄,121.48233877094246,31.204467765537917
10g8gxz,1,局门路434弄,121.48091622201683,31.20245630221533
10g8gy0,1,局门路620号,121.48278070302511,31.19998575671143
10g8gy1,1,巨鹿路153弄,121.46447337774846,31.223059761429088
10g8gy2,1,巨鹿路17号,121.46870048470744,31.223645645853534
10g8gy3,1,巨鹿路1号,121.46907466135782,31.223673133365367
10g8gy4,1,巨鹿路260弄,121.4619026474731,31.22341105323706
10g8gy5,1,巨鹿路391弄,121.45918666182283,31.222457726953525
10g8gy6,1,巨鹿路3号,121.46905230514163,31.22341385822915
10g8gy7,1,巨鹿路403号,121.45813100306727,31.222257584708387
10g8gy8,1,丽园路694弄,121.47963993367762,31.207022736870066
10g8gy9,1,丽园路710弄,121.47936745406356,31.206404559804813
10g8gya,1,丽园路842弄,121.47601670977224,31.205660917455862
10g8gyb,1,丽园路873号,121.47620554486711,31.206618446826003
10g8gyc,1,丽园路887号,121.47488312226315,31.20673291233554
10g8gyd,1,六合路158号,121.47477749245567,31.237290905683434
10g8gye,1,龙华东路522号,121.48029570506876,31.194660770414107
10g8gyf,1,鲁班路277弄,121.47556974430302,31.20460211985936
10g8gyg,1,鲁班路388弄,121.47451687901614,31.201572432899813
10g8gyh,1,鲁班路721弄,121.47874988795547,31.197262147930964
10g8gyi,1,鲁班路778弄,121.47889731622905,31.192772248886936
10g8gyj,1,露香园路118弄,121.48427875585368,31.22500584033691
10g8gyk,1,马当路306弄54号,121.47349565367206,31.21744050928618
10g8gyl,1,马当路588弄,121.47597785135336,31.210442447467983
10g8gym,1,茂名南路159弄,121.46228690187533,31.216057725593455
10g8gyn,1,茂名南路169弄,121.46244653536438,31.215092556446542
10g8gyo,1,茂名南路58号,121.46003423866993,31.22000233612705
10g8gyp,1,茂名南路59号,121.4607971629561,31.21999474435978
10g8gyq,1,蒙自路345弄,121.47860925213824,31.20423272035581
10g8gyr,1,蒙自路395弄,121.48012426518966,31.20285285203108
10g8gys,1,蒙自路440弄,121.47885323177968,31.20204080447971
10g8gyt,1,蒙自路490弄,121.47945037543077,31.200847545962688
10g8gyu,1,蒙自西路28弄,121.4764415460541,31.207161378758062
10g8gyv,1,蒙自西路2号,121.47643365950552,31.2076049655279
10g8gyw,1,梦花街78弄,121.48875988606528,31.21857743961166
10g8gyx,1,梦花街93弄,121.48811788289562,31.219179433756462
10g8gyy,1,南昌路137号,121.46328102296098,31.217315279492723
10g8gyz,1,南昌路209弄,121.46018114136638,31.215320422971597
10g8gz0,1,南昌路244弄,121.46464935852646,31.217882671950296
10g8gz1,1,南昌路338号,121.46140972814324,31.21608691312902
10g8gz2,1,南塘浜路102号,121.47245632769895,31.203307070213967
10g8gz3,1,南塘浜路18弄,121.47725997974078,31.20478762509584
10g8gz4,1,南塘浜路93弄,121.47414973704552,31.204257113782663
10g8gz5,1,宁安路99弄,121.48606667445613,31.21632091093805
10g8gz6,1,宁波路266号,121.48217490487019,31.23871691469618
10g8gz7,1,宁波路284弄,121.48182022475015,31.238762426786153
10g8gz8,1,宁波路74弄,121.48521890537299,31.239619054158524
10g8gz9,1,牌楼路27号,121.48618156234694,31.214235323598544
10g8gza,1,平望街15弄,121.47914448078008,31.231398016959318
10g8gzb,1,平望街21-23号,121.4791588699017,31.231511491050934
10g8gzc,1,平望街27号,121.47895760923575,31.231832785806027
10g8gzd,1,平望街29号,121.4792726706803,31.23142701187132
10g8gze,1,平望街36弄,121.47904410990787,31.231952242778238
10g8gzf,1,平望街9号,121.47922572308765,31.23150389004834
10g8gzg,1,普育东路32弄,121.49619573034116,31.210407551719268
10g8gzh,1,普育东路71弄,121.49728175587488,31.209975717138594
10g8gzi,1,乔家路190弄,121.49510701772601,31.217880266589553
10g8gzj,1,瞿溪路1053弄,121.47551261755213,31.200064515125803
10g8gzk,1,瞿溪路1111弄,121.47388707902668,31.200474023562986
10g8gzl,1,瞿溪路114号,121.49512064331905,31.207022877753882
10g8gzm,1,瞿溪路1168号,121.47270382061944,31.198034613792558
10g8gzn,1,瞿溪路1199弄,121.47122866671874,31.198490681399896
10g8gzo,1,瞿溪路1200弄,121.4727564956011,31.19724219801973
10g8gzp,1,瞿溪路120弄,121.4953713876546,31.206676354048785
10g8gzq,1,瞿溪路1240弄,121.47044200816273,31.197130466158505
10g8gzr,1,瞿溪路124号,121.49445517050758,31.206367837473504
10g8gzs,1,瞿溪路1254弄,121.47042041242374,31.197158691875046
10g8gzt,1,瞿溪路31号,121.49649027784682,31.207180487315085
10g8gzu,1,瞿溪路55号,121.49565567471662,31.20731939508177
10g8gzv,1,瞿溪路800弄,121.48115343298353,31.200599935157104
10g8gzw,1,瞿溪路838号,121.48043552684885,31.200686174914477
10g8gzx,1,瞿溪路883弄,121.47853842517942,31.20175914831433
10g8gzy,1,瞿溪路926弄,121.47900146653483,31.19954234760938
10g8gzz,1,瞿溪路937弄,121.47754120367577,31.200345834345402
10g8h00,1,人民路777弄,121.48483901565328,31.227165215162515
10g8h01,1,人民路879号,121.4834481942648,31.226350743531977
10g8h02,1,汝南街64号,121.48491791442969,31.20293991813779
10g8h03,1,汝南街70弄,121.48423811045095,31.202380099433284
10g8h04,1,汝南街76号,121.483952630732,31.20251241495367
10g8h05,1,汝南街84号,121.48354458920019,31.202413346351122
10g8h06,1,瑞金二路118号,121.46500051473143,31.21341200991529
10g8h07,1,瑞金二路129弄,121.4656901007737,31.213192697663313
10g8h08,1,瑞金二路132弄,121.4659852273307,31.21104332801456
10g8h09,1,瑞金二路139号,121.46539659618271,31.213465349083528
10g8h0a,1,瑞金二路225弄,121.4679208861329,31.208017817706995
10g8h0b,1,瑞金二路24号,121.46396687135653,31.21790556994385
10g8h0c,1,瑞金二路410弄,121.46580424278295,31.206929355364185
10g8h0d,1,瑞金二路70弄,121.46403847843165,31.21565276469799
10g8h0e,1,瑞金南路271弄,121.4685916515487,31.199155110180865
10g8h0f,1,瑞金南路333弄,121.46943768389373,31.198559130698495
10g8h0g,1,瑞金一路126弄,121.46348263912239,31.219878734631944
10g8h0h,1,瑞金一路79弄,121.46311039946443,31.22252611493231
10g8h0i,1,山西南路292号,121.48148565582929,31.23880875347207
10g8h0j,1,山西南路330号,121.48150429600202,31.23927656457804
10g8h0k,1,陕西南路155号,121.46101292528883,31.214852715572007
10g8h0l,1,陕西南路15号,121.45717137444447,31.22198082692403
10g8h0m,1,陕西南路271弄,121.4640255184968,31.208315272442693
10g8h0n,1,陕西南路287弄,121.46246930522486,31.207345346022976
10g8h0o,1,陕西南路39弄,121.45804128011254,31.219369283114084
10g8h0p,1,陕西南路5号,121.45766092916861,31.222735231977467
10g8h0q,1,尚文路185号,121.49027633526234,31.215612181714327
10g8h0r,1,绍兴路21号,121.46322537291935,31.20913616803943
10g8h0s,1,绍兴路60号,121.46398179104834,31.20941259259388
10g8h0t,1,绍兴路76弄,121.46309899625,31.20920225921853
10g8h0u,1,绍兴路88弄,121.46287973895298,31.209008486450877
10g8h0v,1,绍兴路96弄,121.46238650300948,31.20920010222016
10g8h0w,1,盛家街6号,121.49397616596,31.223935566892372
10g8h0x,1,顺昌路168弄,121.47720709595353,31.21814171780341
10g8h0y,1,顺昌路550弄,121.4794044952672,31.211723943225792
10g8h0z,1,顺昌路612弄36号,121.47923082098026,31.211391063374887
10g8h10,1,顺昌路612弄51号,121.47871525527187,31.21120908749734
10g8h11,1,思南路113号,121.4711644572867,31.208791774549795
10g8h12,1,思南路82弄,121.47025567850996,31.209772402272225
10g8h13,1,思南路88弄,121.47098254178522,31.208734074711227
10g8h14,1,思南路97号,121.46964038586275,31.211006464335956
10g8h15,1,思南路9号,121.46628113408586,31.219187524304427
10g8h16,1,四川中路467号,121.4879613513907,31.238396250758928
10g8h17,1,四川中路565号,121.48641366017395,31.241099359629157
10g8h18,1,四牌楼路104号,121.49519607641311,31.223690998574664
10g8h19,1,四牌楼路110号,121.49541426947147,31.22370917454341
10g8h1a,1,四牌楼路112号,121.4950565227937,31.223691252389614
10g8h1b,1,四牌楼路114号,121.49520060208009,31.223527609838207
10g8h1c,1,四牌楼路148号,121.49560619882381,31.22303688567113
10g8h1d,1,四牌楼路149号,121.49578748741233,31.222925317116175
10g8h1e,1,泗泾路27号,121.48660183472556,31.233067534067363
10g8h1f,1,泰康路190弄,121.46970686824442,31.20789197617139
10g8h1g,1,泰康路21号,121.47047926706412,31.208163036389045
10g8h1h,1,泰康路274弄,121.4682652019475,31.207774233135574
10g8h1i,1,泰康路316弄,121.46755256762938,31.207440567632087
10g8h1j,1,天津路179弄,121.48271426344103,31.238115859148454
10g8h1k,1,铁道路676号,121.4764260400797,31.196594409287883
10g8h1l,1,铁道路684号,121.47590287688072,31.196129950861494
10g8h1m,1,铁道路776弄,121.47555633621647,31.195978189274737
10g8h1n,1,外马路453号,121.50660239355656,31.219121110529784
10g8h1o,1,外马路574号,121.50677337108003,31.21808815048397
10g8h1p,1,望云路45号,121.49237359457939,31.221239789405473
10g8h1q,1,吾园街142号,121.49086619692476,31.217715669584656
10g8h1r,1,五里桥路28弄,121.48358152381634,31.204059890376257
10g8h1s,1,武胜路429弄,121.47117781412416,31.227370031963392
10g8h1t,1,西仓桥街155号,121.48900032677027,31.220415428347952
10g8h1u,1,西藏南路1130号,121.48611863716015,31.21065185963051
10g8h1v,1,西藏南路1207弄,121.48704574490266,31.20969135509019
10g8h1w,1,西藏南路1374弄,121.48606862993437,31.205484286574915
10g8h1x,1,西藏南路1717弄,121.49148937855334,31.199782841605654
10g8h1y,1,西藏南路900弄,121.4846362512599,31.213712747804568
10g8h1z,1,西凌家宅路105号,121.48641350035321,31.204267648501407
10g8h20,1,西凌家宅路146号,121.48571447790793,31.203797519628
10g8h21,1,县左街24弄,121.49481709627153,31.224035686938034
10g8h22,1,县左街46号,121.49449135226065,31.224324062509492
10g8h23,1,县左街6号,121.49494628619935,31.2245296514726
10g8h24,1,斜土路102号,121.4830444616954,31.206301688062698
10g8h25,1,斜土路108号,121.4826785498737,31.20601904300215
10g8h26,1,斜土路112号,121.48235582258228,31.206040305600073
10g8h27,1,斜土路118弄,121.48287368157982,31.20546782086673
10g8h28,1,斜土路262弄,121.48091146720363,31.204894893182598
10g8h29,1,斜土路270号,121.48057973209984,31.205253819490665
10g8h2a,1,斜土路280号,121.48038129982397,31.205093415774133
10g8h2b,1,斜土路298弄,121.4805222023381,31.204567199969812
10g8h2c,1,斜土路460弄,121.47752848952436,31.203040035961468
10g8h2d,1,斜土路500号,121.47695834619311,31.20331845651429
10g8h2e,1,斜土路530号,121.4764124015607,31.20322126756236
10g8h2f,1,斜土路540号,121.4761460208774,31.202953658034865
10g8h2g,1,斜土路556弄,121.4757874150562,31.20243901464453
10g8h2h,1,斜土路645号,121.47326555625447,31.202795856193102
10g8h2i,1,斜土路688号,121.47302642723942,31.20235800026935
10g8h2j,1,斜土路80弄,121.4838784701874,31.20558538731151
10g8h2k,1,斜土路810弄,121.46987260005186,31.20067913704515
10g8h2l,1,斜土路85弄,121.48315432606725,31.206703709172086
10g8h2m,1,新昌路346号,121.46784638450124,31.23662940933151
10g8h2n,1,新昌路87弄,121.46879214627201,31.232776589874693
10g8h2o,1,新闸路166号,121.47054896616707,31.23856060870316
10g8h2p,1,新闸路280号,121.46768377569083,31.23932958476656
10g8h2q,1,新闸路362号,121.46697119305709,31.23942704442573
10g8h2r,1,徐家汇路268号,121.47717053672334,31.2105274101566
10g8h2s,1,徐家汇路515弄,121.47542210222669,31.20851839972378
10g8h2t,1,徐家汇路528号,121.47108809569458,31.206967394851578
10g8h2u,1,徐家汇路536弄,121.47268046602035,31.202941688205616
10g8h2v,1,徐家汇路552弄,121.47009148100996,31.20667531246793
10g8h2w,1,徐家汇路599号,121.47369830452661,31.205675456592544
10g8h2x,1,徐家汇路618号,121.46825264049892,31.206306922901764
10g8h2y,1,薛家浜路218号,121.50207716723017,31.211308056234135
10g8h2z,1,学宫街19弄,121.48807742543801,31.21864472854479
10g8h30,1,学宫街23弄,121.48848265058774,31.218763173648302
10g8h31,1,学宫街43弄,121.48850687234436,31.21830657190969
10g8h32,1,学前街156号,121.4898926468633,31.214833937373523
10g8h33,1,学院路121弄,121.49534578586459,31.22333942330224
10g8h34,1,学院路137号,121.49475437404777,31.223019329962113
10g8h35,1,学院路189号,121.49372378386903,31.223195034375678
10g8h36,1,学院路79弄,121.49593727152336,31.223495481821537
10g8h37,1,巡道街88弄,121.49710425151875,31.219330862061064
10g8h38,1,延安东路1310弄,121.47093379501423,31.22567068687155
10g8h39,1,雁荡路10弄,121.4697466066736,31.220951638264903
10g8h3a,1,雁荡路88号,121.4695338355317,31.218639689518504
10g8h3b,1,永安路14号,121.49184320285471,31.23073200582957
10g8h3c,1,永嘉路19弄,121.46429087883843,31.211027084918644
10g8h3d,1,永年路120号,121.47935611092059,31.212081551351247
10g8h3e,1,永年路149弄,121.47869744971281,31.211428169689636
10g8h3f,1,永年路74号,121.4802420954927,31.212541339519607
10g8h3g,1,张家弄132号,121.49211195727602,31.222779750755024
10g8h3h,1,长乐路169弄,121.4622556357969,31.220961717875486
10g8h3i,1,长乐路193号,121.45935761914797,31.220221522978886
10g8h3j,1,长乐路81号,121.46843844958573,31.22209627006153
10g8h3k,1,肇周路395号,121.48178625846526,31.21266243881669
10g8h3l,1,浙江中路400号,121.47852083637369,31.236166964236638
10g8h3m,1,制造局路466弄,121.4842657549287,31.204726358872136
10g8h3n,1,制造局路646弄,121.48495709325702,31.20218300908093
10g8h3o,1,制造局路87号,121.48291636889606,31.209923284777865
10g8h3p,1,中华路1409号,121.48583044133696,31.217863519514644
10g8h3q,1,中山南路1586弄,121.49480367325818,31.205599054544532
10g8h3r,1,中山南路36号,121.4994724190456,31.22434636973319
10g8h3s,1,中山南一路1020弄,121.47265365264528,31.195300581131544
10g8h3t,1,中山南一路1065号,121.47235326642941,31.196251448015055
10g8h3u,1,中山南一路1109弄,121.4705267465781,31.195677863874177
10g8h3v,1,中山南一路500弄,121.48558727686759,31.199460890140827
10g8h3w,1,中山南一路892号,121.4763234769431,31.196776159778533
10g8gux,1,重庆北路212号,121.4697572344298,31.2272498229608
10g8guy,1,重庆南路169弄,121.47243857072988,31.21703996609709
10g8guz,1,重庆南路229弄,121.4722184186856,31.212050675359535
10g8gv0,1,重庆南路252号,121.46987449357887,31.214438271896583
10g8gv1,1,重庆南路26弄,121.47141828402543,31.2200859253515
10g8gv2,1,重庆南路298弄,121.4706418454587,31.211025033937695
10g8gv3,1,重庆南路30弄,121.47101100465095,31.21948598008825
10g8h3x,1,庄家街92号,121.48846762585335,31.219732580818704
10g8ifa,e,安新路968号,121.31441630042768,31.462483572491177
10g8ifb,e,宝安公路3799号,121.2633117816145,31.3232291496988
10g8ifc,e,宝安公路4188号,121.22831914754747,31.318645602662887
10g8ifd,e,曹安公路1986号,121.35347647672029,31.257394608886575
10g8ife,e,曹安公路1991号,121.21486045582975,31.27392791867891
10g8iff,e,曹安公路1993号,121.35205632292134,31.256749170264243
10g8ifg,e,曹安公路2098号,121.34797557074879,31.259763580119813
10g8ifh,e,曹安公路2266号,121.34460034947008,31.260563574070954
10g8ifi,e,曹安公路2268号,121.26956791540984,31.273572250187204
10g8ifj,e,曹安公路2742号,121.3277849522763,31.26399345255037
10g8ifk,e,曹安公路2831弄,121.32266630509575,31.263834330623816
10g8ifl,e,曹王村,121.3062093384194,31.440277718435127
10g8ifm,e,陈村村,121.32584189034213,31.356865506525963
10g8ifn,e,春海路355弄,121.23091489840229,31.279669141799516
10g8ifo,e,慈竹路1087弄,121.20884224547925,31.382524337463135
10g8ifp,e,德园路366弄,121.30960762616033,31.294721517608398
10g8ifq,e,邓家角村,121.19984869622724,31.25765350563625
10g8ifr,e,方泰村,121.20848210952724,31.315261769572626
10g8ifs,e,芳林路333弄,121.31955652654929,31.301059018014477
10g8ift,e,芳林路398弄,121.32021261446955,31.302686316262445
10g8ifu,e,丰功路555号,121.29922911323894,31.34709700523387
10g8ifv,e,丰庄北路166弄,121.35879229948269,31.24732444306295
10g8ifw,e,丰庄路450弄,121.36535060138749,31.247045620369402
10g8ifx,e,封周路605弄,121.26929033445205,31.330263623340276
10g8ify,e,福海路1028弄,121.23676709077853,31.364364345290028
10g8ifz,e,福海路111弄,121.25500316218505,31.369506451325837
10g8ig0,e,葛隆村,121.1505583247241,31.389758831959835
10g8ig1,e,龚闵村,121.18021512006106,31.25927270895535
10g8ig2,e,共和街154号,121.30652545853864,31.29554856108275
10g8ig3,e,古猗园路281弄,121.31394830814878,31.29028357674018
10g8ig4,e,海波路1000弄,121.32994992148042,31.269986724553107
10g8ig5,e,海波路118弄,121.34583948777056,31.267676935158036
10g8ig6,e,海波路127弄,121.34519650872267,31.266930719354214
10g8ig7,e,海波路333弄,121.34090934566181,31.266372714101855
10g8ig8,e,海波路366号,121.33766133313289,31.26749688780363
10g8ig9,e,海川路177号,121.34875820595724,31.264214271092385
10g8iga,e,海川路178弄,121.34903261576517,31.264465502318412
10g8igb,e,海川路58弄,121.34940805489053,31.26459034409501
10g8igc,e,海蓝路318弄,121.34204002610262,31.263441804779475
10g8igd,e,海蓝路98弄,121.34978301079593,31.261322595102357
10g8ige,e,和桥村,121.32921960026704,31.417132956525347
10g8igf,e,鹤望路365弄,121.32696617288134,31.24608905967468
10g8igg,e,鹤旋路358号,121.3132265524138,31.238620290398124
10g8igh,e,红石路333弄,121.22921208256705,31.377765490036754
10g8igi,e,红翔村,121.30606340867722,31.287572593321325
10g8igj,e,洪德路1285弄,121.24093080423921,31.349981990059604
10g8igk,e,沪宜公路1866弄,121.29269587368442,31.32260575504481
10g8igl,e,沪宜公路2588号,121.27856090097599,31.34289354339302
10g8igm,e,华江路136弄,121.34139838042216,31.255256523118547
10g8ign,e,华江路17号,121.3467078515378,31.25793263453525
10g8igo,e,华江路370号,121.33470093181111,31.24975450933215
10g8igp,e,华江路786号,121.32886515527736,31.242706406149065
10g8igq,e,华江支路312号,121.33931604929441,31.258460802345063
10g8igr,e,华江支路328弄,121.34045109661477,31.2596873064684
10g8igs,e,华江支路600弄,121.34085570641226,31.264155157037003
10g8igt,e,华江支路677弄,121.33656313584095,31.265248225146674
10g8igu,e,黄家花园路88弄,121.32154718384629,31.252729465991973
10g8igv,e,火线村,121.27425465691388,31.279461987459833
10g8igw,e,嘉安公路3333弄,121.18742637340924,31.332499377040925
10g8igx,e,嘉程路900弄,121.27936382365645,31.299314405505022
10g8igy,e,嘉涛路60弄,121.32994806790336,31.26588090151425
10g8igz,e,嘉怡路279弄,121.34664819899065,31.265113407616006
10g8ih0,e,嘉怡路382号,121.34825877817833,31.266221449468325
10g8ih1,e,嘉峪关路379弄,121.31581840761523,31.26994906865379
10g8ih2,e,建华村,121.34864768780331,31.26118594754544
10g8ih3,e,江佳路188号,121.34328790838767,31.25906833578425
10g8ih4,e,金鼎路2588弄,121.35975643739707,31.261080945560305
10g8ih5,e,金沙江路2753弄,121.36137797983433,31.240796218569567
10g8ih6,e,金沙江路2788弄,121.36234085418369,31.24161426016158
10g8ih7,e,金沙江路2823弄,121.35899278606198,31.24101056703547
10g8ih8,e,金汤路655弄,121.3767238501242,31.251332512576642
10g8ih9,e,金通路1737弄,121.32312856425034,31.284860736036386
10g8iha,e,金耀南路299弄,121.30893146017424,31.235892446398765
10g8ihb,e,金耀南路300弄,121.31288615066966,31.23702445214898
10g8ihc,e,靖远路696号,121.33500418965367,31.254544015582955
10g8ihd,e,靖远路799弄,121.33184917100738,31.254231340013806
10g8ihe,e,劳动村,121.32266346769423,31.44399884616782
10g8ihf,e,乐惠路701弄,121.26908393754584,31.30523652880674
10g8ihg,e,临洮路1000弄,121.33457140472613,31.26739353062555
10g8ihh,e,临洮路1001弄,121.33136374036917,31.26762918689326
10g8iho,e,临夏路1000弄,121.3226409886499,31.26063393617098
10g8ihl,e,临夏路1012号,121.32215148548745,31.25958788084916
10g8ihm,e,临夏路1016号,121.32202744621823,31.259562078163132
10g8ihi,e,临夏路110号,121.33614352886933,31.25810669043402
10g8ihj,e,临夏路968号,121.32406530595408,31.258757968996232
10g8ihk,e,临夏路978号,121.32347277924993,31.25874758161352
10g8ihn,e,临夏路999弄,121.32244248369031,31.258014951709065
10g8ihp,e,浏翔公路6700号,121.28465615996431,31.460812657180973
10g8ihq,e,柳湖路88弄,121.25012431413776,31.3972958602542
10g8ihr,e,民乐路100弄,121.25568495807138,31.368680908811438
10g8ihs,e,南华路101弄,121.3081219924799,31.288075708511037
10g8iht,e,栖林路20号,121.3183181390461,31.30974244686401
10g8ihu,e,启宁路456弄,121.2792113905729,31.40923893410682
10g8ihv,e,曲江路100弄,121.34563195316255,31.25485495530895
10g8ihw,e,曲江路15弄,121.34838926426652,31.256185621637915
10g8ihx,e,曲江路99弄,121.34772281228466,31.25485391646144
10g8ihy,e,瞿门路399弄,121.16477063581188,31.36175917298563
10g8ihz,e,三里村,121.20001105243944,31.452939937565525
10g8ii0,e,胜辛北路1888弄,121.20246308259267,31.41443068553583
10g8ii1,e,胜辛南路1968号,121.2601121138363,31.321723190978684
10g8ii2,e,曙光村,121.32522554202147,31.298833362073076
10g8ii3,e,双单路1509弄,121.25190105599782,31.326698057042204
10g8ii4,e,顺宁路501弄,121.27480138432875,31.40707681666741
10g8ii5,e,泰顺路475弄,121.21227882758231,31.30958728735538
10g8ii6,e,桃园新村,121.24570805038306,31.38851361497521
10g8ii7,e,铜川路2188弄,121.37812461929784,31.254576788217857
10g8ii8,e,铜川路2588弄,121.36861750889352,31.25616389096387
10g8ii9,e,铜川路2688弄,121.36562616864363,31.2571077521161
10g8iia,e,蕰北公路2371弄,121.31480603930068,31.3219152097239
10g8iib,e,卧龙路333弄,121.31244920653953,31.270799522449327
10g8iic,e,五四村,121.32682087100612,31.249915865366802
10g8iid,e,喜泉路118弄,121.15657462534737,31.371158298740095
10g8iie,e,先农村,121.32488165998751,31.263503194866978
10g8iif,e,翔封路129弄,121.29432242542866,31.273552007932565
10g8iig,e,翔江公路2338弄,121.2858588416502,31.28967520652579
10g8iih,e,小庙村,121.30036399899521,31.423347239629546
10g8iii,e,新华村,121.30532410840858,31.245107773014578
10g8iij,e,新江村,121.27217050266543,31.264957466330575
10g8iik,e,新郁路846弄,121.36360424622036,31.251898716165428
10g8iil,e,新源路1317号,121.1507562792277,31.30878349098914
10g8iim,e,星华公路1595号,121.29999518652922,31.268818889953867
10g8iin,e,星华公路1597号,121.29999466264846,31.26893947230115
10g8iio,e,星华公路1945号,121.29057106874758,31.272318480334445
10g8iip,e,星火村,121.31701513932386,31.2636811652545
10g8iiq,e,兴顺路555号,121.19113979582434,31.444041729135854
10g8iir,e,幸福村,121.33938492010253,31.24647987801736
10g8iis,e,叶城东路363弄,121.26524566861713,31.375790356344236
10g8iit,e,玉兰一村,121.16153827742784,31.297319368520647
10g8iiu,e,园区路1218号,121.18722692004714,31.315405028693824
10g8iiv,e,云谷路599弄,121.2537597586841,31.332393200468317
10g8iiw,e,增建村,121.29001571421624,31.24214132427041
10g8iix,e,张掖路355号,121.33477152474028,31.258826916947115
10g8iiy,e,长泾村,121.16344760998254,31.344157258316972
10g8iiz,e,智翔路8号,121.31439349452995,31.31176844237741
10g8ij0,e,众仁路388弄,121.3262296891238,31.29040570024543
10g8ij1,g,板桥西路1221号,121.3257299742482,30.728678645591927
10g8ij2,g,板桥西路1668号,121.31603236336419,30.728193742018455
10g8ij3,g,北泰路318弄,121.31542230199109,30.730215583969258
10g8ij4,g,博海路118弄,121.31346967888715,30.833277292336785
10g8ij5,g,东新村,121.32299653626671,30.878800966862432
10g8ij6,g,海芙路228弄,121.34618177508153,30.751504133386277
10g8ij7,g,红旗新村,121.15765170091505,30.894994069219894
10g8ij8,g,金南街801弄,121.16187739652297,30.87940612107661
10g8ij9,g,立新村,121.34200141025521,30.858478100216907
10g8ija,g,林珍路59弄,121.32425024107629,30.89842214003429
10g8ijb,g,龙皓路1588弄,121.32639853994895,30.7523889256119
10g8ijc,g,龙皓路398弄,121.34877669629658,30.76034038421306
10g8ijd,g,龙轩路1989弄,121.31980670604995,30.74283068274665
10g8ije,g,龙轩路789弄,121.34384680355795,30.750901058372946
10g8ijf,g,龙堰路1558号,121.33385241972215,30.76083421640488
10g8ijg,g,泖桥村,121.10501420194592,30.89949577834618
10g8ijh,g,蒙山路1998弄,121.34347820009776,30.734898227612454
10g8iji,g,南阳湾路1288弄,121.31380369517565,30.736261900957047
10g8ijj,g,农建村,121.31429399669041,30.752558407503553
10g8ijk,g,清泉路79号,121.17839440143582,30.888879526468727
10g8ijl,g,山德路29号,121.36641413457623,30.781133553458393
10g8ijm,g,施三路8号,121.32704915051983,30.723951642424314
10g8ijn,g,塘园路238弄,121.16363981377067,30.884496343162326
10g8ijo,g,亭东村,121.33869844756887,30.88417391819132
10g8ijp,g,万寿新村,121.32647631495209,30.731572679178385
10g8ijq,g,卫城村,121.31858488179157,30.724100963332585
10g8ijr,g,西静路1429弄,121.31027206006276,30.74357697476429
10g8ijs,g,西林街350弄,121.15634367885126,30.895430454027494
10g8ijt,g,学府路818弄,121.32408654724064,30.730596431969296
10g8iju,g,油车村,121.29242079175529,30.85190216596095
10g8ijv,g,中山街31号,121.31457399231351,30.880057587765236
10g8ijw,g,周栅村,121.2646262519091,30.872620533898406
10g8h3y,6,安远路363号,121.44281268018706,31.239336490536623
10g8h3z,6,安远路899弄,121.43218069027182,31.23419629861711
10g8h40,6,宝昌路321号,121.47485725977441,31.258159234254858
10g8h41,6,宝山路499弄,121.47819044750159,31.25776419708629
10g8h42,6,保德路1238弄,121.44540095128296,31.317409156760057
10g8h43,6,北宝兴路10弄,121.46695360782239,31.270498078178807
10g8h44,6,北宝兴路30号,121.46752652389594,31.270750058531586
10g8h45,6,北京西路1192号,121.45721565691692,31.230602967323723
10g8h46,6,北京西路1345号,121.44987060878756,31.228343811884532
10g8h47,6,北京西路1465号,121.44814649282051,31.226987590151847
10g8h48,6,昌化路453弄,121.45012109468013,31.23887957204306
10g8h4d,6,场中路1129弄,121.46506245712393,31.30636080703892
10g8h4e,6,场中路1909弄,121.45871902807863,31.306232178401288
10g8h4f,6,场中路2018号,121.45229100128051,31.30480958751745
10g8h4g,6,场中路2380弄,121.44487940014805,31.30459841762131
10g8h4h,6,场中路2471弄,121.44293736892796,31.30613759324225
10g8h4i,6,场中路2800弄,121.44092116446645,31.30362690422985
10g8h4j,6,场中路2950弄,121.43823958951864,31.30312751344567
10g8h4k,6,场中路3386弄,121.42746688865574,31.302882329981937
10g8h4l,6,成都北路979号,121.46326913957837,31.239154191162424
10g8h4m,6,大宁路883弄,121.44198698923009,31.27129583087135
10g8h4n,6,东宝兴路1000号,121.47193117805855,31.265395984811544
10g8h4o,6,汾西路451号,121.45693405572354,31.31254779408099
10g8h4p,6,汾西路621号,121.45486413559705,31.313300077905726
10g8h4q,6,汾西路880弄,121.44905875488405,31.313704271598038
10g8h4r,6,汾西路885弄,121.45006949703279,31.312521597520586
10g8h4s,6,汾西路88弄,121.46794302895994,31.315157489910796
10g8h4t,6,富民路164弄,121.45122673960682,31.218894682019055
10g8h4u,6,高平路131号,121.43024562562519,31.278931242524447
10g8h4v,6,公兴路11号,121.47564448246895,31.25288831458903
10g8h4w,6,公兴路39弄,121.47572652313505,31.253294254665782
10g8h4x,6,共和新路1233弄,121.45338048061319,31.27341527865212
10g8h4y,6,共和新路1304弄,121.45923643580424,31.263923401395015
10g8h4z,6,共和新路1700弄,121.45565520974723,31.269485858032983
10g8h50,6,共和新路3616弄,121.44855339750902,31.302934318897535
10g8h51,6,广延路1188弄,121.45492441681162,31.291327574344468
10g8h52,6,广中西路99弄,121.44981027838551,31.280132932357944
10g8h53,6,海防路429弄,121.44541001688474,31.23781064104294
10g8h54,6,海宁路1399号,121.46838116154817,31.244101393353894
10g8h55,6,恒丰北路100号,121.45127558324138,31.255264432692453
10g8h56,6,恒丰北路90弄,121.4507719945145,31.25393717094912
10g8h57,6,沪太路1051弄,121.42883914975653,31.27663903343733
10g8h58,6,沪太路365号,121.4519876682922,31.25588230045654
10g8h59,6,沪太路631弄,121.44879136312717,31.260639608166716
10g8h5a,6,沪太路883弄,121.43660761083905,31.270815239684126
10g8h5b,6,沪太支路566弄,121.42292661991885,31.292675121927335
10g8h5c,6,华山路251弄,121.44620400213824,31.219513084562667
10g8h5d,6,华山路285弄,121.44701373418948,31.219525414691017
10g8h5e,6,会文路5号,121.47158657369208,31.25337504343183
10g8h5f,6,江场西路1366弄,121.4239968593506,31.296231175554755
10g8h5g,6,交城路229弄,121.42904488555291,31.293902395166185
10g8h5h,6,胶州路699号,121.43964713026523,31.23475393196537
10g8h5i,6,晋元路88弄,121.47010949545077,31.241120572297596
10g8h5j,6,景凤路403弄,121.45973045124167,31.319690427561927
10g8h5k,6,巨鹿路820弄,121.44942642829007,31.219515422160743
10g8h5l,6,巨鹿路853号,121.44931531320415,31.218866227671448
10g8h5m,6,康定东路13弄,121.45736812777777,31.237249777623845
10g8h5n,6,康定路460弄,121.44766520385257,31.234025346036375
10g8h5o,6,康定路710弄,121.4431422137072,31.232427330335977
10g8h5p,6,康定路754号,121.44273761546202,31.232122197392773
10g8h5q,6,康乐路256弄,121.47674785158412,31.249429087351167
10g8h5r,6,老沪太路199弄,121.4529999441483,31.269045782385913
10g8h5s,6,老沪太路205号,121.45298230075213,31.268038170764427
10g8h5t,6,临汾路1011号,121.44690371347258,31.31062237917173
10g8h5u,6,临汾路1105弄,121.44390956681673,31.309331887180694
10g8h5v,6,临汾路1320弄,121.43899415088949,31.311397408395216
10g8h5w,6,灵石路737弄,121.43858010072367,31.284846524984697
10g8h5x,6,灵石路963弄,121.43095086715873,31.277539776112608
10g8h5y,6,岭南路236弄,121.45593160242744,31.30985964433464
10g8h5z,6,洛川中路901弄,121.4500960468108,31.26536389877424
10g8h60,6,茂名北路90弄,121.46091081486696,31.22546850138336
10g8h61,6,南京西路1081弄,121.45708136556892,31.22835417110869
10g8h62,6,南京西路580号,121.46591483117173,31.231585107219487
10g8h63,6,南京西路972弄,121.45866207654814,31.2295415601571
10g8h64,6,彭浦新村375号,121.45492831988862,31.310510745467347
10g8h65,6,平顺路182号,121.45236423734565,31.311865599561305
10g8h66,6,平顺路245号,121.45240708429435,31.31317437025274
10g8h67,6,平顺路96号,121.45271823772048,31.310872807738434
10g8h68,6,平型关路377弄,121.46376406965648,31.273297082359186
10g8h69,6,平型关路669弄,121.45967516785832,31.27730655185086
10g8h6a,6,平型关路680弄,121.46019891140308,31.27535776324477
10g8h6b,6,平型关路699弄,121.4597601424552,31.276702511233136
10g8h6c,6,七浦路226号,121.48119354375724,31.246032455929193
10g8h6d,6,虬江路1000号,121.47365704083695,31.25160553105025
10g8h6e,6,虬江路1150弄,121.47041251019554,31.24816220295471
10g8h6f,6,曲阜西路268号,121.46719979199982,31.240882332069596
10g8h6g,6,三泉路821弄,121.43949495760606,31.315616121549258
10g8h6h,6,山西北路222弄,121.4803378925698,31.244498393807028
10g8h6i,6,山西北路399弄,121.47921358468072,31.246538203302322
10g8h6j,6,陕西北路729弄,121.4500808004381,31.234136491327884
10g8h6k,6,陕西北路851号,121.44839682030975,31.236166466509907
10g8h6m,6,少年村路479弄,121.43123289055376,31.299951562791847
10g8h6n,6,升平街41弄,121.46153329659204,31.225097006402596
10g8h6o,6,石门一路26号,121.46346568019415,31.22465697603369
10g8h6p,6,石门一路30号,121.4635887620872,31.224762981772272
10g8h6q,6,石门一路31弄,121.46305708848737,31.22475448296767
10g8h6r,6,寿阳路300号,121.45647484420614,31.300203301481435
10g8h6s,6,谈家桥路90号,121.45277975424891,31.260366862713333
10g8h6t,6,塘沽路77弄,121.49346913826774,31.24722866757806
10g8h6u,6,天目西路55号,121.4586325548263,31.24708764293706
10g8h6v,6,天目中路428号,121.46704961016661,31.24398330181584
10g8h6w,6,天目中路480号,121.46603239610526,31.24360003280443
10g8h6x,6,天目中路749弄,121.4616809809757,31.247582331524907
10g8h6y,6,天通庵路456号,121.47491415001026,31.260267446059924
10g8h6z,6,通阁路187弄,121.47027523372144,31.26007003446075
10g8h70,6,通阁路200弄,121.47066787670649,31.26159194149534
10g8h71,6,万航渡路623弄,121.43365525910974,31.226828257211498
10g8h72,6,万航渡路661弄,121.43277621764635,31.227252838105738
10g8h73,6,万航渡路858弄,121.42924884794833,31.226474263415525
10g8h74,6,万航渡路92号,121.44278097031159,31.224288994267106
10g8h75,6,万荣路1199弄,121.4422214032062,31.293112780070448
10g8h76,6,万荣路388弄,121.44365233044904,31.272810305706514
10g8h77,6,万荣路977号,121.44205648030155,31.288787232438988
10g8h78,6,闻喜路1223弄,121.44216700377959,31.307628026284224
10g8h79,6,武定路650号,121.44674969651078,31.232826122726944
10g8h7a,6,武定西路1320号,121.4320427349104,31.224962004035707
10g8h7b,6,西宝兴路922弄,121.46770709341894,31.269619224380012
10g8h7c,6,西藏北路1139号,121.46614450630997,31.26197347979572
10g8h7d,6,西藏北路1303弄,121.46556128713718,31.263510600042792
10g8h7e,6,西康路911号,121.44293452323687,31.23930418466748
10g8h7f,6,新丰路386号,121.44364024013777,31.238735100174214
10g8h7g,6,新丰路518弄,121.44171841509159,31.238383174777425
10g8h7h,6,新疆路435号,121.46621421407598,31.242939600464922
10g8h7i,6,新疆路518号,121.46660625241539,31.242984226485287
10g8h7j,6,新闸路1132号,121.45453710977661,31.233030562704002
10g8h7k,6,延安中路877弄,121.45404612529418,31.221695702891182
10g8h7l,6,延平路123弄,121.44082064087803,31.22827776635063
10g8h7m,6,延长中路451弄,121.45258175963696,31.271951797170463
10g8h7n,6,延长中路519弄,121.45119482552919,31.270152856569318
10g8h7o,6,延长中路540号,121.45112048767146,31.269094016150582
10g8h7p,6,延长中路561弄,121.45040310211671,31.270037822333553
10g8h7q,6,延长中路700弄,121.44711152102346,31.26646961616476
10g8h7r,6,阳城路100弄,121.42957477365752,31.28478709686026
10g8h7s,6,阳城路280弄,121.42588819853165,31.284457905360053
10g8h7t,6,宜川路733弄,121.43951751393685,31.269775407325348
10g8h7u,6,宜川路810弄,121.43728745109115,31.272274738272262
10g8h7v,6,永兴路177号,121.47404431286215,31.25403651823803
10g8h7w,6,俞泾港路21号,121.46480612116261,31.265743151003033
10g8h7x,6,原平路791号,121.43158259954228,31.292584762372638
10g8h7y,6,原平路917弄,121.42942589959385,31.295178298780606
10g8h7z,6,运城路588号,121.43324722988118,31.275445709383185
10g8h49,6,长安路1138号,121.45173024082064,31.247067607928155
10g8h4a,6,长安路550弄,121.45614190077349,31.239460750417237
10g8h6l,6,长临路380弄,121.43716590881793,31.318273793132846
10g8h4b,6,长临路397号,121.43787046802814,31.31807933689464
10g8h4c,6,长寿路999弄,121.42914607418702,31.23072403719088
10g8h80,6,止园路400弄,121.468989411591,31.259983056311942
10g8h81,6,止园路405号,121.46777869696376,31.26167945612568
10g8h82,6,芷江中路418弄,121.47064050776383,31.25896261310461
10g8h83,6,芷江中路531弄,121.46799763645092,31.259267179358257
10g8h84,6,芷江中路660弄,121.46907012139464,31.258387410592146
10g8h85,6,中华新路893弄,121.45598747330526,31.254122704272657
10g8h86,6,中山北路570弄,121.46552500245603,31.26111910579689
10g8h87,6,中兴路1385弄,121.4607395529139,31.252330531814053
10g8h88,6,中兴路662号,121.47240749620843,31.254736450627487
10g8i6b,c,爱博三村,121.3099202365329,31.21132583613905
10g8i6a,c,爱博一村,121.31099412167737,31.206563606690555
10g8i6c,c,安乐村,121.41087262845306,31.02920773248649
10g8i6d,c,安宁路330弄,121.41631577222972,31.01402302645974
10g8i6e,c,白樟路99弄,121.367916459494,31.173738640958867
10g8i6f,c,宝秀路647号,121.46417240891901,31.042314648867254
10g8i6g,c,报春路128弄,121.39326860429213,31.126030654267513
10g8i6h,c,报春路218弄,121.39095292124219,31.126318480416014
10g8i6i,c,报春路388弄,121.38816381845272,31.125183833703485
10g8i6j,c,报春路399弄,121.38737078030867,31.123740731569196
10g8i6k,c,报春路748弄,121.38020599614374,31.121508765414124
10g8i6o,c,北翟路1555号,121.33611260426991,31.222881547820695
10g8i6p,c,北翟路2000弄70支弄,121.33492991073139,31.226058194287386
10g8i6l,c,北江燕路68弄,121.50431113591857,31.080782914175646
10g8i6m,c,北沈路260弄,121.33543994560087,31.229062308677648
10g8i6n,c,北松公路838弄,121.3892280598671,31.03656120383534
10g8i6q,c,碧江路401弄,121.40322276787771,31.01191474557167
10g8i6r,c,碧江路501弄,121.39982643953788,31.015143838467136
10g8i6s,c,碧江路502弄,121.39971494836314,31.01479667122996
10g8i6t,c,碧秀路98弄,121.38442796165678,31.11334934184584
10g8i6u,c,宾川路380弄,121.41189579071822,31.004911042859458
10g8i6v,c,沧源路755弄,121.4295661223593,31.014863456965408
10g8i6w,c,曹行村,121.44543038438349,31.095544614829375
10g8i6x,c,曹中村,121.43302796275451,31.088539053224114
10g8i6y,c,漕宝路1158弄,121.39857701915511,31.16012817453501
10g8i6z,c,漕宝路1467弄,121.38345057953896,31.160852712085372
10g8i70,c,漕宝路1508弄,121.38456348478725,31.156022446666196
10g8i71,c,漕宝路1555弄,121.37666990697294,31.16209969895374
10g8i72,c,春都路358弄,121.41438682653582,31.08385003174436
10g8i73,c,春都路75弄,121.42001752220452,31.082531129853773
10g8i74,c,灯辉路1058号,121.4118897752448,31.029699392665208
10g8i75,c,灯辉路501弄,121.42292101091348,31.031647911962178
10g8i76,c,丁连村,121.48109102197816,31.094713958299003
10g8i77,c,东川路2718弄,121.40029823308315,31.009053911290486
10g8i78,c,东川路811弄,121.43337653463317,31.017472724426185
10g8i79,c,东川路925弄,121.42622897414155,31.015547531860232
10g8i7a,c,东风村,121.54470097414958,31.10253496980941
10g8i7b,c,东华美路220弄,121.33227244693335,31.222016283358734
10g8i7c,c,东兰路1111弄,121.38586514044017,31.152077892841376
10g8i7d,c,东兰路1349弄,121.3806719996948,31.149649184127025
10g8i7e,c,东兰路220号,121.40244968151659,31.157921675835546
10g8i7f,c,都会路258号,121.43123012245913,31.037043635428663
10g8i7g,c,都会路2799弄,121.41013434230535,31.07997196959425
10g8i7h,c,都会路3199弄,121.40948615754083,31.084594564226865
10g8i7i,c,都会路3199弄对面工地,121.40923771368806,31.0843720452913
10g8i7j,c,都会路3888弄,121.41119241803126,31.089299029676667
10g8i7k,c,都会路3899弄,121.4082158095886,31.0897389050715
10g8i7l,c,都市路1900弄,121.41496738800977,31.057489840776473
10g8i7m,c,都市路4499弄,121.39217513498988,31.0983767458237
10g8i7n,c,都市路778弄,121.41896832104636,31.041862513491164
10g8i7o,c,杜行东街,121.49756524679779,31.053155598169425
10g8i7p,c,繁安路59弄,121.39286658011268,31.062734987851144
10g8i7q,c,繁兴路469弄,121.28886013798122,31.21203172628579
10g8i7r,c,富国路199弄,121.37916960072533,31.0220328806982
10g8i7s,c,富砾路259弄,121.36602167762223,31.034994538005186
10g8i7t,c,富岩路328弄,121.370777464521,31.032939678700792
10g8i7u,c,富卓路789弄,121.38045046628963,31.024978052618266
10g8i7v,c,高兴路666弄,121.39636580151127,31.108383462053773
10g8i7w,c,共和村,121.46450131877293,31.04965796207012
10g8i7x,c,古龙路1065弄,121.38496913026745,31.145355087107617
10g8i7y,c,古龙路287弄,121.40162160234279,31.15010089854716
10g8i7z,c,古龙路300弄,121.40118142962132,31.151124883136042
10g8i80,c,古龙路666弄,121.39156867814096,31.147400906863346
10g8i85,c,古美八村,121.40352026911722,31.140131485322694
10g8i81,c,古美路1455弄,121.39838819996278,31.157966981143478
10g8i83,c,古美三村,121.40226660324241,31.141507997148686
10g8i86,c,古美十村,121.40761483733944,31.142042432508326
10g8i84,c,古美四村,121.40408457126661,31.142129069677015
10g8i87,c,古美西路628弄,121.38984360879986,31.135831633847395
10g8i88,c,古美西路631弄,121.39039248208647,31.13079082280906
10g8i89,c,古美西路752弄,121.38568055877033,31.131436381657167
10g8i8a,c,古美西路753弄,121.38700019299068,31.13085582065439
10g8i82,c,古美一村,121.40149706704402,31.143614108199355
10g8i8b,c,顾戴路1199弄,121.39000872019305,31.138421246303086
10g8i8c,c,顾戴路1325弄,121.38508717688018,31.136341243248584
10g8i8d,c,顾戴路2000弄,121.36654014128705,31.135504502871424
10g8i8e,c,顾戴路251弄,121.40350859807774,31.14422910877419
10g8i8f,c,顾戴路35弄,121.40794448071237,31.14545767466146
10g8i8g,c,顾戴路388弄,121.40046937371679,31.145817695727267
10g8i8i,c,航东路750弄,121.35349559542432,31.18067741792209
10g8i8k,c,航华二村,121.34963207206908,31.17161251999492
10g8i8l,c,航华四村,121.35910514752887,31.171762126729806
10g8i8j,c,航华一村,121.35692942770571,31.177287995963354
10g8i8m,c,航中路99弄,121.3539409585373,31.16725028264939
10g8i8n,c,鹤庆路136弄,121.41912563150376,31.011844853996696
10g8i8o,c,鹤庆路358弄,121.41397526835186,31.00998081548432
10g8i8p,c,鹤庆路560弄,121.41116780339394,31.010414542672898
10g8i8q,c,鹤庆路900号,121.40462801457694,31.00678300091453
10g8i8r,c,鹤翔路180弄,121.40686063021667,31.04809588524269
10g8i8s,c,恒星村,121.4909640345245,31.119278222897957
10g8i8t,c,红松路319弄,121.36819436780547,31.18096354914812
10g8i8u,c,虹井路618弄,121.37099040305856,31.185025954822144
10g8i8v,c,虹梅路1111弄,121.40291742030975,31.159262299473518
10g8i8w,c,虹梅南路1526弄,121.43369117828804,31.118405040877782
10g8i8x,c,虹梅南路1555弄,121.42538821514565,31.116854265403592
10g8i8y,c,虹梅南路1776弄,121.43043292857583,31.11102324185404
10g8i8z,c,虹梅南路2288弄,121.4336410108808,31.100967253077194
10g8i90,c,虹梅南路2638弄,121.4400972382651,31.095946054167857
10g8i91,c,虹梅南路4828号,121.44846586815126,31.059220325216206
10g8i92,c,虹莘路1700弄,121.38441205125274,31.132780826203717
10g8i93,c,虹莘路1876弄,121.382613639889,31.136138670679834
10g8i94,c,虹莘路1955弄,121.3805841009521,31.136124028705762
10g8i95,c,虹莘路2288弄,121.38330477544451,31.143137591375663
10g8i96,c,虹莘路3799弄,121.37066949212476,31.166964690338485
10g8i97,c,虹中路460弄,121.38335171785646,31.18442435536276
10g8i98,c,虹中路786弄,121.37874117658757,31.187955801423094
10g8i99,c,沪光东路128号,121.4261813565051,31.081257515059942
10g8i9a,c,沪光路39弄,121.42112009032917,31.079082039144765
10g8i9b,c,沪光路425弄,121.41075647341557,31.076977525604182
10g8i9c,c,沪闵路3131弄,121.40990448074461,31.055231147997336
10g8i9d,c,沪闵路319号,121.42342377897535,31.01053773872103
10g8i9e,c,沪青平公路101弄,121.352788642773,31.180743355855636
10g8i9f,c,沪青平公路158弄,121.35232667420257,31.18161681874341
10g8i9g,c,沪青平公路249弄,121.35109628002112,31.176193539734196
10g8i9h,c,沪青平公路391弄,121.34699818825095,31.176757664985427
10g8i9i,c,华宝路789弄,121.3284904197526,31.162440083541156
10g8i9j,c,华光路300弄,121.3814960896215,31.188896956992494
10g8i9k,c,华美路100弄,121.33336235803016,31.2220475821004
10g8i9l,c,华宁路1399弄,121.3903493453825,31.023678620936828
10g8i9m,c,华宁路191弄,121.39798432869509,31.01070381403512
10g8i9n,c,华翔路3788弄,121.30379943688402,31.225820449994323
10g8i9o,c,华友路260弄,121.35629859221608,31.136371034191146
10g8i9p,c,华展路168弄,121.4488190526698,31.112256255851293
10g8i9q,c,汇东村,121.56077623704348,31.01734473678238
10g8i9r,c,纪东村,121.27615925110945,31.245187178183073
10g8i9s,c,建新村,121.51965594384217,31.03822007084152
10g8i9t,c,建中村,121.5148926968936,31.102378322371035
10g8i9u,c,剑川路100弄,121.47280342191141,31.044371583223334
10g8i9v,c,剑川路121弄,121.4700977405074,31.041549588858317
10g8i9w,c,剑川路150弄,121.46530593592792,31.04375316420422
10g8i9x,c,剑川路198弄,121.4624827098603,31.04193545052137
10g8i9y,c,剑川路201弄,121.46427104465559,31.03874927788652
10g8i9z,c,剑川路50弄,121.47594597775353,31.044164586086367
10g8ia0,c,剑川路99号,121.4728159579824,31.043021222587026
10g8ia1,c,江川东路863弄,121.42597295730474,31.004853654524304
10g8ia2,c,江川路241弄,121.42180947085572,31.00451161473102
10g8ia3,c,江川路680弄,121.40156969869162,31.001573487650514
10g8ia4,c,江玮路298弄,121.5358650130682,31.059288084339546
10g8ia5,c,金都路1259号,121.42769926733824,31.090104231239064
10g8ia6,c,金都路978弄,121.4339287714734,31.092692395472316
10g8ia7,c,金平路555弄,121.41154055915527,31.01822214062095
10g8ia8,c,金平路558弄,121.40694269939404,31.017031188622134
10g8ia9,c,金平路777弄,121.40973669003593,31.021457633707456
10g8iaa,c,金平路788弄,121.40562214315155,31.020212867935875
10g8iab,c,金塔二村,121.40800593997032,31.04072895088456
10g8iac,c,金阳路366弄,121.41852827956302,31.037937558082167
10g8iad,c,近浦村,121.47551713849785,31.096393615420908
10g8iae,c,景福路189弄,121.4097477308076,31.12259605634966
10g8iaf,c,景谷中路58弄,121.41748118082958,31.0223675390797
10g8iag,c,景联路388号,121.44556830321358,31.100772185399194
10g8iah,c,景联路685号,121.44186006084159,31.099519078095675
10g8iai,c,景联路759号,121.43993304791437,31.098771056500688
10g8iaj,c,涞亭北路888号,121.32242896318512,31.15922689333712
10g8iak,c,兰坪路190弄,121.41968895009867,31.00305978403971
10g8ial,c,黎明路155弄,121.37889187703448,31.127917809724643
10g8iam,c,立民村,121.55492822776185,31.10119690673443
10g8ian,c,立跃路3800弄,121.49748427755925,31.08668077645903
10g8iao,c,莲花路1058弄,121.3984996887944,31.15155918394831
10g8iap,c,莲花路288弄,121.40413210461698,31.138470264900725
10g8iaq,c,莲花南路1535弄,121.41523993158135,31.09630063147283
10g8iar,c,莲花南路2399号,121.43075614286414,31.0692915466416
10g8ias,c,莲花南路3988号,121.44105083679385,31.044036807268157
10g8iat,c,联民村,121.49065878800621,31.042594894245006
10g8iau,c,联明村,121.34314977514897,31.13938766336905
10g8iav,c,联星村,121.55050288023357,31.093639697547076
10g8iax,c,龙柏二村,121.36219056509692,31.1816291782038
10g8iay,c,龙柏三村,121.36560983970658,31.180702717504918
10g8iaz,c,龙柏四村,121.36316374159411,31.178673788923774
10g8iaw,c,龙柏一村,121.3679263700593,31.183155492392952
10g8ib0,c,龙茗路1458弄,121.38501861416586,31.144217253082452
10g8ib1,c,龙茗路1597弄,121.3825064305293,31.15183305195674
10g8ib2,c,龙茗路1650号,121.38301887771094,31.151068136191622
10g8ib3,c,龙茗路1699弄,121.38201701503525,31.150573358949757
10g8ib4,c,龙茗路1897弄,121.38054669130808,31.153546128000936
10g8ib5,c,龙茗路69弄,121.3898492329995,31.123255525863375
10g8ib6,c,龙吴路3000号,121.4550790995675,31.099556701520527
10g8ib7,c,龙吴路3008号,121.45651562454415,31.095925039271783
10g8ib8,c,龙吴路3188号,121.45807129007454,31.092827704235617
10g8ib9,c,龙吴路4800号,121.46535969462735,31.069157636169514
10g8iba,c,龙吴路5511弄,121.46633832056794,31.04424870610444
10g8ibb,c,龙吴路5530弄,121.4657781682373,31.04364473411178
10g8ibc,c,龙吴路5599弄,121.46768798134411,31.039623955109068
10g8ibd,c,龙吴路5688弄,121.46860528907318,31.039953140702313
10g8ibe,c,龙州南路58弄,121.43023637113379,31.123921939041626
10g8ibf,c,芦恒路378弄,121.49082908979571,31.11686120314341
10g8ibg,c,芦胜村,121.48064906353196,31.107905419829514
10g8ibh,c,罗锦路258弄,121.41184084803345,31.121769627361807
10g8ibi,c,罗秀路1955弄,121.40322131254388,31.127038227150976
10g8ibj,c,罗阳三村,121.40814776758067,31.123128866617495
10g8ibk,c,绿莲路100弄,121.41319237772589,31.094901003849635
10g8ibl,c,绿莲路99弄,121.41419044360799,31.0935198256752
10g8ibm,c,梅陇一村,121.41256383450163,31.136534145781482
10g8ibn,c,民建村,121.45512293405557,31.095652548608324
10g8ibo,c,闵城路199弄,121.38507027475615,31.106329696059017
10g8ibp,c,闵驰一路197弄,121.54348283990198,31.03941692337098
10g8ibq,c,南江燕路229弄,121.50285183720305,31.077477796587193
10g8ibr,c,平吉一村,121.38294607588794,31.143119503853246
10g8ibu,c,平南二村,121.39282090733029,31.15274287668009
10g8ibs,c,平南路722号,121.39326929510709,31.151977940557423
10g8ibv,c,平南三村,121.39059966027553,31.151865015674556
10g8ibt,c,平南一村,121.39638361271793,31.15416488957693
10g8ibw,c,平阳路59弄,121.40896859796032,31.14134162418676
10g8ibx,c,瓶安路1600弄,121.39968840483492,31.054446886633137
10g8iby,c,浦驰路188弄,121.5034871559138,31.07413580556268
10g8ibz,c,浦驰路235弄,121.50231781627716,31.075243573283682
10g8ic0,c,浦航路36弄,121.5458171122933,31.044192870547658
10g8ic1,c,浦江村,121.47362978588727,31.106474866934313
10g8ic2,c,浦江路190号,121.42715226229782,30.999023888153
10g8ic3,c,浦锦路2159弄,121.48398482143338,31.113293450421388
10g8ic4,c,浦连路150弄,121.54306630811996,31.057096158966587
10g8ic5,c,浦申路200弄,121.50695535227453,31.076089378753164
10g8ic6,c,浦涛路75弄,121.54348883643569,31.049376040101368
10g8ic7,c,浦星公路568弄,121.4940299875742,31.11928659783947
10g8ic8,c,浦秀路1139弄,121.48915266285643,31.086412694211273
10g8ic9,c,浦秀路183弄,121.49563987552582,31.07297688265963
10g8ica,c,浦秀路220弄,121.49604692215588,31.073571994144405
10g8icb,c,浦秀路499弄,121.4939835537425,31.078549822676063
10g8icc,c,浦雪路1180弄,121.4890865459884,31.0893641336154
10g8icd,c,普洱路88弄,121.39101282686772,31.0980532364687
10g8ice,c,普乐路333弄,121.42460231970098,31.11375055046262
10g8icf,c,七莘路2299弄,121.35782567997727,31.14256486147112
10g8icg,c,七莘路3333号,121.34334686673388,31.158532604656585
10g8ich,c,七莘路3885弄,121.33844036943772,31.170274206216895
10g8ici,c,勤俭村,121.48713510215286,31.076509304195092
10g8icj,c,勤劳村,121.53091065893071,31.09976019937803
10g8icl,c,沁春园二村,121.37616232706831,31.094812849026834
10g8icm,c,沁春园三村,121.37498455579086,31.096306264360386
10g8ick,c,沁春园一村,121.37812438428509,31.098408224073374
10g8icn,c,曲吴路175弄,121.46017785728138,31.053908645298076
10g8ico,c,三鲁公路5588弄,121.51107998358904,31.119431798541857
10g8icp,c,上中西路810弄,121.41703310907835,31.13169429274822
10g8icq,c,尚义路229弄,121.45072505443605,31.042066488455433
10g8icr,c,申北路135弄,121.38681283792896,31.090135243352826
10g8ics,c,莘南花苑二村,121.39834472362222,31.10949725648681
10g8icz,c,莘松六村,121.36822330786069,31.10730899112756
10g8ict,c,莘松路225弄,121.37562615437096,31.10683200850268
10g8icu,c,莘松路958弄,121.35403545433147,31.106289478085987
10g8icv,c,莘松路985弄,121.35153404525336,31.1008993759059
10g8icw,c,莘松三村,121.3697576684315,31.107804973580922
10g8icx,c,莘松四村,121.36909383132895,31.105082632364958
10g8icy,c,莘松五村,121.36893095800093,31.107392017061912
10g8id0,c,莘朱路222弄,121.38567995168,31.10852121655014
10g8id1,c,莘朱路698弄,121.39380485143991,31.11245428370751
10g8id2,c,胜利村,121.548073925366,31.06302570470151
10g8id3,c,疏影路1111弄,121.35937590862721,31.116480748976613
10g8id4,c,疏影路789弄,121.3648255419063,31.11870490593503
10g8id5,c,疏影路838弄,121.36552924139528,31.120168819245844
10g8id6,c,疏影路999弄,121.36360887596557,31.118468087412936
10g8id7,c,曙建路185弄,121.41937476425527,31.090755877408906
10g8id8,c,曙建路51弄,121.4212563399318,31.092843238523127
10g8id9,c,双柏路1688弄,121.42311503524228,31.08628673188111
10g8ida,c,水清路1100弄,121.37574723152964,31.1294240203085
10g8idb,c,水清路1550弄,121.3727145171404,31.135138423453203
10g8idc,c,苏民村,121.53268848945791,31.108926121700893
10g8idd,c,谈中路102弄,121.53523590605789,31.066687111600398
10g8ide,c,塘口村,121.4804530983599,31.088064558581028
10g8idf,c,塘湾村,121.44272929870893,31.055166416575712
10g8idg,c,腾冲路180弄,121.39732853476461,31.10079529016891
10g8idh,c,腾冲路50弄,121.39522559676273,31.09895085287972
10g8idi,c,天河路39弄,121.38715640329399,31.101218331077863
10g8idj,c,天山西路4178弄,121.30585471981954,31.21698825121756
10g8idk,c,天山西路4358弄,121.30411713598556,31.213541781604775
10g8idl,c,畹町路99弄,121.4011336300163,31.102579095606266
10g8idm,c,卫星村,121.27158293795196,31.23304564737351
10g8idn,c,吴中路405弄100支弄,121.41092082460355,31.18387989737545
10g8ido,c,吴中路830弄,121.39256432752104,31.179763033328513
10g8idp,c,吴中路970弄,121.38973056343677,31.178317446986462
10g8idt,c,西环二村,121.36577157921988,31.103155870201057
10g8idq,c,西环路301号,121.36646329246499,31.107188752886117
10g8idr,c,西环路777弄,121.36392370199121,31.11298994030119
10g8idu,c,西环三村,121.36538569399208,31.105123951616463
10g8ids,c,西环一村,121.36599828366215,31.103625615703354
10g8idv,c,先进村,121.53071702058246,31.035678372084355
10g8idw,c,新建村,121.44430160497215,31.064145973313934
10g8idx,c,新闵路481弄,121.4278563308283,31.001905636206878
10g8idy,c,新源路1422号,121.39727790295589,31.050164421035525
10g8idz,c,新源路3122弄,121.39572919101649,31.05648160826314
10g8ie0,c,新镇路1060弄,121.36041898445595,31.15527037759417
10g8ie1,c,鑫都路2535弄,121.39756711160422,31.052502896748873
10g8ie2,c,星火村,121.47186123176128,31.03729679922719
10g8i8h,c,行南村,121.42777028421209,31.115978709437545
10g8ie3,c,许泾村,121.43738203327834,31.080061579584406
10g8ie4,c,许浦村,121.33703209929259,31.224453494871337
10g8ie5,c,雅致路228弄,121.37951263416139,31.114709759274906
10g8ie6,c,雅致路31弄,121.38455278647383,31.116432502659425
10g8ie7,c,杨家巷村,121.30217223871749,31.223748014704036
10g8ie8,c,业祥路111弄,121.43594714320595,31.12378881381507
10g8ie9,c,叶家桥东路260弄,121.40790930632477,31.15922740955462
10g8iea,c,益文路101弄,121.41095598131366,31.137160438641924
10g8ieb,c,银春路1799弄,121.39369506370691,31.024611892501696
10g8iec,c,银春路1800弄,121.3946617253146,31.02761774991118
10g8ied,c,银春路2200弄,121.38694469466802,31.025522750507193
10g8iee,c,银都路1966号,121.41827940699093,31.101138711393997
10g8ief,c,银都路3118弄,121.39482771486638,31.09346322826959
10g8ieg,c,银都路666弄,121.43944066353215,31.106641732820858
10g8ieh,c,银康路76弄,121.38813323058766,31.024063422701715
10g8iei,c,银林路100弄,121.38854312389444,31.021016363719045
10g8iej,c,永德路369弄,121.46024960275952,31.039185121699703
10g8iek,c,永杰路577弄,121.50750831928995,31.030756957289167
10g8iel,c,永联村,121.44273916236598,31.10535790928376
10g8iem,c,永颂路299弄,121.50014904179301,31.03157145882783
10g8ien,c,永跃路550弄,121.51033406195796,31.031132365331295
10g8ieo,c,友好村,121.3916580504479,30.995344316753854
10g8iep,c,友建村,121.5061274355612,31.118139150166364
10g8ieq,c,俞塘村,121.38157624980889,31.033005184402093
10g8ier,c,元江路4805弄,121.37275358898209,31.03932224961934
10g8ies,c,跃农村,121.48297833351572,31.081701208064146
10g8iet,c,长寿新村,121.37935273867683,31.10536123027163
10g8ieu,c,赵家村,121.26118853753881,31.249594528999754
10g8iev,c,知新村,121.51819401709095,31.108469467613414
10g8iew,c,中春路255号,121.39999176214637,31.02554345213019
10g8iex,c,中春路6785号,121.34884049162648,31.133797998327104
10g8iey,c,中华美路5弄,121.32932760612948,31.217968810234392
10g8iez,c,中华美路60弄,121.33049374418972,31.2185003099337
10g8if0,c,中心村,121.40652006438879,31.03517321081152
10g8if1,c,颛建路248号,121.39392231738292,31.068787288280078
10g8if2,c,颛盛路135弄,121.39836708545472,31.063579546256317
10g8if3,c,颛兴路639弄,121.39199817402995,31.063625655450743
10g8if4,c,颛兴路666弄,121.38893193486724,31.064904240496347
10g8if5,c,颛兴路747弄,121.38783914755626,31.063481692608615
10g8if6,c,颛兴路748弄,121.38614305896013,31.064932020898876
10g8if7,c,紫光路801弄,121.44822763405823,31.011526663714555
10g8if8,c,紫龙路500弄,121.46627210571467,31.034935193863287
10g8if9,c,紫藤二村,121.41115902822688,31.130558408038613
10g8fv5,f,百曲村,121.53934627605159,31.117088142885542
10g8fv6,f,板泉路1201弄,121.50534274917582,31.162458323420196
10g8fv7,f,板泉路2000弄,121.53103670896562,31.165724287371457
10g8fv8,f,板泉路2101弄,121.53202102663752,31.16836563391414
10g8fv9,f,北艾路1077弄,121.53636667671233,31.181092075540082
10g8fva,f,北艾路1128弄,121.53473396460956,31.18440419534479
10g8fvb,f,北艾路1200弄,121.53297597280307,31.183606063595036
10g8fvc,f,北艾路1765弄,121.52349903548698,31.177945476137438
10g8fvd,f,北蔡大街31弄,121.55429182610422,31.187511194157015
10g8fve,f,北城壕路111弄,121.70108337367974,31.1978073117033
10g8fvf,f,北市街308弄,121.70172450266506,31.199071521316096
10g8fvg,f,北园路258弄,121.52390079788458,31.202875348199765
10g8fvh,f,北张家浜路188弄,121.52501050879593,31.216502394434098
10g8fvi,f,北张家浜路28弄,121.5200738039384,31.21592881456196
10g8fvj,f,北张家浜路98弄,121.52282131728025,31.216335360558052
10g8fvk,f,北中路280弄,121.55750235450236,31.18363301098119
10g8fvl,f,北中路383弄,121.55950880654082,31.18481213778858
10g8fvm,f,北中路480弄,121.56332329882841,31.184079799755242
10g8fvn,f,碧云路1198号,121.58975040206823,31.242996950313135
10g8fvo,f,碧云路333弄,121.57745423414356,31.23824442833623
10g8fvp,f,碧云路86弄,121.57644300617132,31.236099644710073
10g8fvq,f,博华路1018弄,121.55119140299706,31.170826324510273
10g8fvr,f,博华路237弄,121.54613448556263,31.18359612409557
10g8fvs,f,博华路989号,121.55016387399161,31.17187814056515
10g8fvt,f,博山东路136弄,121.5647622328598,31.24926033449748
10g8fvu,f,博山东路173弄,121.56413354441472,31.251325588956632
10g8fvv,f,博山东路20弄,121.55990524206243,31.2452330364539
10g8fvw,f,博山东路440弄,121.56845635619959,31.252050899533312
10g8fvx,f,博山东路459弄,121.56783121184105,31.25372557905203
10g8fvy,f,博山路12弄,121.55671156424191,31.245897651491582
10g8fvz,f,博山路199弄,121.55381295929365,31.243176526088323
10g8fw0,f,博山路50弄,121.55591523553397,31.2458719900707
10g8fw1,f,博山路78弄,121.55523724518076,31.24584163073459
10g8fw2,f,博兴路1185弄,121.59487854550117,31.26757079769157
10g8fw3,f,博兴路1383弄,121.59854256244883,31.269242144763627
10g8fw4,f,博兴路1663弄,121.60076444985252,31.274337976112452
10g8fw5,f,博兴路1676弄,121.60223797851296,31.275537946847216
10g8fw6,f,博兴路1768弄,121.60161643904559,31.277512057053045
10g8fw7,f,博兴路250弄,121.57870903903873,31.269044192069973
10g8fw8,f,博兴路462弄,121.58164352729334,31.265170448604376
10g8fw9,f,博兴路465弄,121.58541007521696,31.265868582765727
10g8fwa,f,博兴路616弄,121.58515462700629,31.26335779763673
10g8fwb,f,博兴路799弄,121.59069163050366,31.26612656890874
10g8fwc,f,博兴路986弄,121.59324756272967,31.265233766108633
10g8fwd,f,彩云路51弄,121.81701152089887,30.898687751792313
10g8fwe,f,蔡路村,121.73016158205222,31.214041848926584
10g8fwz,f,昌里东路190弄,121.5052655566791,31.17604064614951
10g8fx0,f,昌里东路333弄,121.51061755893484,31.17752971725998
10g8fx1,f,昌里东路395弄,121.51111651822347,31.178882515288993
10g8fx2,f,昌里东路500弄,121.51391412506418,31.178132361702563
10g8fx3,f,昌里东路550弄,121.51582025437739,31.179093744777365
10g8fx4,f,昌里东路675弄,121.51570981656174,31.18027690469842
10g8fx5,f,昌里东路71弄,121.50617073542868,31.17620045993183
10g8fx6,f,昌里东路80弄,121.50635534767875,31.174174519368915
10g8fx7,f,昌里路167弄,121.49762124430274,31.175157294428587
10g8fx8,f,昌里路340弄,121.49165662874931,31.172022772115238
10g8fx9,f,昌里路98弄,121.50212103856727,31.174962406051495
10g8fxa,f,昌邑路1500弄,121.53774708298033,31.244298836258917
10g8fxb,f,朝农新村,121.8358062330369,31.097153569103263
10g8fxc,f,朝阳村,121.73402486596557,31.249672078454214
10g8fxd,f,车站新村,121.64333487275631,31.02637791708192
10g8fxe,f,沉香村,121.59647323228288,31.076114927475267
10g8fxf,f,陈春东路99弄,121.56014716903292,31.17593963181718
10g8fxg,f,陈春路620弄,121.54567965261249,31.172873069773885
10g8fxh,f,陈丰路245号,121.54424086990963,31.221715800912296
10g8fxi,f,陈家弄,121.59789487758576,31.209414832718117
10g8fxj,f,陈桥村,121.55664257577327,31.174667543492305
10g8fxk,f,陈水关路19弄,121.6328058099295,31.177857349258
10g8fxl,f,陈行村,121.49841581277417,31.092280564266886
10g8fxm,f,晨晖路828弄,121.59735199150364,31.198706652811865
10g8fxn,f,成山路1139号,121.52063290482995,31.175123184033723
10g8fxo,f,成山路1728弄,121.5316764051008,31.176821211011948
10g8fxp,f,成山路2008弄,121.53792468747261,31.179234485594183
10g8fxq,f,成山路2399弄,121.54458912828851,31.18112871194514
10g8fxr,f,成山路24弄,121.48565942226847,31.168147264726166
10g8fxs,f,成山路300弄,121.50215229230078,31.171709648544642
10g8fxt,f,成山路544弄,121.5085524522843,31.170127069641286
10g8fxu,f,成山路558号,121.50822351756456,31.17209576776879
10g8fxv,f,成山路601弄,121.50873467771356,31.17446265157494
10g8fxw,f,成山路608弄,121.50816631451914,31.171401766001097
10g8fxx,f,成山路648弄,121.51095971845197,31.171254227660622
10g8fxy,f,成山路668弄,121.51160937570897,31.17022528494343
10g8fxz,f,诚礼路298弄,121.66727540892643,31.224797389383262
10g8fy0,f,城丰路143弄,121.68714726443778,31.189934858047646
10g8fy1,f,城丰路212弄,121.68732732045349,31.19063481223031
10g8fy2,f,城丰路245弄,121.68638016935176,31.188927894634435
10g8fy3,f,城丰路599弄,121.68016538212905,31.186442359210467
10g8fy4,f,城南村,121.69938942295131,31.1878459179668
10g8fy5,f,城南路41弄,121.74235932981361,31.040833162426143
10g8fy6,f,城南路627弄,121.69438765683167,31.189071309942168
10g8fy7,f,城南路747弄,121.69299164130057,31.18856233588028
10g8fy8,f,城南路918弄,121.77002549098665,31.040291471053475
10g8fy9,f,城西路195弄,121.69305961510902,31.194550455644443
10g8fya,f,城西路377弄,121.74885822184919,31.051763061780925
10g8fyb,f,川环南路1155弄,121.69148576452767,31.18436486000799
10g8fyc,f,川环南路345弄,121.7068630077968,31.188551080889965
10g8fyd,f,川环南路921弄,121.69523679532573,31.185561965931658
10g8fye,f,川黄路165弄,121.7054877730991,31.191935376531813
10g8fyf,f,川沙路1666弄,121.67931022148595,31.253929979911806
10g8fyg,f,川沙路2015弄,121.68577555239666,31.245393099146128
10g8fyh,f,川沙路2301弄,121.68724382801857,31.240092424911918
10g8fyi,f,川沙路3639号,121.69039725268412,31.216342942465964
10g8fyj,f,川沙路389弄,121.66989366359412,31.27893807733641
10g8fyk,f,川沙路4650弄,121.69565412108683,31.198160152444302
10g8fyl,f,川沙路4850弄,121.69747725637392,31.194913492438648
10g8fym,f,川沙路5015弄,121.6992265679332,31.191837815233942
10g8fyn,f,川沙路5122弄,121.69751679324713,31.19047596292027
10g8fyo,f,川周公路2928弄,121.61419806081712,31.14258333061426
10g8fyp,f,川周公路4005弄,121.58757531468133,31.126242964768352
10g8fyq,f,川周公路4058弄,121.58564425838838,31.125916720884458
10g8fyr,f,川周公路4293弄,121.58126348231777,31.120409720393216
10g8fys,f,川周公路4318弄,121.57976749412,31.122002804261175
10g8fyt,f,川周公路8288弄,121.70976482344751,31.1785513164627
10g8fyu,f,创新路21弄,121.68942562976994,31.21878242481965
10g8fyv,f,创新西路300弄,121.65294871425354,31.20349403954827
10g8fyw,f,创新中路593弄,121.66882048006771,31.211248479355174
10g8fyx,f,春晖路276弄,121.58433620018945,31.341466022196233
10g8fyy,f,大同路1010弄,121.57247377633563,31.335444131297145
10g8fyz,f,大众村,121.60303243252665,31.20105495248444
10g8fz0,f,德川路259弄,121.66862057879489,31.194493582827285
10g8fz1,f,德平路100弄,121.56143750346516,31.247912863286977
10g8fz2,f,德平路1065弄,121.5679650096943,31.242693340141802
10g8fz3,f,德平路1125弄,121.56961532739285,31.241936942632915
10g8fz4,f,德平路1134弄,121.56995921423022,31.239119047382935
10g8fz5,f,德平路1189弄,121.57141026314493,31.240227380605255
10g8fz6,f,德平路25弄,121.55771382797931,31.25385718047873
10g8fz7,f,德平路34弄,121.55684549963846,31.253376829359315
10g8fz8,f,德平路58弄,121.55873752139074,31.25207642059882
10g8fz9,f,德州路20弄,121.50448950781724,31.16917258294027
10g8fza,f,德州路223弄,121.49550946640467,31.168354777360136
10g8fzb,f,德州路255弄,121.49227363145536,31.168567749953944
10g8fzc,f,德州路300弄,121.49025829911528,31.167452780604687
10g8fzd,f,德州路380弄,121.48599902744355,31.164780171187854
10g8fze,f,德州路420弄,121.48373624675514,31.16490607576995
10g8fzf,f,德州路421弄,121.48223985501379,31.168379674607344
10g8fzg,f,德州路465弄,121.4818279434051,31.166750288733635
10g8fzh,f,邓三村,121.76471170222267,31.12959235204417
10g8fzi,f,丁香路1089弄,121.55478968576519,31.22884631934721
10g8fzj,f,丁香路1399弄,121.56443941037574,31.22972349603274
10g8fzk,f,东八灶115弄,121.58149526372516,31.115632547799645
10g8fzl,f,东八灶63弄,121.58175509080485,31.115644152345972
10g8fzm,f,东波路195弄,121.57992399625458,31.285149195014313
10g8fzn,f,东波路325弄,121.58307548802321,31.28505332016787
10g8fzo,f,东波路49弄,121.5764585095153,31.28563310838795
10g8fzp,f,东波路585弄,121.58676800720633,31.28490190417752
10g8fzq,f,东方路1663弄,121.52549340829204,31.206352331439753
10g8fzr,f,东方路1800弄,121.5224479230083,31.202522792519172
10g8fzs,f,东方路2880弄,121.51900797042953,31.19597068442943
10g8fzt,f,东方路573弄,121.52490073153459,31.23174766896198
10g8fzu,f,东风村,121.69891496672847,31.227710249243056
10g8fzv,f,东建新村,121.53328126531558,31.201736272466064
10g8fzw,f,东靖路2250弄,121.61103244755469,31.289242613514293
10g8fzx,f,东靖路247弄,121.57650334511456,31.291909484699378
10g8fzy,f,东陆路1182弄,121.5957672873374,31.270550887399416
10g8fzz,f,东陆路1268弄,121.5963426153528,31.26864606086882
10g8g00,f,东陆路1350弄,121.60164047706836,31.267269083710985
10g8g01,f,东陆路1456弄,121.60158659752749,31.267088742484706
10g8g02,f,东陆路1485弄,121.60215921321296,31.26776137543922
10g8g03,f,东陆路1755弄,121.60917689831122,31.2643900510898
10g8g04,f,东陆路2000弄,121.60963973972358,31.262366860028816
10g8g05,f,东陆路429弄,121.58680860587795,31.28076776313561
10g8g06,f,东陆路898弄,121.59155903099906,31.273538456719347
10g8g07,f,东门街29弄,121.70972710550542,31.196908526952818
10g8g08,f,东明路355弄,121.51072229937549,31.184491133403483
10g8g09,f,东明路383弄,121.50988658163088,31.182604353134302
10g8g0a,f,东明路560弄,121.50900688095055,31.17970820165301
10g8g0b,f,东明路660弄,121.50911097046777,31.178107249373948
10g8g0c,f,东三街102弄,121.50996740972813,31.201297560909605
10g8g0d,f,东三里桥路190弄,121.51130660778637,31.200254992941304
10g8g0e,f,东书房路111号,121.5338046801805,31.16910971487446
10g8g0f,f,东书房路225号,121.53403460851524,31.167973106361522
10g8g0g,f,东书房路390弄,121.535168207011,31.16486584260842
10g8g0h,f,东书房路560弄,121.53485251975114,31.161298248125863
10g8g0i,f,东田市场,121.66887887467527,31.27883977417187
10g8g0j,f,东亭路836弄,121.75315994887798,31.171540520846104
10g8g0k,f,东绣路1389弄,121.53205198168044,31.199577556992377
10g8g0l,f,东窑新村,121.64139395438782,31.197110021262677
10g8g0m,f,渡桥路78弄,121.54700206901305,31.118069822210586
10g8g0n,f,峨山路280弄,121.5264719897692,31.213813047452298
10g8g0o,f,峨山路380弄,121.52583158796679,31.21443844124946
10g8g0p,f,峨山路420弄,121.52559213408166,31.21409128802389
10g8g0q,f,峨山路500弄,121.52428556603437,31.213819130196097
10g8g0r,f,峨山路679弄,121.52029395634612,31.2139777288423
10g8g0s,f,繁荣东路159弄,121.58570333952387,31.10759325466488
10g8g0t,f,繁荣路128弄,121.57837544228897,31.1059156185482
10g8g0u,f,芳华路268弄,121.55638005182061,31.19455159754349
10g8g0v,f,芳华路310弄,121.55763018098037,31.194978671485845
10g8g0w,f,芳华路329弄,121.55735187587148,31.1962220868603
10g8g0x,f,芳华路371弄,121.55788528872677,31.196263400445982
10g8g0y,f,芳华路630弄,121.56421863250858,31.196284915291503
10g8g0z,f,芳华路916弄,121.56807046969537,31.196034795927535
10g8g10,f,芳芯路312弄,121.55720921441733,31.19124851556057
10g8g11,f,飞桥村,121.61270872885768,31.043016562921483
10g8g12,f,丰桥村,121.5929165588053,31.013002382135312
10g8g13,f,扶栏村,121.7498585015469,31.001393534025404
10g8g14,f,福山路102弄,121.52679223128484,31.23096993147541
10g8g15,f,福山路49弄,121.5266707240447,31.238789035169265
10g8g16,f,富强村,121.77289031187141,31.031633543735772
10g8g17,f,高宝路229弄,121.61934009786262,31.29213454362352
10g8g18,f,高宝路300弄,121.62187229449927,31.28979435829596
10g8g19,f,高宝路379弄,121.62419757980804,31.291681112523776
10g8g1a,f,高宝路528弄,121.62820993961134,31.292922568808578
10g8g1b,f,高宝路68弄,121.61812207000045,31.289264575287575
10g8g1c,f,高博路188弄,121.57981666680105,31.297389286087604
10g8g1d,f,高科西路2111弄,121.53579016684752,31.18796616217147
10g8g1e,f,高科西路2757弄,121.55415689255841,31.18919231634352
10g8g1f,f,高科西路2763弄,121.55309606761313,31.190882515055605
10g8g1g,f,高科西路2907弄,121.55858309596981,31.189658475244496
10g8g1h,f,高科西路3060弄,121.56433741099481,31.189347030600427
10g8g1i,f,高青路2861弄,121.52863012553644,31.161444245552335
10g8g1j,f,高青路4567弄,121.56190216741675,31.17103491827498
10g8g1k,f,龚丰路576弄,121.69339152425385,31.257810592966912
10g8g1l,f,龚华路35弄,121.68581625107731,31.27052268172421
10g8g1m,f,龚华路425弄,121.68669459555554,31.261423918459784
10g8g1n,f,龚华路479弄,121.68844857149766,31.259079948252218
10g8g1o,f,龚华路50弄,121.68382124666948,31.26687832332985
10g8g1p,f,龚路支路473弄,121.68812395988768,31.264272929684058
10g8g1q,f,拱川路561弄,121.74709723607809,31.064311170654936
10g8g1r,f,拱海路240弄,121.7398330168687,31.0691608953201
10g8g1s,f,拱海路79弄,121.73657786026526,31.069768986841083
10g8g1t,f,拱极路4100弄,121.74395540405777,31.054882201817385
10g8g1u,f,拱乐路2400弄,121.76855649187426,31.063020412146813
10g8g1v,f,拱为路2600弄,121.73996309789248,31.05810676150491
10g8g1w,f,古棕路168弄,121.91739167493837,30.883828141652792
10g8g1x,f,顾东村,121.6614242204697,31.29301411365958
10g8g1y,f,顾三村,121.67611230151854,31.294831941495687
10g8g1z,f,顾唐路138弄,121.65632625748468,31.26334804552017
10g8g20,f,崮山路157号,121.55242942855259,31.24714182089173
10g8g21,f,崮山路251弄,121.5538265865734,31.24576801390766
10g8g22,f,崮山路322弄,121.55485338458887,31.244547858795745
10g8g23,f,关岳路181弄,121.58678563788978,31.119973343874292
10g8g24,f,关岳路229弄,121.58832151277697,31.120848422287168
10g8g25,f,关岳路338弄,121.59078761366808,31.12009140395924
10g8g26,f,观海路1588弄,121.78362169242563,31.065791770826067
10g8g27,f,光明村,121.65849984844252,31.290677907217248
10g8g28,f,光耀村,121.66336843400005,31.27820947641476
10g8g29,f,光泽路428弄,121.61836724386072,31.32788060890543
10g8g2a,f,广益路15弄,121.76464588444553,31.109319513853
10g8g2b,f,广益路9弄,121.51771631185672,31.24183295608905
10g8g2c,f,海滨村,121.58215204163415,31.3507958153328
10g8g2d,f,海潮村,121.76302872444644,30.956646136910777
10g8g2e,f,海春路150弄,121.58522421985283,31.347722540129336
10g8g2f,f,海防新村,121.55370653813368,31.24784832468331
10g8g2g,f,海鸣路98弄,121.67255276711927,31.282661149317182
10g8g2h,f,海纳路129弄,121.67121892837882,31.292429318102858
10g8g2i,f,海鹏路301弄,121.67434178143438,31.2893368873394
10g8g2j,f,海鹏路380弄,121.67791985409986,31.288276413963747
10g8g2k,f,海桥村,121.61030182555497,31.010441946360928
10g8g2l,f,海容路399弄,121.67927666081951,31.282090881720297
10g8g2m,f,海沈村,121.79628088644078,31.025761208687086
10g8g2n,f,海顺路359弄,121.68231918117083,31.276673342297034
10g8g2o,f,海松路398弄,121.6804072036898,31.27658735986354
10g8g2p,f,海松路421弄,121.6807443299537,31.279223831349746
10g8g2q,f,海松路52弄,121.67609799005831,31.274903331696308
10g8g2r,f,海燕路188弄,121.76186657332339,31.037542888569995
10g8g2s,f,海燕路98号,121.76248884863972,31.03916035615197
10g8g2t,f,海阳路1000弄,121.50525032242409,31.157615108125857
10g8g2u,f,海阳路1065弄,121.50539207499835,31.159325021093775
10g8g2v,f,海阳路1080弄,121.50653167989556,31.157390957553154
10g8g2w,f,海阳路1125弄,121.50726013488918,31.158785463909332
10g8g2x,f,海阳路445弄,121.49297397538267,31.155186893764814
10g8g2y,f,海阳路450弄,121.49281401521833,31.153811663610124
10g8g2z,f,海阳路860弄,121.50203904261535,31.15698769942593
10g8g30,f,海阳路905弄,121.503442608451,31.158786957228408
10g8g31,f,航昌路199弄,121.60892205843157,31.078784387273927
10g8g32,f,航昌路376弄,121.60911285656404,31.07488416305202
10g8g33,f,航昌路489弄,121.60949957958562,31.075033123130886
10g8g34,f,航城七路450弄,121.75789734886727,31.141139922384045
10g8g35,f,航城三路692弄,121.75464999779206,31.15170832430969
10g8g36,f,航城三路86弄,121.74420495176527,31.14900670361808
10g8g37,f,航城五路151弄,121.74785942003513,31.14418065053751
10g8g38,f,航城五路401弄,121.75131156238959,31.144208419084485
10g8g39,f,航春路169弄,121.60570269136382,31.081202837741806
10g8g3a,f,航鹤路1700弄,121.58696609174919,31.048381865926697
10g8g3b,f,航鹤路999弄,121.58522087465141,31.041299377462405
10g8g3c,f,航梅路525弄,121.57417436813289,31.024574678676665
10g8g3d,f,航梅路526弄,121.58213025673459,31.02386596387311
10g8g3e,f,航瑞路175弄,121.59271630509245,31.070905310055103
10g8g3f,f,航瑞路388弄,121.59490395927078,31.073774417809393
10g8g3g,f,航瑞路389弄,121.59122420821654,31.07469664200966
10g8g3h,f,航瑞路459弄,121.5893153294563,31.076771053134745
10g8g3i,f,航头路1137弄,121.59339876224372,31.032421694308994
10g8g3j,f,航头路166号,121.6029745115994,31.035055357191787
10g8g3k,f,航头路1688弄,121.58492372154522,31.031998697931524
10g8g3l,f,航头路988弄,121.60054549672216,31.037370977333588
10g8g3m,f,航绣路50弄,121.59652860498973,31.071007004964745
10g8g3n,f,和融路55弄,121.49990378453863,31.12535163588812
10g8g3o,f,菏泽路25弄,121.5906266893241,31.274239575179106
10g8g3p,f,菏泽路287弄,121.59380642699598,31.268824283214695
10g8g3q,f,菏泽路418弄,121.59291799753342,31.266874350285907
10g8g3r,f,菏泽路567弄,121.59507778435295,31.265264608788886
10g8g3s,f,菏泽路58弄,121.5893258378112,31.272723050700584
10g8g3t,f,菏泽路825弄,121.59967915565078,31.260737307052324
10g8g3u,f,鹤驰路88弄,121.59448444757948,31.080336605267867
10g8g3v,f,鹤驰路99弄,121.59503270385784,31.07911341847634
10g8g3w,f,鹤东村,121.60204927096457,31.054684493158224
10g8g3x,f,鹤洁路138弄,121.59770812707238,31.06959996860879
10g8g3y,f,鹤鸣村,121.58825551316504,31.045820809586505
10g8g3z,f,鹤沙路201弄,121.60053239448474,31.07979516832924
10g8g40,f,鹤沙路226弄,121.59903367923556,31.082968906367107
10g8g41,f,鹤沙路588弄,121.59330018905676,31.08199380893682
10g8g42,f,鹤沙路688弄,121.58939533160832,31.08166090974648
10g8g43,f,鹤沙路699弄,121.59106143284755,31.08133871010718
10g8g44,f,鹤永路259弄,121.60402305771073,31.081106772468075
10g8g45,f,鹤永路599弄,121.60474021595464,31.07451887566978
10g8g46,f,鹤永路600弄,121.6026938215347,31.074338298077652
10g8g47,f,鹤永路751弄,121.60493766078989,31.07184016955634
10g8g48,f,鹤韵路549弄,121.59574853533526,31.075246408089516
10g8g49,f,横桥路118弄,121.57723268654607,31.108309686773747
10g8g4a,f,红光小区,121.77139237665243,31.06413306267644
10g8g4b,f,红旗村东桥队毛家塘,121.50295155618386,31.12926657275611
10g8g4c,f,红旗村姜胡宅队江湖宅,121.49355289661833,31.121417359610085
10g8g4d,f,红旗村俞家宅,121.75404805130404,31.167619790987665
10g8g4e,f,红桥村,121.63351142695929,31.102413551323743
10g8g4f,f,红三村,121.67328378806077,31.253697643711394
10g8g4g,f,宏雅路151弄,121.6752528694637,31.239881956656323
10g8g4h,f,虹桥村,121.71026347668709,31.175767002175316
10g8g4i,f,虹三村,121.67320826052052,31.253535613696098
10g8g4j,f,洪山路121弄,121.499124844291,31.178869884704326
10g8g4k,f,洪山路1658弄,121.50798962217337,31.15328973435649
10g8g4l,f,洪山路1889弄,121.51143482842087,31.151481300986685
10g8g4m,f,洪山路237弄,121.50167635061902,31.172854387962342
10g8g4n,f,洪山路300弄,121.50017727825745,31.17049347863422
10g8g4o,f,洪山路851弄,121.50503007300331,31.16095409232095
10g8g4p,f,胡巷村,121.51836080860613,31.152947429742078
10g8g4q,f,沪东路67号,121.58043283779347,31.270605395148692
10g8g4r,f,沪南公路5192号,121.58873794942083,31.052243092597912
10g8g4s,f,沪南公路8595弄,121.68677193808706,31.037046261869428
10g8g4t,f,沪南公路9399弄,121.719092596972,31.038162250499024
