[{"SH_ID_36":"10gbfw1","区36":"f","地址":"八灶村郭家宅","lng":121.71561322821276,"lat":31.152957498180093,"确诊日期36":"18"},{"SH_ID_36":"10gbfw2","区36":"f","地址":"白杨路199弄","lng":121.5561396873431,"lat":31.207911792184458,"确诊日期36":"18"},{"SH_ID_36":"10gbfw3","区36":"f","地址":"百龙新村","lng":121.61647494115786,"lat":31.1414108350185,"确诊日期36":"18"},{"SH_ID_36":"10gbfw4","区36":"f","地址":"百曲村","lng":121.53954559255817,"lat":31.11681697356969,"确诊日期36":"18"},{"SH_ID_36":"10gbfw5","区36":"f","地址":"板泉路1201弄","lng":121.50547163658253,"lat":31.162580456085976,"确诊日期36":"18"},{"SH_ID_36":"10gbfw6","区36":"f","地址":"板泉路2000弄","lng":121.5310898360529,"lat":31.16573970937074,"确诊日期36":"18"},{"SH_ID_36":"10gbfw7","区36":"f","地址":"板泉路50号","lng":121.49467156737343,"lat":31.15772110645317,"确诊日期36":"18"},{"SH_ID_36":"10gbfw8","区36":"f","地址":"北艾路1077弄","lng":121.53643925780611,"lat":31.18104294644755,"确诊日期36":"18"},{"SH_ID_36":"10gbfw9","区36":"f","地址":"北艾路1200弄","lng":121.53291597966421,"lat":31.183719986401165,"确诊日期36":"18"},{"SH_ID_36":"10gbfwa","区36":"f","地址":"北艾路155弄","lng":121.54307216689338,"lat":31.185839637634746,"确诊日期36":"18"},{"SH_ID_36":"10gbfwb","区36":"f","地址":"北艾路1660弄","lng":121.52356561904568,"lat":31.181375532524317,"确诊日期36":"18"},{"SH_ID_36":"10gbfwc","区36":"f","地址":"北艾路1765弄","lng":121.52348154453007,"lat":31.177948786264967,"确诊日期36":"18"},{"SH_ID_36":"10gbfwd","区36":"f","地址":"北艾路862弄","lng":121.5372534703663,"lat":31.184052654495623,"确诊日期36":"18"},{"SH_ID_36":"10gbfwe","区36":"f","地址":"北蔡大街31弄","lng":121.55449262700344,"lat":31.18738760907253,"确诊日期36":"18"},{"SH_ID_36":"10gbfwf","区36":"f","地址":"北新园路460弄","lng":121.62657108852865,"lat":31.320205721536905,"确诊日期36":"18"},{"SH_ID_36":"10gbfwg","区36":"f","地址":"北洋泾路609号","lng":121.55111796829242,"lat":31.242911084931748,"确诊日期36":"18"},{"SH_ID_36":"10gbfwh","区36":"f","地址":"北园路258弄","lng":121.52399612323121,"lat":31.203028119267053,"确诊日期36":"18"},{"SH_ID_36":"10gbfwi","区36":"f","地址":"北张家浜路172号","lng":121.52578513065812,"lat":31.216362033687805,"确诊日期36":"18"},{"SH_ID_36":"10gbfwj","区36":"f","地址":"北张家浜路188弄","lng":121.52511212946267,"lat":31.216215404745007,"确诊日期36":"18"},{"SH_ID_36":"10gbfwk","区36":"f","地址":"北张家浜路28弄","lng":121.51991240267503,"lat":31.21577917955548,"确诊日期36":"18"},{"SH_ID_36":"10gbfwl","区36":"f","地址":"北张家浜路58号","lng":121.520508648552,"lat":31.21589124048379,"确诊日期36":"18"},{"SH_ID_36":"10gbfwm","区36":"f","地址":"北中路10弄","lng":121.55238326374742,"lat":31.182527253721545,"确诊日期36":"18"},{"SH_ID_36":"10gbfwn","区36":"f","地址":"北中路247弄","lng":121.55707796587585,"lat":31.18402554678131,"确诊日期36":"18"},{"SH_ID_36":"10gbfwo","区36":"f","地址":"北中路280弄","lng":121.55775677202904,"lat":31.183414958734588,"确诊日期36":"18"},{"SH_ID_36":"10gbfwp","区36":"f","地址":"北中路480弄","lng":121.5632425363467,"lat":31.183731187300882,"确诊日期36":"18"},{"SH_ID_36":"10gbfwq","区36":"f","地址":"碧云路199弄","lng":121.57392051851737,"lat":31.236934205352107,"确诊日期36":"18"},{"SH_ID_36":"10gbfwr","区36":"f","地址":"滨海一村傅家宅","lng":121.756474686258,"lat":31.143457712096474,"确诊日期36":"18"},{"SH_ID_36":"10gbfws","区36":"f","地址":"滨海一村西王家宅","lng":121.68680242550865,"lat":31.161069091195962,"确诊日期36":"18"},{"SH_ID_36":"10gbfwt","区36":"f","地址":"博华路1018弄","lng":121.55115969272377,"lat":31.170695366658872,"确诊日期36":"18"},{"SH_ID_36":"10gbfwu","区36":"f","地址":"博华路237弄","lng":121.5461575414628,"lat":31.183476479689066,"确诊日期36":"18"},{"SH_ID_36":"10gbfwv","区36":"f","地址":"博华路300弄","lng":121.54650700670604,"lat":31.18272107857078,"确诊日期36":"18"},{"SH_ID_36":"10gbfww","区36":"f","地址":"博华路930弄","lng":121.55064775024229,"lat":31.174161812743602,"确诊日期36":"18"},{"SH_ID_36":"10gbfwx","区36":"f","地址":"博华路980弄","lng":121.55095367675584,"lat":31.171776193572622,"确诊日期36":"18"},{"SH_ID_36":"10gbfwy","区36":"f","地址":"博华路999弄","lng":121.54999753671069,"lat":31.169976916991466,"确诊日期36":"18"},{"SH_ID_36":"10gbfwz","区36":"f","地址":"博山东路20弄","lng":121.55997320016009,"lat":31.24535219678069,"确诊日期36":"18"},{"SH_ID_36":"10gbfx0","区36":"f","地址":"博山东路440弄","lng":121.56831264230789,"lat":31.252190263998088,"确诊日期36":"18"},{"SH_ID_36":"10gbfx1","区36":"f","地址":"博山东路811弄","lng":121.57562458775567,"lat":31.257572688628304,"确诊日期36":"18"},{"SH_ID_36":"10gbfx2","区36":"f","地址":"博山路12弄","lng":121.55694193160768,"lat":31.246203178700274,"确诊日期36":"18"},{"SH_ID_36":"10gbfx3","区36":"f","地址":"博兴路462弄","lng":121.58186649716988,"lat":31.265417063169206,"确诊日期36":"18"},{"SH_ID_36":"10gbfx4","区36":"f","地址":"博兴路916弄","lng":121.59173339458106,"lat":31.264550144345407,"确诊日期36":"18"},{"SH_ID_36":"10gbfx5","区36":"f","地址":"彩云路221弄","lng":121.81419404473323,"lat":30.897668644328228,"确诊日期36":"18"},{"SH_ID_36":"10gbfx6","区36":"f","地址":"蔡路村东蔡家宅","lng":121.72876089373439,"lat":31.213375777233654,"确诊日期36":"18"},{"SH_ID_36":"10gbfx7","区36":"f","地址":"蔡路村南丁家宅","lng":121.73031155086673,"lat":31.2139652968417,"确诊日期36":"18"},{"SH_ID_36":"10gbfx8","区36":"f","地址":"蔡路村西蔡家宅","lng":121.73364513359465,"lat":31.21423971053529,"确诊日期36":"18"},{"SH_ID_36":"10gbfx9","区36":"f","地址":"蔡路村杨家宅","lng":121.73020575323117,"lat":31.214206002735782,"确诊日期36":"18"},{"SH_ID_36":"10gbfxa","区36":"f","地址":"仓房村南沟头","lng":121.50976472381511,"lat":31.36543993229503,"确诊日期36":"18"},{"SH_ID_36":"10gbfxb","区36":"f","地址":"草高支路1050弄","lng":121.56381142079763,"lat":31.35101262346865,"确诊日期36":"18"},{"SH_ID_36":"10gbfxc","区36":"f","地址":"草高支路1118弄","lng":121.56286974098253,"lat":31.351906812859546,"确诊日期36":"18"},{"SH_ID_36":"10gbfxd","区36":"f","地址":"柴场村","lng":121.7262320568416,"lat":31.18083486431695,"确诊日期36":"18"},{"SH_ID_36":"10gbfxe","区36":"f","地址":"长岛路1203弄","lng":121.59316536006088,"lat":31.261786941465715,"确诊日期36":"18"},{"SH_ID_36":"10gbfxf","区36":"f","地址":"长岛路800弄","lng":121.5868128786699,"lat":31.260311989440407,"确诊日期36":"18"},{"SH_ID_36":"10gbfxg","区36":"f","地址":"长丰村","lng":121.6743473652982,"lat":31.18279784378812,"确诊日期36":"18"},{"SH_ID_36":"10gbfxh","区36":"f","地址":"长路村","lng":121.78062983164443,"lat":31.072730275834097,"确诊日期36":"18"},{"SH_ID_36":"10gbfxi","区36":"f","地址":"长桥村西乔家宅","lng":121.72884747931244,"lat":31.13626200874995,"确诊日期36":"18"},{"SH_ID_36":"10gbfxj","区36":"f","地址":"长清路177弄","lng":121.4901335061239,"lat":31.16604183235012,"确诊日期36":"18"},{"SH_ID_36":"10gbfxk","区36":"f","地址":"长清路643弄","lng":121.49115453015364,"lat":31.159163185884026,"确诊日期36":"18"},{"SH_ID_36":"10gbfxl","区36":"f","地址":"长清路693弄","lng":121.4922472790363,"lat":31.157181138633305,"确诊日期36":"18"},{"SH_ID_36":"10gbfxm","区36":"f","地址":"长清路967弄","lng":121.49343055555893,"lat":31.151759375010624,"确诊日期36":"18"},{"SH_ID_36":"10gbfxn","区36":"f","地址":"长元村曹家宅","lng":121.64539730326918,"lat":31.166960382941944,"确诊日期36":"18"},{"SH_ID_36":"10gbfxo","区36":"f","地址":"昌里东路190弄","lng":121.50527231433406,"lat":31.176266158685877,"确诊日期36":"18"},{"SH_ID_36":"10gbfxp","区36":"f","地址":"昌里东路650弄","lng":121.51764916325249,"lat":31.179046048539544,"确诊日期36":"18"},{"SH_ID_36":"10gbfxq","区36":"f","地址":"昌里东路80弄","lng":121.506132413579,"lat":31.174253781220834,"确诊日期36":"18"},{"SH_ID_36":"10gbfxr","区36":"f","地址":"昌里路340弄","lng":121.49171982497435,"lat":31.171776506064305,"确诊日期36":"18"},{"SH_ID_36":"10gbfxs","区36":"f","地址":"昌里路98弄","lng":121.50213561229396,"lat":31.174822599441352,"确诊日期36":"18"},{"SH_ID_36":"10gbfxt","区36":"f","地址":"朝阳村沈家宅","lng":121.72332463945057,"lat":31.251222665680885,"确诊日期36":"18"},{"SH_ID_36":"10gbfxu","区36":"f","地址":"陈春东路88弄","lng":121.55956646065177,"lat":31.175136098109036,"确诊日期36":"18"},{"SH_ID_36":"10gbfxv","区36":"f","地址":"陈春东路99弄","lng":121.56041247662445,"lat":31.175942574742592,"确诊日期36":"18"},{"SH_ID_36":"10gbfxw","区36":"f","地址":"陈春路620弄","lng":121.54555635226976,"lat":31.17283773601044,"确诊日期36":"18"},{"SH_ID_36":"10gbfxx","区36":"f","地址":"陈胡村胡家宅","lng":121.7692724477964,"lat":31.193979068078132,"确诊日期36":"18"},{"SH_ID_36":"10gbfxy","区36":"f","地址":"陈邵路103号工地生活区","lng":121.48405681623487,"lat":31.14809851261589,"确诊日期36":"18"},{"SH_ID_36":"10gbfxz","区36":"f","地址":"陈行村陈家宅","lng":121.56539068942587,"lat":31.17669559348455,"确诊日期36":"18"},{"SH_ID_36":"10gbfy0","区36":"f","地址":"陈行村张家宅","lng":121.34238601220201,"lat":31.483216020242427,"确诊日期36":"18"},{"SH_ID_36":"10gbfy1","区36":"f","地址":"晨晖路825弄","lng":121.59768199974914,"lat":31.202207258191464,"确诊日期36":"18"},{"SH_ID_36":"10gbfy2","区36":"f","地址":"成山路1066弄","lng":121.52011429672511,"lat":31.174233857300212,"确诊日期36":"18"},{"SH_ID_36":"10gbfy3","区36":"f","地址":"成山路1488弄","lng":121.5284807505211,"lat":31.175396491169835,"确诊日期36":"18"},{"SH_ID_36":"10gbfy4","区36":"f","地址":"成山路226弄","lng":121.49738128395208,"lat":31.171324599848965,"确诊日期36":"18"},{"SH_ID_36":"10gbfy5","区36":"f","地址":"成山路2388号","lng":121.54619446017283,"lat":31.178817372503033,"确诊日期36":"18"},{"SH_ID_36":"10gbfy6","区36":"f","地址":"成山路2399弄","lng":121.54485168558816,"lat":31.181320098374826,"确诊日期36":"18"},{"SH_ID_36":"10gbfy7","区36":"f","地址":"成山路24弄","lng":121.48557303387511,"lat":31.168090211496413,"确诊日期36":"18"},{"SH_ID_36":"10gbfy8","区36":"f","地址":"成山路544弄","lng":121.50845364421701,"lat":31.169938520946207,"确诊日期36":"18"},{"SH_ID_36":"10gbfy9","区36":"f","地址":"成山路648弄","lng":121.51089502995569,"lat":31.170982371364833,"确诊日期36":"18"},{"SH_ID_36":"10gbfya","区36":"f","地址":"城丰路212弄","lng":121.68753746807948,"lat":31.190437309891895,"确诊日期36":"18"},{"SH_ID_36":"10gbfyb","区36":"f","地址":"城丰路陆家宅","lng":121.67415985598097,"lat":31.184814753349155,"确诊日期36":"18"},{"SH_ID_36":"10gbfyc","区36":"f","地址":"城南村朱家宅","lng":121.69951880686533,"lat":31.18783413603804,"确诊日期36":"18"},{"SH_ID_36":"10gbfyd","区36":"f","地址":"城南路329弄","lng":121.703827089014,"lat":31.19203659094071,"确诊日期36":"18"},{"SH_ID_36":"10gbfye","区36":"f","地址":"城南路550弄","lng":121.69700254034998,"lat":31.19174450521164,"确诊日期36":"18"},{"SH_ID_36":"10gbfyf","区36":"f","地址":"城南路627弄","lng":121.6945557911919,"lat":31.188947900079164,"确诊日期36":"18"},{"SH_ID_36":"10gbfyg","区36":"f","地址":"川北公路3046号","lng":121.61302968660928,"lat":31.20547638128048,"确诊日期36":"18"},{"SH_ID_36":"10gbfyh","区36":"f","地址":"川沙路1666弄","lng":121.679306737916,"lat":31.253928473495236,"确诊日期36":"18"},{"SH_ID_36":"10gbfyi","区36":"f","地址":"川沙路4586弄","lng":121.69644872379311,"lat":31.19918209876125,"确诊日期36":"18"},{"SH_ID_36":"10gbfyj","区36":"f","地址":"川沙路5122弄","lng":121.69772755630072,"lat":31.19016297800048,"确诊日期36":"18"},{"SH_ID_36":"10gbfyk","区36":"f","地址":"川沙新镇高桥村钱家宅","lng":121.74055282226003,"lat":31.187400467566246,"确诊日期36":"18"},{"SH_ID_36":"10gbfyl","区36":"f","地址":"川沙新镇高桥村项家宅","lng":121.72452482858229,"lat":31.166909108066363,"确诊日期36":"18"},{"SH_ID_36":"10gbfym","区36":"f","地址":"川沙新镇果园村","lng":121.6486621891547,"lat":31.112905417460706,"确诊日期36":"18"},{"SH_ID_36":"10gbfyn","区36":"f","地址":"川银路81弄","lng":121.6861604924839,"lat":31.192914411825317,"确诊日期36":"18"},{"SH_ID_36":"10gbfyo","区36":"f","地址":"川周公路2788号生活区","lng":121.62359434802859,"lat":31.145104555063007,"确诊日期36":"18"},{"SH_ID_36":"10gbfyp","区36":"f","地址":"川周公路2828弄","lng":121.61776738816098,"lat":31.143594664727686,"确诊日期36":"18"},{"SH_ID_36":"10gbfyq","区36":"f","地址":"川周公路3052弄","lng":121.6110863456936,"lat":31.14030565698568,"确诊日期36":"18"},{"SH_ID_36":"10gbfyr","区36":"f","地址":"川周公路4020弄","lng":121.58927520603157,"lat":31.125664289326487,"确诊日期36":"18"},{"SH_ID_36":"10gbfys","区36":"f","地址":"川周公路4058弄","lng":121.58549341648201,"lat":31.12561617278188,"确诊日期36":"18"},{"SH_ID_36":"10gbfyt","区36":"f","地址":"川周公路4318弄","lng":121.57995357704664,"lat":31.121882168047634,"确诊日期36":"18"},{"SH_ID_36":"10gbfyu","区36":"f","地址":"川周公路凌空路交界口工地生活区","lng":121.72518108543407,"lat":31.183921974846008,"确诊日期36":"18"},{"SH_ID_36":"10gbfyv","区36":"f","地址":"川周路8288弄","lng":121.71415262943933,"lat":31.18171224388342,"确诊日期36":"18"},{"SH_ID_36":"10gbfyw","区36":"f","地址":"川周路8682弄","lng":121.70880504462527,"lat":31.183107264219668,"确诊日期36":"18"},{"SH_ID_36":"10gbfyx","区36":"f","地址":"创新路21弄","lng":121.68916064755001,"lat":31.21884160909039,"确诊日期36":"18"},{"SH_ID_36":"10gbfyy","区36":"f","地址":"创新西路199弄","lng":121.65522157817512,"lat":31.200782523176613,"确诊日期36":"18"},{"SH_ID_36":"10gbfyz","区36":"f","地址":"创新西路300弄","lng":121.65316081012506,"lat":31.20334226630053,"确诊日期36":"18"},{"SH_ID_36":"10gbfz0","区36":"f","地址":"创新西路75弄","lng":121.65577761200991,"lat":31.202657721136006,"确诊日期36":"18"},{"SH_ID_36":"10gbfz1","区36":"f","地址":"创新中路199弄","lng":121.66145413075355,"lat":31.207563164035342,"确诊日期36":"18"},{"SH_ID_36":"10gbfz2","区36":"f","地址":"创新中路399弄","lng":121.66568167669917,"lat":31.21136161620784,"确诊日期36":"18"},{"SH_ID_36":"10gbfz3","区36":"f","地址":"创业路66弄","lng":121.61061219655744,"lat":31.14553626395998,"确诊日期36":"18"},{"SH_ID_36":"10gbfz4","区36":"f","地址":"创业路78弄","lng":121.61143652269023,"lat":31.14419529413595,"确诊日期36":"18"},{"SH_ID_36":"10gbfz5","区36":"f","地址":"创业路798号","lng":121.6963769110276,"lat":31.21519092534526,"确诊日期36":"18"},{"SH_ID_36":"10gbfz6","区36":"f","地址":"春晖路276弄","lng":121.58427824161826,"lat":31.341306789626934,"确诊日期36":"18"},{"SH_ID_36":"10gbfz7","区36":"f","地址":"春晖路289弄","lng":121.58527378430917,"lat":31.33869282510592,"确诊日期36":"18"},{"SH_ID_36":"10gbfz8","区36":"f","地址":"春雷村东夏家宅","lng":121.7402147163192,"lat":31.220018403992057,"确诊日期36":"18"},{"SH_ID_36":"10gbfz9","区36":"f","地址":"达秀路151号","lng":121.65268577510861,"lat":31.237657025517372,"确诊日期36":"18"},{"SH_ID_36":"10gbfza","区36":"f","地址":"大同路1010弄","lng":121.57262068363966,"lat":31.335440378374653,"确诊日期36":"18"},{"SH_ID_36":"10gbfzb","区36":"f","地址":"大同路922弄","lng":121.57256169534078,"lat":31.336275575088315,"确诊日期36":"18"},{"SH_ID_36":"10gbfzc","区36":"f","地址":"大团镇果园村","lng":121.73083038883503,"lat":30.977897257909255,"确诊日期36":"18"},{"SH_ID_36":"10gbfzd","区36":"f","地址":"大星村老顾家宅","lng":121.71506017535567,"lat":31.20459368276455,"确诊日期36":"18"},{"SH_ID_36":"10gbfze","区36":"f","地址":"大杨村","lng":121.74196298518933,"lat":30.970836082425805,"确诊日期36":"18"},{"SH_ID_36":"10gbfzf","区36":"f","地址":"大众村王家宅","lng":121.6801997779961,"lat":31.16618780324721,"确诊日期36":"18"},{"SH_ID_36":"10gbfzg","区36":"f","地址":"大众村西沟圈","lng":121.65126229907362,"lat":31.22864021183624,"确诊日期36":"18"},{"SH_ID_36":"10gbfzh","区36":"f","地址":"大众村中心新村","lng":121.64842756093675,"lat":31.228433020140827,"确诊日期36":"18"},{"SH_ID_36":"10gbfzi","区36":"f","地址":"道新村陈家宅","lng":121.56518557487647,"lat":31.17659453491465,"确诊日期36":"18"},{"SH_ID_36":"10gbfzj","区36":"f","地址":"道新村东杜家宅","lng":121.76020364004927,"lat":31.16300012598588,"确诊日期36":"18"},{"SH_ID_36":"10gbfzk","区36":"f","地址":"道新村龚家宅","lng":121.75938441928878,"lat":31.16291245727838,"确诊日期36":"18"},{"SH_ID_36":"10gbfzl","区36":"f","地址":"德川路259弄","lng":121.66828997021294,"lat":31.19446676990892,"确诊日期36":"18"},{"SH_ID_36":"10gbfzm","区36":"f","地址":"德淳路99弄","lng":121.66670889251446,"lat":31.228572364086197,"确诊日期36":"18"},{"SH_ID_36":"10gbfzn","区36":"f","地址":"德平路100弄","lng":121.56165436691836,"lat":31.248144760697702,"确诊日期36":"18"},{"SH_ID_36":"10gbfzo","区36":"f","地址":"德平路1065弄","lng":121.56772552041632,"lat":31.242485600689825,"确诊日期36":"18"},{"SH_ID_36":"10gbfzp","区36":"f","地址":"德平路1066弄","lng":121.56716822049002,"lat":31.24209779903639,"确诊日期36":"18"},{"SH_ID_36":"10gbfzq","区36":"f","地址":"德平路1125弄","lng":121.5698035025334,"lat":31.241774017505982,"确诊日期36":"18"},{"SH_ID_36":"10gbfzr","区36":"f","地址":"德平路1189弄","lng":121.57137893719047,"lat":31.240229123631632,"确诊日期36":"18"},{"SH_ID_36":"10gbfzs","区36":"f","地址":"德平路143弄","lng":121.56094910781985,"lat":31.25057752255131,"确诊日期36":"18"},{"SH_ID_36":"10gbfzt","区36":"f","地址":"德平路155弄","lng":121.56139266353333,"lat":31.25032872720999,"确诊日期36":"18"},{"SH_ID_36":"10gbfzu","区36":"f","地址":"德平路25弄","lng":121.55793233769286,"lat":31.254071944415603,"确诊日期36":"18"},{"SH_ID_36":"10gbfzv","区36":"f","地址":"德平路764弄","lng":121.56438287467822,"lat":31.243047583607243,"确诊日期36":"18"},{"SH_ID_36":"10gbfzw","区36":"f","地址":"德州路220弄","lng":121.49539443267221,"lat":31.16819736714294,"确诊日期36":"18"},{"SH_ID_36":"10gbfzx","区36":"f","地址":"德州路255弄","lng":121.49242674542565,"lat":31.1684798993666,"确诊日期36":"18"},{"SH_ID_36":"10gbfzy","区36":"f","地址":"德州路380弄","lng":121.48580666932466,"lat":31.16459732727337,"确诊日期36":"18"},{"SH_ID_36":"10gbfzz","区36":"f","地址":"德州路420弄","lng":121.4837442400966,"lat":31.16494502423287,"确诊日期36":"18"},{"SH_ID_36":"10gbg00","区36":"f","地址":"德州路421弄","lng":121.48216354124241,"lat":31.1685906431396,"确诊日期36":"18"},{"SH_ID_36":"10gbg01","区36":"f","地址":"丁香路1299弄","lng":121.56400338814005,"lat":31.231580492764763,"确诊日期36":"18"},{"SH_ID_36":"10gbg02","区36":"f","地址":"丁香路910弄","lng":121.55577907699725,"lat":31.225759515290083,"确诊日期36":"18"},{"SH_ID_36":"10gbg03","区36":"f","地址":"东方路1881弄","lng":121.52175368335631,"lat":31.199353974717635,"确诊日期36":"18"},{"SH_ID_36":"10gbg04","区36":"f","地址":"东方路2880弄","lng":121.51894292556418,"lat":31.19588164692488,"确诊日期36":"18"},{"SH_ID_36":"10gbg05","区36":"f","地址":"东方路3344弄","lng":121.5137196091924,"lat":31.19342491386991,"确诊日期36":"18"},{"SH_ID_36":"10gbg06","区36":"f","地址":"东方路3373弄","lng":121.5279675106129,"lat":31.224565083209693,"确诊日期36":"18"},{"SH_ID_36":"10gbg07","区36":"f","地址":"东风村曹家宅","lng":121.69864247574792,"lat":31.2278116555459,"确诊日期36":"18"},{"SH_ID_36":"10gbg08","区36":"f","地址":"东风村丁家宅","lng":121.60981041698315,"lat":31.181068128255507,"确诊日期36":"18"},{"SH_ID_36":"10gbg09","区36":"f","地址":"东风村唐家宅","lng":121.58284833069536,"lat":31.161320566237936,"确诊日期36":"18"},{"SH_ID_36":"10gbg0a","区36":"f","地址":"东风村张家宅","lng":121.68643545587545,"lat":31.21760747967726,"确诊日期36":"18"},{"SH_ID_36":"10gbg0b","区36":"f","地址":"东高路152号","lng":121.57727635561983,"lat":31.28927471362494,"确诊日期36":"18"},{"SH_ID_36":"10gbg0c","区36":"f","地址":"东高路26弄","lng":121.57558177351811,"lat":31.28781430005165,"确诊日期36":"18"},{"SH_ID_36":"10gbg0d","区36":"f","地址":"东沟三村","lng":121.57516184424641,"lat":31.293308360686375,"确诊日期36":"18"},{"SH_ID_36":"10gbg0e","区36":"f","地址":"东海村胡家宅","lng":121.81862862388229,"lat":31.082817470760148,"确诊日期36":"18"},{"SH_ID_36":"10gbg0f","区36":"f","地址":"东海村张家宅","lng":121.67368678649734,"lat":31.301913779260182,"确诊日期36":"18"},{"SH_ID_36":"10gbg0g","区36":"f","地址":"东建路670弄","lng":121.54035087638736,"lat":31.200419901666773,"确诊日期36":"18"},{"SH_ID_36":"10gbg0h","区36":"f","地址":"东建新村","lng":121.53351589939783,"lat":31.201559666321813,"确诊日期36":"18"},{"SH_ID_36":"10gbg0i","区36":"f","地址":"东靖路2250弄","lng":121.61103040046919,"lat":31.289226622583634,"确诊日期36":"18"},{"SH_ID_36":"10gbg0j","区36":"f","地址":"东陆路1018弄","lng":121.59282276490038,"lat":31.27312570709788,"确诊日期36":"18"},{"SH_ID_36":"10gbg0k","区36":"f","地址":"东陆路1182弄","lng":121.59576600368297,"lat":31.27063177135835,"确诊日期36":"18"},{"SH_ID_36":"10gbg0l","区36":"f","地址":"东陆路1268弄","lng":121.59623109055548,"lat":31.268397055861044,"确诊日期36":"18"},{"SH_ID_36":"10gbg0m","区36":"f","地址":"东陆路1350弄","lng":121.60156328628621,"lat":31.2672092569646,"确诊日期36":"18"},{"SH_ID_36":"10gbg0n","区36":"f","地址":"东陆路429弄","lng":121.58670056487215,"lat":31.280734375707013,"确诊日期36":"18"},{"SH_ID_36":"10gbg0o","区36":"f","地址":"东三街102弄","lng":121.50987093479155,"lat":31.201640147792062,"确诊日期36":"18"},{"SH_ID_36":"10gbg0p","区36":"f","地址":"东三里桥路190弄","lng":121.5113048042085,"lat":31.200519126816168,"确诊日期36":"18"},{"SH_ID_36":"10gbg0q","区36":"f","地址":"东三里桥路245弄","lng":121.51603973951788,"lat":31.199561625359532,"确诊日期36":"18"},{"SH_ID_36":"10gbg0r","区36":"f","地址":"东书房路390弄","lng":121.53539403424632,"lat":31.16497176560756,"确诊日期36":"18"},{"SH_ID_36":"10gbg0s","区36":"f","地址":"东书房路560弄","lng":121.53469719928367,"lat":31.161220779437286,"确诊日期36":"18"},{"SH_ID_36":"10gbg0t","区36":"f","地址":"东绣路1086弄","lng":121.53610159893812,"lat":31.19942570199135,"确诊日期36":"18"},{"SH_ID_36":"10gbg0u","区36":"f","地址":"东绣路1155弄","lng":121.53492903534396,"lat":31.199004941801803,"确诊日期36":"18"},{"SH_ID_36":"10gbg0v","区36":"f","地址":"繁荣东路150弄","lng":121.58756307261129,"lat":31.105816348090354,"确诊日期36":"18"},{"SH_ID_36":"10gbg0w","区36":"f","地址":"繁荣东路159弄","lng":121.58568977187724,"lat":31.10782256938314,"确诊日期36":"18"},{"SH_ID_36":"10gbg0x","区36":"f","地址":"繁荣路266弄","lng":121.57203444684087,"lat":31.105353951635387,"确诊日期36":"18"},{"SH_ID_36":"10gbg0y","区36":"f","地址":"范家新村","lng":121.71465046133574,"lat":31.238921522487868,"确诊日期36":"18"},{"SH_ID_36":"10gbg0z","区36":"f","地址":"范桥村","lng":121.63432193384506,"lat":31.0550577087408,"确诊日期36":"18"},{"SH_ID_36":"10gbg10","区36":"f","地址":"方竹路222弄","lng":121.91014022378519,"lat":30.894625485781027,"确诊日期36":"18"},{"SH_ID_36":"10gbg11","区36":"f","地址":"芳华路630弄","lng":121.56416715970866,"lat":31.196454413005313,"确诊日期36":"18"},{"SH_ID_36":"10gbg12","区36":"f","地址":"芳华路788弄","lng":121.56556934408628,"lat":31.195436421980084,"确诊日期36":"18"},{"SH_ID_36":"10gbg13","区36":"f","地址":"芳芯路210弄","lng":121.55735915018472,"lat":31.190823197860194,"确诊日期36":"18"},{"SH_ID_36":"10gbg14","区36":"f","地址":"飞桥村","lng":121.61292514272073,"lat":31.04333004778061,"确诊日期36":"18"},{"SH_ID_36":"10gbg15","区36":"f","地址":"福山路102弄","lng":121.52676862044629,"lat":31.23106000419897,"确诊日期36":"18"},{"SH_ID_36":"10gbg16","区36":"f","地址":"福山路111弄","lng":121.52840946451803,"lat":31.23277543510768,"确诊日期36":"18"},{"SH_ID_36":"10gbg17","区36":"f","地址":"福善村","lng":121.61156154169316,"lat":31.02616584275661,"确诊日期36":"18"},{"SH_ID_36":"10gbg18","区36":"f","地址":"富强村","lng":121.77272406742452,"lat":31.031916318536236,"确诊日期36":"18"},{"SH_ID_36":"10gbg19","区36":"f","地址":"高宝路379弄","lng":121.62412821196156,"lat":31.291737171774393,"确诊日期36":"18"},{"SH_ID_36":"10gbg1a","区36":"f","地址":"高东二路118弄","lng":121.62694190184902,"lat":31.323089079346865,"确诊日期36":"18"},{"SH_ID_36":"10gbg1b","区36":"f","地址":"高东二路47弄","lng":121.62298036826924,"lat":31.325192049106086,"确诊日期36":"18"},{"SH_ID_36":"10gbg1c","区36":"f","地址":"高东新路500弄","lng":121.62122128848765,"lat":31.336390532500072,"确诊日期36":"18"},{"SH_ID_36":"10gbg1d","区36":"f","地址":"高科东路500弄","lng":121.65341606747677,"lat":31.21098239236846,"确诊日期36":"18"},{"SH_ID_36":"10gbg1e","区36":"f","地址":"高科西路2763弄","lng":121.5529176749692,"lat":31.190920588922683,"确诊日期36":"18"},{"SH_ID_36":"10gbg1f","区36":"f","地址":"高科西路3030弄","lng":121.56297635954016,"lat":31.189398265254052,"确诊日期36":"18"},{"SH_ID_36":"10gbg1g","区36":"f","地址":"高科西路3050弄","lng":121.56344341319017,"lat":31.189515008022394,"确诊日期36":"18"},{"SH_ID_36":"10gbg1h","区36":"f","地址":"高科西路3060弄","lng":121.56417474411198,"lat":31.18955193088223,"确诊日期36":"18"},{"SH_ID_36":"10gbg1i","区36":"f","地址":"高桥镇镇南村姚家宅","lng":121.58069702783465,"lat":31.338935225225036,"确诊日期36":"18"},{"SH_ID_36":"10gbg1j","区36":"f","地址":"高青路4567弄","lng":121.5617309831305,"lat":31.170935945833765,"确诊日期36":"18"},{"SH_ID_36":"10gbg1k","区36":"f","地址":"高行村高家宅","lng":121.65919499767192,"lat":31.168243187251324,"确诊日期36":"18"},{"SH_ID_36":"10gbg1l","区36":"f","地址":"龚华路479弄","lng":121.6882523034979,"lat":31.25906815465007,"确诊日期36":"18"},{"SH_ID_36":"10gbg1m","区36":"f","地址":"龚华路50弄","lng":121.68382541284159,"lat":31.266932634205805,"确诊日期36":"18"},{"SH_ID_36":"10gbg1n","区36":"f","地址":"龚路支路473弄","lng":121.68783438693154,"lat":31.264411333315707,"确诊日期36":"18"},{"SH_ID_36":"10gbg1o","区36":"f","地址":"拱北路289弄","lng":121.77482556239323,"lat":31.055872244573738,"确诊日期36":"18"},{"SH_ID_36":"10gbg1p","区36":"f","地址":"拱川路411弄","lng":121.74359500477829,"lat":31.064400998507004,"确诊日期36":"18"},{"SH_ID_36":"10gbg1q","区36":"f","地址":"拱川路561弄","lng":121.7471502397161,"lat":31.06423983021889,"确诊日期36":"18"},{"SH_ID_36":"10gbg1r","区36":"f","地址":"拱海路240弄","lng":121.73985911109393,"lat":31.06946646771947,"确诊日期36":"18"},{"SH_ID_36":"10gbg1s","区36":"f","地址":"拱海路79弄","lng":121.73649242808685,"lat":31.069414999039065,"确诊日期36":"18"},{"SH_ID_36":"10gbg1t","区36":"f","地址":"共一村包家宅","lng":121.70906169973557,"lat":31.250645911229725,"确诊日期36":"18"},{"SH_ID_36":"10gbg1u","区36":"f","地址":"共一村杨家宅","lng":121.7290218416005,"lat":31.211505419307844,"确诊日期36":"18"},{"SH_ID_36":"10gbg1v","区36":"f","地址":"共一村张家宅","lng":121.70769920182475,"lat":31.252932032753563,"确诊日期36":"18"},{"SH_ID_36":"10gbg1w","区36":"f","地址":"古桐南路117弄","lng":121.61652183226485,"lat":31.20091554837996,"确诊日期36":"18"},{"SH_ID_36":"10gbg1x","区36":"f","地址":"顾东村船板桥","lng":121.6619339544928,"lat":31.295588615090583,"确诊日期36":"18"},{"SH_ID_36":"10gbg1y","区36":"f","地址":"顾东村水洞港","lng":121.66687496034793,"lat":31.293371161243883,"确诊日期36":"18"},{"SH_ID_36":"10gbg1z","区36":"f","地址":"顾东村田度宅","lng":121.65960133477613,"lat":31.297546346212005,"确诊日期36":"18"},{"SH_ID_36":"10gbg20","区36":"f","地址":"顾东村吴家宅","lng":121.63163295452998,"lat":31.179783052872153,"确诊日期36":"18"},{"SH_ID_36":"10gbg21","区36":"f","地址":"顾东村新屋","lng":121.66026428801933,"lat":31.295695646025276,"确诊日期36":"18"},{"SH_ID_36":"10gbg22","区36":"f","地址":"顾家圩村杨家宅","lng":121.54665886236592,"lat":31.36445717207025,"确诊日期36":"18"},{"SH_ID_36":"10gbg23","区36":"f","地址":"顾三村黄家宅","lng":121.68932078050827,"lat":31.28021544707076,"确诊日期36":"18"},{"SH_ID_36":"10gbg24","区36":"f","地址":"顾唐路138弄","lng":121.65662926085577,"lat":31.263242648933165,"确诊日期36":"18"},{"SH_ID_36":"10gbg25","区36":"f","地址":"顾唐路3310弄","lng":121.66688278197952,"lat":31.209078367076433,"确诊日期36":"18"},{"SH_ID_36":"10gbg26","区36":"f","地址":"顾唐路德淳路交界口工地生活区","lng":121.6681862959913,"lat":31.227897833998977,"确诊日期36":"18"},{"SH_ID_36":"10gbg27","区36":"f","地址":"崮山路251弄","lng":121.55353304574197,"lat":31.245747303087402,"确诊日期36":"18"},{"SH_ID_36":"10gbg28","区36":"f","地址":"崮山路717号","lng":121.56070781108143,"lat":31.239037739235496,"确诊日期36":"18"},{"SH_ID_36":"10gbg29","区36":"f","地址":"崮山路95号","lng":121.55062205456552,"lat":31.24736158881658,"确诊日期36":"18"},{"SH_ID_36":"10gbg2a","区36":"f","地址":"观海路999弄","lng":121.78231336160366,"lat":31.05483536807756,"确诊日期36":"18"},{"SH_ID_36":"10gbg2b","区36":"f","地址":"光明村沙桥宅","lng":121.65114127007486,"lat":31.28724453083253,"确诊日期36":"18"},{"SH_ID_36":"10gbg2c","区36":"f","地址":"广兰路248弄","lng":121.61656144949902,"lat":31.216329805420376,"确诊日期36":"18"},{"SH_ID_36":"10gbg2d","区36":"f","地址":"国展路1792号工地生活区","lng":121.49041743199489,"lat":31.200552653591284,"确诊日期36":"18"},{"SH_ID_36":"10gbg2e","区36":"f","地址":"海鸣路98弄","lng":121.67241610162,"lat":31.282818179950038,"确诊日期36":"18"},{"SH_ID_36":"10gbg2f","区36":"f","地址":"海纳路129弄","lng":121.67106985489426,"lat":31.292364307473893,"确诊日期36":"18"},{"SH_ID_36":"10gbg2g","区36":"f","地址":"海纳路490弄","lng":121.67100648554049,"lat":31.291835586338408,"确诊日期36":"18"},{"SH_ID_36":"10gbg2h","区36":"f","地址":"海鹏路301弄","lng":121.67416164067151,"lat":31.2894655666292,"确诊日期36":"18"},{"SH_ID_36":"10gbg2i","区36":"f","地址":"海松路52弄","lng":121.67595885207875,"lat":31.27491065238922,"确诊日期36":"18"},{"SH_ID_36":"10gbg2j","区36":"f","地址":"海塘村陈家宅","lng":121.56531849375506,"lat":31.176619438549505,"确诊日期36":"18"},{"SH_ID_36":"10gbg2k","区36":"f","地址":"海旺路同望路交界口工地生活区","lng":121.8930525000994,"lat":30.866384712442773,"确诊日期36":"18"},{"SH_ID_36":"10gbg2l","区36":"f","地址":"海燕路98号","lng":121.7622825027213,"lat":31.038914602268378,"确诊日期36":"18"},{"SH_ID_36":"10gbg2m","区36":"f","地址":"海阳路1000弄","lng":121.50518658985243,"lat":31.157641153575863,"确诊日期36":"18"},{"SH_ID_36":"10gbg2n","区36":"f","地址":"海阳路1080弄","lng":121.50677358941427,"lat":31.157309210283252,"确诊日期36":"18"},{"SH_ID_36":"10gbg2o","区36":"f","地址":"韩荡村顾家宅","lng":121.6080380385641,"lat":31.157394880075074,"确诊日期36":"18"},{"SH_ID_36":"10gbg2p","区36":"f","地址":"韩荡村烧盐曹家宅","lng":121.60676321688469,"lat":31.15609645498737,"确诊日期36":"18"},{"SH_ID_36":"10gbg2q","区36":"f","地址":"韩荡村汤家宅","lng":121.52868814820873,"lat":31.132988469887508,"确诊日期36":"18"},{"SH_ID_36":"10gbg2r","区36":"f","地址":"航昌路376弄","lng":121.6093720596714,"lat":31.075090926597614,"确诊日期36":"18"},{"SH_ID_36":"10gbg2s","区36":"f","地址":"航城七路450弄","lng":121.75773652662429,"lat":31.141216160332963,"确诊日期36":"18"},{"SH_ID_36":"10gbg2t","区36":"f","地址":"航城三路288弄","lng":121.74960969048433,"lat":31.15091477745199,"确诊日期36":"18"},{"SH_ID_36":"10gbg2u","区36":"f","地址":"航城三路86弄","lng":121.74412159742312,"lat":31.149005508592076,"确诊日期36":"18"},{"SH_ID_36":"10gbg2v","区36":"f","地址":"航城五路401弄","lng":121.75141822306644,"lat":31.144228205676058,"确诊日期36":"18"},{"SH_ID_36":"10gbg2w","区36":"f","地址":"航定路568弄","lng":121.5897793407458,"lat":31.026618797668153,"确诊日期36":"18"},{"SH_ID_36":"10gbg2x","区36":"f","地址":"航东村","lng":121.599267110796,"lat":31.028635587787413,"确诊日期36":"18"},{"SH_ID_36":"10gbg2y","区36":"f","地址":"航鹤路78弄","lng":121.58836921487183,"lat":31.025059050982883,"确诊日期36":"18"},{"SH_ID_36":"10gbg2z","区36":"f","地址":"航梅路526弄","lng":121.58204111242816,"lat":31.024027332590247,"确诊日期36":"18"},{"SH_ID_36":"10gbg30","区36":"f","地址":"航瑞路175弄","lng":121.59272065469608,"lat":31.07112248758837,"确诊日期36":"18"},{"SH_ID_36":"10gbg31","区36":"f","地址":"航头镇果园村","lng":121.63580201622095,"lat":31.019642238289773,"确诊日期36":"18"},{"SH_ID_36":"10gbg32","区36":"f","地址":"航头镇牌楼村","lng":121.55871194053366,"lat":31.05284513370399,"确诊日期36":"18"},{"SH_ID_36":"10gbg33","区36":"f","地址":"航西村","lng":121.58842527892496,"lat":31.018539724616534,"确诊日期36":"18"},{"SH_ID_36":"10gbg34","区36":"f","地址":"航绣路51弄","lng":121.59852781335128,"lat":31.070955061240213,"确诊日期36":"18"},{"SH_ID_36":"10gbg35","区36":"f","地址":"和炯路601弄","lng":121.50919563776408,"lat":31.125371108828816,"确诊日期36":"18"},{"SH_ID_36":"10gbg36","区36":"f","地址":"和龙路295弄","lng":121.57080645052993,"lat":31.341899722572414,"确诊日期36":"18"},{"SH_ID_36":"10gbg37","区36":"f","地址":"和龙路619弄","lng":121.56725575751179,"lat":31.34951948255616,"确诊日期36":"18"},{"SH_ID_36":"10gbg38","区36":"f","地址":"和平村龚家宅","lng":121.71646490995265,"lat":31.226008326078485,"确诊日期36":"18"},{"SH_ID_36":"10gbg39","区36":"f","地址":"和平村万家宅","lng":121.84162745047905,"lat":30.985418793975093,"确诊日期36":"18"},{"SH_ID_36":"10gbg3a","区36":"f","地址":"菏泽路418弄","lng":121.59286554647215,"lat":31.267022590564704,"确诊日期36":"18"},{"SH_ID_36":"10gbg3b","区36":"f","地址":"菏泽路567弄","lng":121.59496895782912,"lat":31.265411249569723,"确诊日期36":"18"},{"SH_ID_36":"10gbg3c","区36":"f","地址":"菏泽路58弄","lng":121.5893646760388,"lat":31.272858262931436,"确诊日期36":"18"},{"SH_ID_36":"10gbg3d","区36":"f","地址":"鹤驰路99弄","lng":121.59493352071914,"lat":31.079277127472594,"确诊日期36":"18"},{"SH_ID_36":"10gbg3e","区36":"f","地址":"鹤沙路201弄","lng":121.60044555548728,"lat":31.07977834250325,"确诊日期36":"18"},{"SH_ID_36":"10gbg3f","区36":"f","地址":"鹤沙路226弄","lng":121.59875080490309,"lat":31.082836020020018,"确诊日期36":"18"},{"SH_ID_36":"10gbg3g","区36":"f","地址":"鹤沙路588弄","lng":121.59321038062443,"lat":31.081896018622647,"确诊日期36":"18"},{"SH_ID_36":"10gbg3h","区36":"f","地址":"鹤沙路688弄","lng":121.58944233859133,"lat":31.081751060187166,"确诊日期36":"18"},{"SH_ID_36":"10gbg3i","区36":"f","地址":"鹤永路751弄","lng":121.60497220110425,"lat":31.07189242011066,"确诊日期36":"18"},{"SH_ID_36":"10gbg3j","区36":"f","地址":"鹤韵路549弄","lng":121.59569205634146,"lat":31.075243091570822,"确诊日期36":"18"},{"SH_ID_36":"10gbg3k","区36":"f","地址":"鹤韵路550弄","lng":121.59579459513903,"lat":31.075268188947806,"确诊日期36":"18"},{"SH_ID_36":"10gbg3l","区36":"f","地址":"恒庆路曹卫家路交界口工地生活区","lng":121.54872878514763,"lat":31.204523799991517,"确诊日期36":"18"},{"SH_ID_36":"10gbg3m","区36":"f","地址":"横桥路69弄","lng":121.57937777696797,"lat":31.108114288127936,"确诊日期36":"18"},{"SH_ID_36":"10gbg3n","区36":"f","地址":"红枫路300弄","lng":121.59166406874066,"lat":31.2420841775662,"确诊日期36":"18"},{"SH_ID_36":"10gbg3o","区36":"f","地址":"红旗村东桥队毛家塘","lng":121.50296372464057,"lat":31.129295079804365,"确诊日期36":"18"},{"SH_ID_36":"10gbg3p","区36":"f","地址":"红桥村","lng":121.63318939323538,"lat":31.102502205955766,"确诊日期36":"18"},{"SH_ID_36":"10gbg3q","区36":"f","地址":"红星村孟家宅","lng":121.7714568791978,"lat":31.089345372444576,"确诊日期36":"18"},{"SH_ID_36":"10gbg3r","区36":"f","地址":"虹二村龚家宅","lng":121.68074945236309,"lat":31.236029522525225,"确诊日期36":"18"},{"SH_ID_36":"10gbg3s","区36":"f","地址":"虹二村盛家宅","lng":121.69747255648996,"lat":31.161942705879028,"确诊日期36":"18"},{"SH_ID_36":"10gbg3t","区36":"f","地址":"虹桥村南王家宅","lng":121.52819954222872,"lat":31.133169328142966,"确诊日期36":"18"},{"SH_ID_36":"10gbg3u","区36":"f","地址":"虹三村顾家宅","lng":121.68112712203119,"lat":31.25589951228631,"确诊日期36":"18"},{"SH_ID_36":"10gbg3v","区36":"f","地址":"虹三村沈家宅","lng":121.67325323911022,"lat":31.253549983795583,"确诊日期36":"18"},{"SH_ID_36":"10gbg3w","区36":"f","地址":"虹盛路250弄","lng":121.68119990807699,"lat":31.24123208258474,"确诊日期36":"18"},{"SH_ID_36":"10gbg3x","区36":"f","地址":"虹四村卫家宅","lng":121.65722794631155,"lat":31.24057119970118,"确诊日期36":"18"},{"SH_ID_36":"10gbg3y","区36":"f","地址":"虹四村吴张家宅","lng":121.6534725603988,"lat":31.24055019367873,"确诊日期36":"18"},{"SH_ID_36":"10gbg3z","区36":"f","地址":"虹一村奚家宅","lng":121.5506188799,"lat":31.156375223545577,"确诊日期36":"18"},{"SH_ID_36":"10gbg40","区36":"f","地址":"洪山路121弄","lng":121.49932447345682,"lat":31.17888679202871,"确诊日期36":"18"},{"SH_ID_36":"10gbg41","区36":"f","地址":"洪山路237弄","lng":121.50159925759094,"lat":31.17315870385419,"确诊日期36":"18"},{"SH_ID_36":"10gbg42","区36":"f","地址":"洪山路301弄","lng":121.50290864020361,"lat":31.1705933367985,"确诊日期36":"18"},{"SH_ID_36":"10gbg43","区36":"f","地址":"洪山路851弄","lng":121.50529327731272,"lat":31.160780959761606,"确诊日期36":"18"},{"SH_ID_36":"10gbg44","区36":"f","地址":"胡桥村","lng":121.69038111823761,"lat":31.03968764011942,"确诊日期36":"18"},{"SH_ID_36":"10gbg45","区36":"f","地址":"胡巷村张家宅","lng":121.51487281904726,"lat":31.163299659548052,"确诊日期36":"18"},{"SH_ID_36":"10gbg46","区36":"f","地址":"沪东路67号","lng":121.5803020565635,"lat":31.27092559891455,"确诊日期36":"18"},{"SH_ID_36":"10gbg47","区36":"f","地址":"沪二小区","lng":121.58276569700172,"lat":31.268766143576464,"确诊日期36":"18"},{"SH_ID_36":"10gbg48","区36":"f","地址":"沪南公路3150弄","lng":121.56499496125768,"lat":31.121962998755823,"确诊日期36":"18"},{"SH_ID_36":"10gbg49","区36":"f","地址":"沪南公路5192号","lng":121.58880928853192,"lat":31.052201097623477,"确诊日期36":"18"},{"SH_ID_36":"10gbg4a","区36":"f","地址":"沪南公路9399弄","lng":121.71924445046066,"lat":31.038206306822122,"确诊日期36":"18"},{"SH_ID_36":"10gbg4b","区36":"f","地址":"沪南公路9439弄","lng":121.72099922260378,"lat":31.039451088711065,"确诊日期36":"18"},{"SH_ID_36":"10gbg4c","区36":"f","地址":"沪南路1168弄","lng":121.55515569625581,"lat":31.178426282417426,"确诊日期36":"18"},{"SH_ID_36":"10gbg4d","区36":"f","地址":"沪南路1351弄","lng":121.55817118120574,"lat":31.173649682213966,"确诊日期36":"18"},{"SH_ID_36":"10gbg4e","区36":"f","地址":"沪南路2000号","lng":121.56106382786655,"lat":31.164724838500103,"确诊日期36":"18"},{"SH_ID_36":"10gbg4f","区36":"f","地址":"沪南路2518弄","lng":121.56480357533599,"lat":31.150506235742103,"确诊日期36":"18"},{"SH_ID_36":"10gbg4g","区36":"f","地址":"沪南路2688弄","lng":121.56347423286137,"lat":31.137827994095137,"确诊日期36":"18"},{"SH_ID_36":"10gbg4h","区36":"f","地址":"沪南路3150弄","lng":121.56545190256625,"lat":31.122140273918227,"确诊日期36":"18"},{"SH_ID_36":"10gbg4i","区36":"f","地址":"沪南路3219弄","lng":121.5683302870258,"lat":31.12339793186223,"确诊日期36":"18"},{"SH_ID_36":"10gbg4j","区36":"f","地址":"沪南路3468弄","lng":121.5675059834864,"lat":31.140180363740626,"确诊日期36":"18"},{"SH_ID_36":"10gbg4k","区36":"f","地址":"沪南路3633弄","lng":121.56962564820618,"lat":31.107799958767465,"确诊日期36":"18"},{"SH_ID_36":"10gbg4l","区36":"f","地址":"花木路1983弄","lng":121.56885432584242,"lat":31.218096432597527,"确诊日期36":"18"},{"SH_ID_36":"10gbg4m","区36":"f","地址":"花墙村","lng":121.54919095867591,"lat":31.148267366653155,"确诊日期36":"18"},{"SH_ID_36":"10gbg4n","区36":"f","地址":"花山路1001弄","lng":121.58159962654895,"lat":31.35062854523804,"确诊日期36":"18"},{"SH_ID_36":"10gbg4o","区36":"f","地址":"华春路100弄","lng":121.52740340292642,"lat":31.178904503817744,"确诊日期36":"18"},{"SH_ID_36":"10gbg4p","区36":"f","地址":"华丰路50弄","lng":121.50796172065061,"lat":31.19099397090094,"确诊日期36":"18"},{"SH_ID_36":"10gbg4q","区36":"f","地址":"华丰路51弄","lng":121.5083545375993,"lat":31.192306078091764,"确诊日期36":"18"},{"SH_ID_36":"10gbg4r","区36":"f","地址":"华路村西朱家宅","lng":121.56455069109387,"lat":31.354177513672305,"确诊日期36":"18"},{"SH_ID_36":"10gbg4s","区36":"f","地址":"华鹏路300弄","lng":121.52560654420056,"lat":31.174930980835352,"确诊日期36":"18"},{"SH_ID_36":"10gbg4t","区36":"f","地址":"华夏东路2110弄","lng":121.69290872234805,"lat":31.198515069457873,"确诊日期36":"18"},{"SH_ID_36":"10gbg4u","区36":"f","地址":"华夏东路2170弄","lng":121.6938718431798,"lat":31.199270294177417,"确诊日期36":"18"},{"SH_ID_36":"10gbg4v","区36":"f","地址":"华夏东路2345弄","lng":121.69810372875615,"lat":31.201076901488506,"确诊日期36":"18"},{"SH_ID_36":"10gbg4w","区36":"f","地址":"华夏二路1455弄","lng":121.69240573509569,"lat":31.173237367375673,"确诊日期36":"18"},{"SH_ID_36":"10gbg4x","区36":"f","地址":"华夏二路1500弄","lng":121.6917546581714,"lat":31.173003637305953,"确诊日期36":"18"},{"SH_ID_36":"10gbg4y","区36":"f","地址":"华夏二路200弄","lng":121.68387537053181,"lat":31.193909623625064,"确诊日期36":"18"},{"SH_ID_36":"10gbg4z","区36":"f","地址":"华夏二路350弄","lng":121.68352354046985,"lat":31.191975383834624,"确诊日期36":"18"},{"SH_ID_36":"10gbg50","区36":"f","地址":"华夏二路728弄","lng":121.68579507724246,"lat":31.186606789174242,"确诊日期36":"18"},{"SH_ID_36":"10gbg51","区36":"f","地址":"华夏三路299弄","lng":121.67967838601244,"lat":31.192749091704385,"确诊日期36":"18"},{"SH_ID_36":"10gbg52","区36":"f","地址":"华星村顾家宅","lng":121.71504409812485,"lat":31.204318509490115,"确诊日期36":"18"},{"SH_ID_36":"10gbg53","区36":"f","地址":"华星村毛家宅","lng":121.65621765579478,"lat":31.299312548323023,"确诊日期36":"18"},{"SH_ID_36":"10gbg54","区36":"f","地址":"华绣路255弄","lng":121.52896658659704,"lat":31.184963120352815,"确诊日期36":"18"},{"SH_ID_36":"10gbg55","区36":"f","地址":"华中路88号","lng":121.57008415926305,"lat":31.187525129106636,"确诊日期36":"18"},{"SH_ID_36":"10gbg56","区36":"f","地址":"环东中心村桥弄付家宅","lng":121.65658416298578,"lat":31.184330591858842,"确诊日期36":"18"},{"SH_ID_36":"10gbg57","区36":"f","地址":"环东中心村桥弄顾家宅","lng":121.56866159558807,"lat":31.342703866552437,"确诊日期36":"18"},{"SH_ID_36":"10gbg58","区36":"f","地址":"环东中心村桥弄天主堂宅","lng":121.64178118695155,"lat":31.03534519087347,"确诊日期36":"18"},{"SH_ID_36":"10gbg59","区36":"f","地址":"环东中心村三灶陆家宅","lng":121.67239681626678,"lat":31.183241731403193,"确诊日期36":"18"},{"SH_ID_36":"10gbg5a","区36":"f","地址":"环东中心村三灶史家圈宅","lng":121.64506015266869,"lat":31.185096519817556,"确诊日期36":"18"},{"SH_ID_36":"10gbg5b","区36":"f","地址":"环林东路879弄","lng":121.52982323124216,"lat":31.13974102486246,"确诊日期36":"18"},{"SH_ID_36":"10gbg5c","区36":"f","地址":"环林西路613弄","lng":121.5245564085242,"lat":31.14063996007126,"确诊日期36":"18"},{"SH_ID_36":"10gbg5d","区36":"f","地址":"环林西路777弄","lng":121.52569685833292,"lat":31.140654461505072,"确诊日期36":"18"},{"SH_ID_36":"10gbg5e","区36":"f","地址":"环桥路1137弄","lng":121.60218428506784,"lat":31.135862865977185,"确诊日期36":"18"},{"SH_ID_36":"10gbg5f","区36":"f","地址":"环桥路1481弄","lng":121.6007704716125,"lat":31.140896042351766,"确诊日期36":"18"},{"SH_ID_36":"10gbg5g","区36":"f","地址":"环桥路1488弄","lng":121.60361223513542,"lat":31.14198182792377,"确诊日期36":"18"},{"SH_ID_36":"10gbg5h","区36":"f","地址":"环庆南路239弄","lng":121.7249826608327,"lat":31.22893772854467,"确诊日期36":"18"},{"SH_ID_36":"10gbg5i","区36":"f","地址":"环庆中路168弄","lng":121.72150368599274,"lat":31.23341311420537,"确诊日期36":"18"},{"SH_ID_36":"10gbg5j","区36":"f","地址":"环庆中路323弄","lng":121.72346543863077,"lat":31.234520986711477,"确诊日期36":"18"},{"SH_ID_36":"10gbg5k","区36":"f","地址":"黄楼村奚家宅","lng":121.66637958237715,"lat":31.172173244444245,"确诊日期36":"18"},{"SH_ID_36":"10gbg5l","区36":"f","地址":"黄楼村姚家宅","lng":121.57643823420979,"lat":31.18466445162161,"确诊日期36":"18"},{"SH_ID_36":"10gbg5m","区36":"f","地址":"黄楼村周黄家宅","lng":121.66389971566026,"lat":31.161850464245937,"确诊日期36":"18"},{"SH_ID_36":"10gbg5n","区36":"f","地址":"惠东村","lng":121.77676903148381,"lat":31.039969912176986,"确诊日期36":"18"},{"SH_ID_36":"10gbg5o","区36":"f","地址":"惠南镇友谊村","lng":121.7768618339009,"lat":31.029884951827228,"确诊日期36":"18"},{"SH_ID_36":"10gbg5p","区36":"f","地址":"火箭村","lng":121.60839094089009,"lat":31.13922582998475,"确诊日期36":"18"},{"SH_ID_36":"10gbg5q","区36":"f","地址":"藿香路238弄","lng":121.59240334515025,"lat":31.198178120497168,"确诊日期36":"18"},{"SH_ID_36":"10gbg5r","区36":"f","地址":"祝桥镇红旗村俞家宅","lng":121.75417074403038,"lat":31.167667614826218,"确诊日期36":"18"},{"SH_ID_36":"10gbg5s","区36":"f","地址":"吉灿路17弄","lng":121.70559033275015,"lat":31.110381179585794,"确诊日期36":"18"},{"SH_ID_36":"10gbg5t","区36":"f","地址":"季景北路185弄","lng":121.58596598283343,"lat":31.342718237642174,"确诊日期36":"18"},{"SH_ID_36":"10gbg5u","区36":"f","地址":"季桥村","lng":121.69928883012345,"lat":31.061365299724898,"确诊日期36":"18"},{"SH_ID_36":"10gbg5v","区36":"f","地址":"建光村南顾家宅","lng":121.75156258872127,"lat":30.987922178260472,"确诊日期36":"18"},{"SH_ID_36":"10gbg5w","区36":"f","地址":"建中路171弄","lng":121.6144072702898,"lat":31.20247720701001,"确诊日期36":"18"},{"SH_ID_36":"10gbg5x","区36":"f","地址":"江东路1380弄","lng":121.543044704941,"lat":31.364311514042583,"确诊日期36":"18"},{"SH_ID_36":"10gbg5y","区36":"f","地址":"江东路238号","lng":121.61571864264299,"lat":31.205967377045987,"确诊日期36":"18"},{"SH_ID_36":"10gbg5z","区36":"f","地址":"江东路25号","lng":121.61571706374433,"lat":31.206013245453835,"确诊日期36":"18"},{"SH_ID_36":"10gbg60","区36":"f","地址":"江晖路296弄","lng":121.73834321284127,"lat":31.174489294212815,"确诊日期36":"18"},{"SH_ID_36":"10gbg61","区36":"f","地址":"江晖路436弄","lng":121.73796809961988,"lat":31.171209201091514,"确诊日期36":"18"},{"SH_ID_36":"10gbg62","区36":"f","地址":"江绣路300弄","lng":121.73352873741277,"lat":31.172922127253894,"确诊日期36":"18"},{"SH_ID_36":"10gbg63","区36":"f","地址":"界浜路55弄","lng":121.58427061851602,"lat":31.344357892996282,"确诊日期36":"18"},{"SH_ID_36":"10gbg64","区36":"f","地址":"界龙村华家宅","lng":121.65916620003908,"lat":31.16177104449826,"确诊日期36":"18"},{"SH_ID_36":"10gbg65","区36":"f","地址":"金港路龙东大道交界口工地生活区","lng":121.62667741692006,"lat":31.293659926816122,"确诊日期36":"18"},{"SH_ID_36":"10gbg66","区36":"f","地址":"金沪路1218弄","lng":121.60226353902009,"lat":31.240658302270816,"确诊日期36":"18"},{"SH_ID_36":"10gbg67","区36":"f","地址":"金口路411弄","lng":121.57961421273524,"lat":31.24756869268558,"确诊日期36":"18"},{"SH_ID_36":"10gbg68","区36":"f","地址":"金口路471弄","lng":121.58237914742415,"lat":31.246054171595507,"确诊日期36":"18"},{"SH_ID_36":"10gbg69","区36":"f","地址":"金葵路1115弄","lng":121.63078472762524,"lat":31.240325541775334,"确诊日期36":"18"},{"SH_ID_36":"10gbg6a","区36":"f","地址":"金葵路945弄","lng":121.62754940264202,"lat":31.240279963539226,"确诊日期36":"18"},{"SH_ID_36":"10gbg6b","区36":"f","地址":"金睦路353弄","lng":121.67466555606063,"lat":31.286600231015992,"确诊日期36":"18"},{"SH_ID_36":"10gbg6c","区36":"f","地址":"金桥路226弄","lng":121.56970205761158,"lat":31.26602415693245,"确诊日期36":"18"},{"SH_ID_36":"10gbg6d","区36":"f","地址":"金桥路308号","lng":121.57260759582073,"lat":31.26431998975529,"确诊日期36":"18"},{"SH_ID_36":"10gbg6e","区36":"f","地址":"金穗路778号生活区","lng":121.63400454065848,"lat":31.277961808262866,"确诊日期36":"18"},{"SH_ID_36":"10gbg6f","区36":"f","地址":"金台路161弄","lng":121.58601983099469,"lat":31.251036530797677,"确诊日期36":"18"},{"SH_ID_36":"10gbg6g","区36":"f","地址":"金闻路1号生活区","lng":121.76957882893898,"lat":31.129967572855453,"确诊日期36":"18"},{"SH_ID_36":"10gbg6h","区36":"f","地址":"金湘路333号","lng":121.61034004536326,"lat":31.254706022579132,"确诊日期36":"18"},{"SH_ID_36":"10gbg6i","区36":"f","地址":"金晓路289弄","lng":121.68018962347284,"lat":31.27532614808253,"确诊日期36":"18"},{"SH_ID_36":"10gbg6j","区36":"f","地址":"金杨路220弄","lng":121.57531517790144,"lat":31.246876963662064,"确诊日期36":"18"},{"SH_ID_36":"10gbg6k","区36":"f","地址":"金杨路660弄","lng":121.58195880685379,"lat":31.251173825205242,"确诊日期36":"18"},{"SH_ID_36":"10gbg6l","区36":"f","地址":"金杨路685弄","lng":121.58161213715752,"lat":31.253546438073908,"确诊日期36":"18"},{"SH_ID_36":"10gbg6m","区36":"f","地址":"金银花路凌霄花路交界口工地生活区","lng":121.62467105320414,"lat":31.098589396611047,"确诊日期36":"18"},{"SH_ID_36":"10gbg6n","区36":"f","地址":"金钻路398弄","lng":121.67042045231715,"lat":31.28553364908896,"确诊日期36":"18"},{"SH_ID_36":"10gbg6o","区36":"f","地址":"锦和路289弄","lng":121.53728280389436,"lat":31.20467277090528,"确诊日期36":"18"},{"SH_ID_36":"10gbg6p","区36":"f","地址":"锦绣路2466弄","lng":121.53459706287536,"lat":31.194874274987274,"确诊日期36":"18"},{"SH_ID_36":"10gbg6q","区36":"f","地址":"锦绣路3088弄","lng":121.53895900862368,"lat":31.18121410768612,"确诊日期36":"18"},{"SH_ID_36":"10gbg6r","区36":"f","地址":"锦绣路3336弄","lng":121.53955107613837,"lat":31.178009424323857,"确诊日期36":"18"},{"SH_ID_36":"10gbg6s","区36":"f","地址":"锦绣路3338弄","lng":121.54005733739479,"lat":31.175951111377447,"确诊日期36":"18"},{"SH_ID_36":"10gbg6t","区36":"f","地址":"锦绣路3841弄","lng":121.54666785703584,"lat":31.16770015518034,"确诊日期36":"18"},{"SH_ID_36":"10gbg6u","区36":"f","地址":"锦绣路4899弄","lng":121.54796173488236,"lat":31.15022423259027,"确诊日期36":"18"},{"SH_ID_36":"10gbg6v","区36":"f","地址":"居家桥路1030弄","lng":121.57130438996073,"lat":31.244023704042664,"确诊日期36":"18"},{"SH_ID_36":"10gbg6w","区36":"f","地址":"居家桥路151弄","lng":121.56209756154169,"lat":31.260843537758017,"确诊日期36":"18"},{"SH_ID_36":"10gbg6x","区36":"f","地址":"居家桥路199弄","lng":121.56298622917748,"lat":31.257652045319908,"确诊日期36":"18"},{"SH_ID_36":"10gbg6y","区36":"f","地址":"巨峰路176弄","lng":121.59725081665826,"lat":31.279058969401152,"确诊日期36":"18"},{"SH_ID_36":"10gbg6z","区36":"f","地址":"俱进路500弄","lng":121.6148459558517,"lat":31.300470603520676,"确诊日期36":"18"},{"SH_ID_36":"10gbg70","区36":"f","地址":"康安路669号生活区","lng":121.5597149621777,"lat":31.14700268410095,"确诊日期36":"18"},{"SH_ID_36":"10gbg71","区36":"f","地址":"康安路御北路交界口工地生活区","lng":121.56706605829197,"lat":31.156978153439024,"确诊日期36":"18"},{"SH_ID_36":"10gbg72","区36":"f","地址":"康达路508弄","lng":121.59758378420916,"lat":31.122448061715215,"确诊日期36":"18"},{"SH_ID_36":"10gbg73","区36":"f","地址":"康达路688弄","lng":121.59688745117577,"lat":31.12434903031958,"确诊日期36":"18"},{"SH_ID_36":"10gbg74","区36":"f","地址":"康弘路508弄","lng":121.60109280079588,"lat":31.12310699572427,"确诊日期36":"18"},{"SH_ID_36":"10gbg75","区36":"f","地址":"康花路19号","lng":121.56482346727907,"lat":31.15084930874823,"确诊日期36":"18"},{"SH_ID_36":"10gbg76","区36":"f","地址":"康花路锦绣路交界口工地生活区","lng":121.54874716725328,"lat":31.204819267313944,"确诊日期36":"18"},{"SH_ID_36":"10gbg77","区36":"f","地址":"康桥东路1295号生活区","lng":121.63419651719639,"lat":31.15847962769063,"确诊日期36":"18"},{"SH_ID_36":"10gbg78","区36":"f","地址":"康桥东路905弄","lng":121.62292398954814,"lat":31.15882853919301,"确诊日期36":"18"},{"SH_ID_36":"10gbg79","区36":"f","地址":"康桥路1029弄","lng":121.56502235722654,"lat":31.148539307789136,"确诊日期36":"18"},{"SH_ID_36":"10gbg7a","区36":"f","地址":"康桥路1111弄","lng":121.56950788452023,"lat":31.149675615149423,"确诊日期36":"18"},{"SH_ID_36":"10gbg7b","区36":"f","地址":"康桥路1558弄","lng":121.57301842033259,"lat":31.15060229427364,"确诊日期36":"18"},{"SH_ID_36":"10gbg7c","区36":"f","地址":"康桥路90弄","lng":121.58206801343873,"lat":31.15073619591071,"确诊日期36":"18"},{"SH_ID_36":"10gbg7d","区36":"f","地址":"康桥镇太平村","lng":121.55324397476281,"lat":31.122111941019167,"确诊日期36":"18"},{"SH_ID_36":"10gbg7e","区36":"f","地址":"康杉路151弄","lng":121.56114932033516,"lat":31.151169354547818,"确诊日期36":"18"},{"SH_ID_36":"10gbg7f","区36":"f","地址":"康杉路359弄","lng":121.56144362845404,"lat":31.15164300916482,"确诊日期36":"18"},{"SH_ID_36":"10gbg7g","区36":"f","地址":"康杉路386弄","lng":121.56100724714344,"lat":31.151843948740627,"确诊日期36":"18"},{"SH_ID_36":"10gbg7h","区36":"f","地址":"康沈公路1300弄","lng":121.57640470982598,"lat":31.121937742068596,"确诊日期36":"18"},{"SH_ID_36":"10gbg7i","区36":"f","地址":"康沈路1199弄","lng":121.57520347257935,"lat":31.125292203931455,"确诊日期36":"18"},{"SH_ID_36":"10gbg7j","区36":"f","地址":"康沈路1412弄","lng":121.57481128204164,"lat":31.121710788898,"确诊日期36":"18"},{"SH_ID_36":"10gbg7k","区36":"f","地址":"康沈路1450弄","lng":121.57500125896996,"lat":31.121373122071297,"确诊日期36":"18"},{"SH_ID_36":"10gbg7l","区36":"f","地址":"康沈路1472弄","lng":121.58158771526024,"lat":31.096112301028874,"确诊日期36":"18"},{"SH_ID_36":"10gbg7m","区36":"f","地址":"康沈路1602弄","lng":121.57473402676088,"lat":31.11688080134112,"确诊日期36":"18"},{"SH_ID_36":"10gbg7n","区36":"f","地址":"康沈路2262弄","lng":121.58095382804741,"lat":31.1008437497902,"确诊日期36":"18"},{"SH_ID_36":"10gbg7o","区36":"f","地址":"康沈路400弄","lng":121.57073065029411,"lat":31.140001719845625,"确诊日期36":"18"},{"SH_ID_36":"10gbg7p","区36":"f","地址":"康沈路465弄","lng":121.57143984577459,"lat":31.13970278186547,"确诊日期36":"18"},{"SH_ID_36":"10gbg7q","区36":"f","地址":"康士路15弄","lng":121.56298622848917,"lat":31.148957752509922,"确诊日期36":"18"},{"SH_ID_36":"10gbg7r","区36":"f","地址":"康梧路189号工地生活区","lng":121.55155235577242,"lat":31.135685156845216,"确诊日期36":"18"},{"SH_ID_36":"10gbg7s","区36":"f","地址":"康梧路332号","lng":121.55134521569842,"lat":31.130803637425924,"确诊日期36":"18"},{"SH_ID_36":"10gbg7t","区36":"f","地址":"康新公路2333号工地生活区","lng":121.62894043359455,"lat":31.083306598190312,"确诊日期36":"18"},{"SH_ID_36":"10gbg7u","区36":"f","地址":"康悦路325弄","lng":121.53402842350597,"lat":31.358725001485283,"确诊日期36":"18"},{"SH_ID_36":"10gbg7v","区36":"f","地址":"莱阳路201弄","lng":121.57926744120076,"lat":31.273738094869586,"确诊日期36":"18"},{"SH_ID_36":"10gbg7w","区36":"f","地址":"兰谷路2955弄","lng":121.59605055958782,"lat":31.288996283042213,"确诊日期36":"18"},{"SH_ID_36":"10gbg7x","区36":"f","地址":"兰陵路23弄","lng":121.51680619850362,"lat":31.1952660059103,"确诊日期36":"18"},{"SH_ID_36":"10gbg7y","区36":"f","地址":"兰嵩路360弄","lng":121.59188791313659,"lat":31.323020154510886,"确诊日期36":"18"},{"SH_ID_36":"10gbg7z","区36":"f","地址":"兰亭路孙浦路交界口工地生活区","lng":121.5485828449119,"lat":31.204823590572996,"确诊日期36":"18"},{"SH_ID_36":"10gbg80","区36":"f","地址":"栏杆村周家宅","lng":121.66804882933316,"lat":31.169064401846857,"确诊日期36":"18"},{"SH_ID_36":"10gbg81","区36":"f","地址":"蓝村路471弄","lng":121.52715793083543,"lat":31.212230473046773,"确诊日期36":"18"},{"SH_ID_36":"10gbg82","区36":"f","地址":"蓝村路502弄","lng":121.52401740152588,"lat":31.21060236691277,"确诊日期36":"18"},{"SH_ID_36":"10gbg83","区36":"f","地址":"蓝村路55弄","lng":121.5317402965405,"lat":31.21439157147734,"确诊日期36":"18"},{"SH_ID_36":"10gbg84","区36":"f","地址":"蓝靛路1688弄","lng":121.64177846452554,"lat":31.098418396493113,"确诊日期36":"18"},{"SH_ID_36":"10gbg85","区36":"f","地址":"劳动村西孙家宅","lng":121.54193516203844,"lat":31.129806796971977,"确诊日期36":"18"},{"SH_ID_36":"10gbg86","区36":"f","地址":"崂山路150弄","lng":121.51695235888025,"lat":31.236973116442176,"确诊日期36":"18"},{"SH_ID_36":"10gbg87","区36":"f","地址":"崂山路502号","lng":121.51706593152501,"lat":31.237169176804475,"确诊日期36":"18"},{"SH_ID_36":"10gbg88","区36":"f","地址":"崂山路571弄","lng":121.523188060583,"lat":31.22614856229602,"确诊日期36":"18"},{"SH_ID_36":"10gbg89","区36":"f","地址":"崂山路600号","lng":121.52440750258103,"lat":31.22558550378533,"确诊日期36":"18"},{"SH_ID_36":"10gbg8a","区36":"f","地址":"崂山路644弄","lng":121.5260272717122,"lat":31.222134328135223,"确诊日期36":"18"},{"SH_ID_36":"10gbg8b","区36":"f","地址":"崂山路80弄","lng":121.51557119643327,"lat":31.238752386892045,"确诊日期36":"18"},{"SH_ID_36":"10gbg8c","区36":"f","地址":"里仁村","lng":121.5686710899791,"lat":31.10750453719328,"确诊日期36":"18"},{"SH_ID_36":"10gbg8d","区36":"f","地址":"历城路22弄","lng":121.49251735369813,"lat":31.17444130952539,"确诊日期36":"18"},{"SH_ID_36":"10gbg8e","区36":"f","地址":"历城路83弄","lng":121.49397410901624,"lat":31.175436417485923,"确诊日期36":"18"},{"SH_ID_36":"10gbg8f","区36":"f","地址":"立新村沈家宅","lng":121.74742941254429,"lat":31.090619897448814,"确诊日期36":"18"},{"SH_ID_36":"10gbg8g","区36":"f","地址":"立新村张家宅","lng":121.75918413521097,"lat":31.17208036466546,"确诊日期36":"18"},{"SH_ID_36":"10gbg8h","区36":"f","地址":"利津路185弄","lng":121.58033353100124,"lat":31.27967727524733,"确诊日期36":"18"},{"SH_ID_36":"10gbg8i","区36":"f","地址":"莲安东路80弄","lng":121.55740927943411,"lat":31.180436918839067,"确诊日期36":"18"},{"SH_ID_36":"10gbg8j","区36":"f","地址":"莲安西路125弄","lng":121.55378470207718,"lat":31.17908325316866,"确诊日期36":"18"},{"SH_ID_36":"10gbg8k","区36":"f","地址":"莲溪路1099弄","lng":121.56590020793325,"lat":31.17325635244532,"确诊日期36":"18"},{"SH_ID_36":"10gbg8l","区36":"f","地址":"莲溪路399弄","lng":121.5629475083788,"lat":31.183548537489266,"确诊日期36":"18"},{"SH_ID_36":"10gbg8m","区36":"f","地址":"莲溪路550弄","lng":121.56173444597069,"lat":31.180764087038376,"确诊日期36":"18"},{"SH_ID_36":"10gbg8n","区36":"f","地址":"莲溪路780弄","lng":121.56135870053828,"lat":31.17667043568105,"确诊日期36":"18"},{"SH_ID_36":"10gbg8o","区36":"f","地址":"莲溪路99弄","lng":121.56107005192139,"lat":31.186830542595466,"确诊日期36":"18"},{"SH_ID_36":"10gbg8p","区36":"f","地址":"莲溪路陈春东路交界口工地生活区","lng":121.54847441694255,"lat":31.204568791678042,"确诊日期36":"18"},{"SH_ID_36":"10gbg8q","区36":"f","地址":"莲园路18弄","lng":121.54222594876838,"lat":31.18374812932854,"确诊日期36":"18"},{"SH_ID_36":"10gbg8r","区36":"f","地址":"莲园路468弄","lng":121.5569663951453,"lat":31.18513047507258,"确诊日期36":"18"},{"SH_ID_36":"10gbg8s","区36":"f","地址":"莲园路498弄","lng":121.55441223767879,"lat":31.185644607423267,"确诊日期36":"18"},{"SH_ID_36":"10gbg8t","区36":"f","地址":"莲园路505弄","lng":121.5578936548035,"lat":31.1858035045457,"确诊日期36":"18"},{"SH_ID_36":"10gbg8u","区36":"f","地址":"莲园路518弄","lng":121.5543327856749,"lat":31.18555993156933,"确诊日期36":"18"},{"SH_ID_36":"10gbg8v","区36":"f","地址":"莲园路555弄","lng":121.55919358368074,"lat":31.186299288057967,"确诊日期36":"18"},{"SH_ID_36":"10gbg8w","区36":"f","地址":"莲园路560弄","lng":121.55935227679458,"lat":31.185629355423732,"确诊日期36":"18"},{"SH_ID_36":"10gbg8x","区36":"f","地址":"莲园路630弄","lng":121.56167793844209,"lat":31.186082348297408,"确诊日期36":"18"},{"SH_ID_36":"10gbg8y","区36":"f","地址":"莲振路269号","lng":121.56798297269698,"lat":31.167864328735835,"确诊日期36":"18"},{"SH_ID_36":"10gbg8z","区36":"f","地址":"莲中路191弄","lng":121.558797605282,"lat":31.182317643075137,"确诊日期36":"18"},{"SH_ID_36":"10gbg90","区36":"f","地址":"莲中路255弄","lng":121.55914435906737,"lat":31.181709649650575,"确诊日期36":"18"},{"SH_ID_36":"10gbg91","区36":"f","地址":"莲中路356弄","lng":121.55835839845771,"lat":31.17919025944841,"确诊日期36":"18"},{"SH_ID_36":"10gbg92","区36":"f","地址":"联丰村顾家队顾家宅","lng":121.58241188505026,"lat":31.167028910236716,"确诊日期36":"18"},{"SH_ID_36":"10gbg93","区36":"f","地址":"联丰村南沈队沈家墙","lng":121.51262853145049,"lat":31.15340522707703,"确诊日期36":"18"},{"SH_ID_36":"10gbg94","区36":"f","地址":"联勤村张家队陈家宅","lng":121.56775014399574,"lat":31.191939756719776,"确诊日期36":"18"},{"SH_ID_36":"10gbg95","区36":"f","地址":"林培路红临路交界口工地生活区","lng":121.48529059272008,"lat":31.117455424340395,"确诊日期36":"18"},{"SH_ID_36":"10gbg96","区36":"f","地址":"林浦路1240号","lng":121.4764644966736,"lat":31.12663241800663,"确诊日期36":"18"},{"SH_ID_36":"10gbg97","区36":"f","地址":"林展路278弄","lng":121.50572173832069,"lat":31.127422590195987,"确诊日期36":"18"},{"SH_ID_36":"10gbg98","区36":"f","地址":"林展路411弄","lng":121.5100050160166,"lat":31.122687598791927,"确诊日期36":"18"},{"SH_ID_36":"10gbg99","区36":"f","地址":"临江村庞家宅","lng":121.47503212050052,"lat":31.115537929239373,"确诊日期36":"18"},{"SH_ID_36":"10gbg9a","区36":"f","地址":"临江村泰保队泰保堂","lng":121.47876203257543,"lat":31.118983723406224,"确诊日期36":"18"},{"SH_ID_36":"10gbg9b","区36":"f","地址":"临江村王家渡队王家渡","lng":121.4758676217745,"lat":31.12690776498575,"确诊日期36":"18"},{"SH_ID_36":"10gbg9c","区36":"f","地址":"临江村王家宅队王家宅","lng":121.68035038754851,"lat":31.16612189353035,"确诊日期36":"18"},{"SH_ID_36":"10gbg9d","区36":"f","地址":"临江村张塘队张家宅","lng":121.48724446665818,"lat":31.126070555697797,"确诊日期36":"18"},{"SH_ID_36":"10gbg9e","区36":"f","地址":"临沂路101弄","lng":121.51392800775058,"lat":31.195388894588465,"确诊日期36":"18"},{"SH_ID_36":"10gbg9f","区36":"f","地址":"临沂路181弄","lng":121.5128762680981,"lat":31.193105081013044,"确诊日期36":"18"},{"SH_ID_36":"10gbg9g","区36":"f","地址":"临沂路280弄","lng":121.50888728246622,"lat":31.192843600596355,"确诊日期36":"18"},{"SH_ID_36":"10gbg9h","区36":"f","地址":"临沂路301弄","lng":121.51027758051701,"lat":31.191010257698693,"确诊日期36":"18"},{"SH_ID_36":"10gbg9i","区36":"f","地址":"临沂路339弄","lng":121.50915276145793,"lat":31.19171686031865,"确诊日期36":"18"},{"SH_ID_36":"10gbg9j","区36":"f","地址":"临沂路81弄","lng":121.51745441185223,"lat":31.197002253762744,"确诊日期36":"18"},{"SH_ID_36":"10gbg9k","区36":"f","地址":"灵山路1415弄","lng":121.56249963685026,"lat":31.238682309305936,"确诊日期36":"18"},{"SH_ID_36":"10gbg9l","区36":"f","地址":"灵山路1671弄","lng":121.5669423358788,"lat":31.239967942487272,"确诊日期36":"18"},{"SH_ID_36":"10gbg9m","区36":"f","地址":"灵山路1799弄","lng":121.57195488148366,"lat":31.24275946890014,"确诊日期36":"18"},{"SH_ID_36":"10gbg9n","区36":"f","地址":"灵山路2011弄","lng":121.57358649603809,"lat":31.24416865663618,"确诊日期36":"18"},{"SH_ID_36":"10gbg9o","区36":"f","地址":"灵山路701弄","lng":121.54556877477988,"lat":31.23007173925738,"确诊日期36":"18"},{"SH_ID_36":"10gbg9p","区36":"f","地址":"灵岩路56弄","lng":121.4938105387186,"lat":31.16686742624126,"确诊日期36":"18"},{"SH_ID_36":"10gbg9q","区36":"f","地址":"灵岩南路156弄","lng":121.4944387980124,"lat":31.15917591212011,"确诊日期36":"18"},{"SH_ID_36":"10gbg9r","区36":"f","地址":"灵岩南路233弄","lng":121.49441365433032,"lat":31.160051276757844,"确诊日期36":"18"},{"SH_ID_36":"10gbg9s","区36":"f","地址":"铃兰路508弄","lng":121.91827590386077,"lat":30.91944628973816,"确诊日期36":"18"},{"SH_ID_36":"10gbg9t","区36":"f","地址":"凌海路80号","lng":121.54180103152268,"lat":31.363306397593654,"确诊日期36":"18"},{"SH_ID_36":"10gbg9u","区36":"f","地址":"凌河路420弄","lng":121.59948311683885,"lat":31.273058835362,"确诊日期36":"18"},{"SH_ID_36":"10gbg9v","区36":"f","地址":"凌环路51弄","lng":121.54097631136955,"lat":31.3689059365072,"确诊日期36":"18"},{"SH_ID_36":"10gbg9w","区36":"f","地址":"凌兆路285弄","lng":121.49555752192519,"lat":31.14322955966468,"确诊日期36":"18"},{"SH_ID_36":"10gbg9x","区36":"f","地址":"凌兆路379弄","lng":121.49742994316713,"lat":31.143870780930957,"确诊日期36":"18"},{"SH_ID_36":"10gbg9y","区36":"f","地址":"凌兆路500弄","lng":121.50008297125379,"lat":31.143454014953758,"确诊日期36":"18"},{"SH_ID_36":"10gbg9z","区36":"f","地址":"凌兆路521弄","lng":121.49983356855712,"lat":31.144636136902626,"确诊日期36":"18"},{"SH_ID_36":"10gbga0","区36":"f","地址":"凌兆路88弄","lng":121.49230823872867,"lat":31.140321159821664,"确诊日期36":"18"},{"SH_ID_36":"10gbga1","区36":"f","地址":"柳埠路135弄","lng":121.58405095098121,"lat":31.261554740734258,"确诊日期36":"18"},{"SH_ID_36":"10gbga2","区36":"f","地址":"柳埠路142弄","lng":121.58086149110822,"lat":31.2635646231221,"确诊日期36":"18"},{"SH_ID_36":"10gbga3","区36":"f","地址":"龙东大道6459号","lng":121.70518478805705,"lat":31.238715612586592,"确诊日期36":"18"},{"SH_ID_36":"10gbga4","区36":"f","地址":"龙居路111弄","lng":121.56284607903902,"lat":31.25303589700599,"确诊日期36":"18"},{"SH_ID_36":"10gbga5","区36":"f","地址":"龙居路147号","lng":121.56280998519253,"lat":31.25225031484847,"确诊日期36":"18"},{"SH_ID_36":"10gbga6","区36":"f","地址":"龙居路150弄","lng":121.5613231772762,"lat":31.252386645852695,"确诊日期36":"18"},{"SH_ID_36":"10gbga7","区36":"f","地址":"龙桥村伏龙桥","lng":121.62279445566952,"lat":31.321910815077995,"确诊日期36":"18"},{"SH_ID_36":"10gbga8","区36":"f","地址":"龙三路136弄","lng":121.59557110571659,"lat":31.219426248798484,"确诊日期36":"18"},{"SH_ID_36":"10gbga9","区36":"f","地址":"龙新路57号","lng":121.65367912047527,"lat":31.233505834927904,"确诊日期36":"18"},{"SH_ID_36":"10gbgaa","区36":"f","地址":"龙阳路1880弄","lng":121.55351536675256,"lat":31.201231400262312,"确诊日期36":"18"},{"SH_ID_36":"10gbgab","区36":"f","地址":"陆凌村瞿家宅","lng":121.56313712093576,"lat":31.34543495102871,"确诊日期36":"18"},{"SH_ID_36":"10gbgac","区36":"f","地址":"陆凌村西凌家宅","lng":121.56498797739901,"lat":31.34703415756468,"确诊日期36":"18"},{"SH_ID_36":"10gbgad","区36":"f","地址":"陆楼村","lng":121.7650702987032,"lat":31.074562997886094,"确诊日期36":"18"},{"SH_ID_36":"10gbgae","区36":"f","地址":"陆万村","lng":121.6984768621549,"lat":31.26127269796847,"确诊日期36":"18"},{"SH_ID_36":"10gbgaf","区36":"f","地址":"鹿溪村","lng":121.70976592985737,"lat":31.117974956161873,"确诊日期36":"18"},{"SH_ID_36":"10gbgag","区36":"f","地址":"罗山路108弄","lng":121.5522149750549,"lat":31.248278157631532,"确诊日期36":"18"},{"SH_ID_36":"10gbgah","区36":"f","地址":"罗山路4088弄","lng":121.57849893866637,"lat":31.17910055018821,"确诊日期36":"18"},{"SH_ID_36":"10gbgai","区36":"f","地址":"吕三村东蒋家宅","lng":121.50670051869336,"lat":31.159484194925458,"确诊日期36":"18"},{"SH_ID_36":"10gbgaj","区36":"f","地址":"吕三村三林新村","lng":121.64145875312897,"lat":31.21719740684689,"确诊日期36":"18"},{"SH_ID_36":"10gbgak","区36":"f","地址":"绿林路320弄","lng":121.54736478139209,"lat":31.17009454468773,"确诊日期36":"18"},{"SH_ID_36":"10gbgal","区36":"f","地址":"绿林路50弄","lng":121.54707141845206,"lat":31.174101994867605,"确诊日期36":"18"},{"SH_ID_36":"10gbgam","区36":"f","地址":"绿林路51弄","lng":121.54870802753663,"lat":31.174608808555814,"确诊日期36":"18"},{"SH_ID_36":"10gbgan","区36":"f","地址":"绿林路52弄","lng":121.54786298784695,"lat":31.173067533614304,"确诊日期36":"18"},{"SH_ID_36":"10gbgao","区36":"f","地址":"茂兴路98号","lng":121.51332705523838,"lat":31.209061704528253,"确诊日期36":"18"},{"SH_ID_36":"10gbgap","区36":"f","地址":"梅林村","lng":121.56040925401086,"lat":31.085124946923077,"确诊日期36":"18"},{"SH_ID_36":"10gbgaq","区36":"f","地址":"苗圃路60弄","lng":121.5455304936112,"lat":31.245458794887604,"确诊日期36":"18"},{"SH_ID_36":"10gbgar","区36":"f","地址":"苗桥路445号","lng":121.62755386140961,"lat":31.126395379416095,"确诊日期36":"18"},{"SH_ID_36":"10gbgas","区36":"f","地址":"苗桥路935弄","lng":121.62267269729497,"lat":31.141471521315374,"确诊日期36":"18"},{"SH_ID_36":"10gbgat","区36":"f","地址":"妙川路1000弄","lng":121.71502359362424,"lat":31.180110118880965,"确诊日期36":"18"},{"SH_ID_36":"10gbgau","区36":"f","地址":"妙境路1367弄","lng":121.6953752525469,"lat":31.17865090643507,"确诊日期36":"18"},{"SH_ID_36":"10gbgav","区36":"f","地址":"妙境路600弄","lng":121.69115616459248,"lat":31.189103213527066,"确诊日期36":"18"},{"SH_ID_36":"10gbgaw","区36":"f","地址":"妙栏路265弄","lng":121.68801581450941,"lat":31.18537284010454,"确诊日期36":"18"},{"SH_ID_36":"10gbgax","区36":"f","地址":"民丰村龚家宅","lng":121.64778630525912,"lat":31.205084749014492,"确诊日期36":"18"},{"SH_ID_36":"10gbgay","区36":"f","地址":"民丰村顾家宅","lng":121.64066336838837,"lat":31.21372825724784,"确诊日期36":"18"},{"SH_ID_36":"10gbgaz","区36":"f","地址":"民丰村李家宅","lng":121.54994108166633,"lat":31.161574484094956,"确诊日期36":"18"},{"SH_ID_36":"10gbgb0","区36":"f","地址":"民丰村陆家宅","lng":121.64191110695182,"lat":31.208335622741227,"确诊日期36":"18"},{"SH_ID_36":"10gbgb1","区36":"f","地址":"民丰村南黄家宅","lng":121.64221997148205,"lat":31.20820506690297,"确诊日期36":"18"},{"SH_ID_36":"10gbgb2","区36":"f","地址":"民建村北邵家宅","lng":121.6491859059473,"lat":31.274865920619035,"确诊日期36":"18"},{"SH_ID_36":"10gbgb3","区36":"f","地址":"民建村曹家宅","lng":121.6498544712651,"lat":31.27287079821452,"确诊日期36":"18"},{"SH_ID_36":"10gbgb4","区36":"f","地址":"民建村梅家宅","lng":121.64998812709122,"lat":31.272887824892535,"确诊日期36":"18"},{"SH_ID_36":"10gbgb5","区36":"f","地址":"民建村南邵家宅","lng":121.64869742670861,"lat":31.274313828948827,"确诊日期36":"18"},{"SH_ID_36":"10gbgb6","区36":"f","地址":"民建村徐家宅","lng":121.65062575866368,"lat":31.271020028649144,"确诊日期36":"18"},{"SH_ID_36":"10gbgb7","区36":"f","地址":"民利村周庄家宅","lng":121.74062897255082,"lat":31.185245274318667,"确诊日期36":"18"},{"SH_ID_36":"10gbgb8","区36":"f","地址":"民民路318弄","lng":121.6520737611928,"lat":31.268842082272958,"确诊日期36":"18"},{"SH_ID_36":"10gbgb9","区36":"f","地址":"民区路260弄","lng":121.65622321591191,"lat":31.2734228820496,"确诊日期36":"18"},{"SH_ID_36":"10gbgba","区36":"f","地址":"民生路423号","lng":121.5430687309007,"lat":31.24008687294124,"确诊日期36":"18"},{"SH_ID_36":"10gbgbb","区36":"f","地址":"民同路176弄","lng":121.65160131084102,"lat":31.271775058455276,"确诊日期36":"18"},{"SH_ID_36":"10gbgbc","区36":"f","地址":"民同路290弄","lng":121.65265537187318,"lat":31.270694621112558,"确诊日期36":"18"},{"SH_ID_36":"10gbgbd","区36":"f","地址":"民同路40弄","lng":121.6509822373864,"lat":31.272995350729897,"确诊日期36":"18"},{"SH_ID_36":"10gbgbe","区36":"f","地址":"民耀路227弄","lng":121.65419740343546,"lat":31.272842784646237,"确诊日期36":"18"},{"SH_ID_36":"10gbgbf","区36":"f","地址":"民耀路268弄","lng":121.65277703660824,"lat":31.27264105857083,"确诊日期36":"18"},{"SH_ID_36":"10gbgbg","区36":"f","地址":"民耀路358弄","lng":121.65367440394931,"lat":31.268698009312804,"确诊日期36":"18"},{"SH_ID_36":"10gbgbh","区36":"f","地址":"民耀路391弄","lng":121.65502131332084,"lat":31.27123473801399,"确诊日期36":"18"},{"SH_ID_36":"10gbgbi","区36":"f","地址":"民耀路423弄","lng":121.65603815848482,"lat":31.269611475194885,"确诊日期36":"18"},{"SH_ID_36":"10gbgbj","区36":"f","地址":"民耀路97弄","lng":121.6530347430265,"lat":31.274517168659575,"确诊日期36":"18"},{"SH_ID_36":"10gbgbk","区36":"f","地址":"民义村","lng":121.69879518557698,"lat":31.127798977006158,"确诊日期36":"18"},{"SH_ID_36":"10gbgbl","区36":"f","地址":"民治村","lng":121.63145374580841,"lat":31.11215029534412,"确诊日期36":"18"},{"SH_ID_36":"10gbgbm","区36":"f","地址":"民众村运河西","lng":121.67062089740955,"lat":31.276346444057566,"确诊日期36":"18"},{"SH_ID_36":"10gbgbn","区36":"f","地址":"牡丹路165弄","lng":121.54579615366035,"lat":31.207506303536498,"确诊日期36":"18"},{"SH_ID_36":"10gbgbo","区36":"f","地址":"牡丹路186弄","lng":121.54656439293919,"lat":31.206108409588744,"确诊日期36":"18"},{"SH_ID_36":"10gbgbp","区36":"f","地址":"暮二村顾家宅","lng":121.66714783802702,"lat":31.220524746415187,"确诊日期36":"18"},{"SH_ID_36":"10gbgbq","区36":"f","地址":"暮二村小丁家宅","lng":121.67620049939603,"lat":31.21832019314558,"确诊日期36":"18"},{"SH_ID_36":"10gbgbr","区36":"f","地址":"南曹路901弄","lng":121.66269194047818,"lat":31.20474328099761,"确诊日期36":"18"},{"SH_ID_36":"10gbgbs","区36":"f","地址":"南阜村曹家队蚌壳滩","lng":121.52734926548335,"lat":31.13584019952675,"确诊日期36":"18"},{"SH_ID_36":"10gbgbt","区36":"f","地址":"南阜村东汤队东汤家宅","lng":121.51137351155216,"lat":31.14276930405852,"确诊日期36":"18"},{"SH_ID_36":"10gbgbu","区36":"f","地址":"南阜村高树队西汤家宅","lng":121.5192318745786,"lat":31.132523733572473,"确诊日期36":"18"},{"SH_ID_36":"10gbgbv","区36":"f","地址":"南阜村九思队九思堂","lng":121.51541190345189,"lat":31.127447387960974,"确诊日期36":"18"},{"SH_ID_36":"10gbgbw","区36":"f","地址":"南码头路1521弄","lng":121.51822989911082,"lat":31.177143080870135,"确诊日期36":"18"},{"SH_ID_36":"10gbgbx","区36":"f","地址":"南码头路1675弄","lng":121.51416292762448,"lat":31.17473360223021,"确诊日期36":"18"},{"SH_ID_36":"10gbgby","区36":"f","地址":"南码头路450弄","lng":121.50927017851942,"lat":31.19319872917765,"确诊日期36":"18"},{"SH_ID_36":"10gbgbz","区36":"f","地址":"南码头路451弄","lng":121.51111068581639,"lat":31.195307936406948,"确诊日期36":"18"},{"SH_ID_36":"10gbgc0","区36":"f","地址":"南桥路459弄","lng":121.70179152524237,"lat":31.18784847419591,"确诊日期36":"18"},{"SH_ID_36":"10gbgc1","区36":"f","地址":"南泉北路101弄","lng":121.51486915454704,"lat":31.237284080546104,"确诊日期36":"18"},{"SH_ID_36":"10gbgc2","区36":"f","地址":"南泉北路170弄","lng":121.5158949012335,"lat":31.23650073085757,"确诊日期36":"18"},{"SH_ID_36":"10gbgc3","区36":"f","地址":"南泉路1320弄","lng":121.52063594329499,"lat":31.210421685289806,"确诊日期36":"18"},{"SH_ID_36":"10gbgc4","区36":"f","地址":"南塘村龚家宅","lng":121.5683758342074,"lat":31.338166182710285,"确诊日期36":"18"},{"SH_ID_36":"10gbgc5","区36":"f","地址":"南塘村顾家宅","lng":121.56814572630216,"lat":31.33896702016926,"确诊日期36":"18"},{"SH_ID_36":"10gbgc6","区36":"f","地址":"南塘村姚家宅","lng":121.5764898142872,"lat":31.184628878035287,"确诊日期36":"18"},{"SH_ID_36":"10gbgc7","区36":"f","地址":"南团公路858弄","lng":121.76245252526603,"lat":31.026865542492096,"确诊日期36":"18"},{"SH_ID_36":"10gbgc8","区36":"f","地址":"南新村东钟家宅","lng":121.54222267926632,"lat":31.166424945807446,"确诊日期36":"18"},{"SH_ID_36":"10gbgc9","区36":"f","地址":"南新村吴家宅","lng":121.78856826547297,"lat":30.8718518580064,"确诊日期36":"18"},{"SH_ID_36":"10gbgca","区36":"f","地址":"南新村西钟家宅","lng":121.78855645396975,"lat":30.87186062878214,"确诊日期36":"18"},{"SH_ID_36":"10gbgcb","区36":"f","地址":"南新村徐家宅","lng":121.68355766327304,"lat":31.257578810248965,"确诊日期36":"18"},{"SH_ID_36":"10gbgcc","区36":"f","地址":"南新村赵家厍","lng":121.5431108120326,"lat":31.166178166655232,"确诊日期36":"18"},{"SH_ID_36":"10gbgcd","区36":"f","地址":"南祝路111号","lng":121.75749034975489,"lat":31.12657110346808,"确诊日期36":"18"},{"SH_ID_36":"10gbgce","区36":"f","地址":"年家浜路339弄","lng":121.57631804624033,"lat":31.114014346390846,"确诊日期36":"18"},{"SH_ID_36":"10gbgcf","区36":"f","地址":"年家浜路425弄","lng":121.572357285862,"lat":31.112537879872004,"确诊日期36":"18"},{"SH_ID_36":"10gbgcg","区36":"f","地址":"年家浜路501弄","lng":121.56852468652978,"lat":31.11358450094992,"确诊日期36":"18"},{"SH_ID_36":"10gbgch","区36":"f","地址":"农科路21弄","lng":121.4487024879557,"lat":31.16794466899985,"确诊日期36":"18"},{"SH_ID_36":"10gbgci","区36":"f","地址":"牌楼东路528弄","lng":121.65599415646251,"lat":31.025501004421873,"确诊日期36":"18"},{"SH_ID_36":"10gbgcj","区36":"f","地址":"潘姚村西刘队刘家宅","lng":121.64509656466159,"lat":31.148549747607124,"确诊日期36":"18"},{"SH_ID_36":"10gbgck","区36":"f","地址":"彭庙村","lng":121.78722252080178,"lat":30.89487701800206,"确诊日期36":"18"},{"SH_ID_36":"10gbgcl","区36":"f","地址":"鹏飞路101弄","lng":121.55576378061973,"lat":31.17559713689617,"确诊日期36":"18"},{"SH_ID_36":"10gbgcm","区36":"f","地址":"鹏飞路333弄","lng":121.55731247793415,"lat":31.171628214957583,"确诊日期36":"18"},{"SH_ID_36":"10gbgcn","区36":"f","地址":"鹏飞路411弄","lng":121.55587461612514,"lat":31.171096727516982,"确诊日期36":"18"},{"SH_ID_36":"10gbgco","区36":"f","地址":"鹏岳路152弄","lng":121.55364579088332,"lat":31.170510821803397,"确诊日期36":"18"},{"SH_ID_36":"10gbgcp","区36":"f","地址":"鹏岳路233弄","lng":121.55489617936963,"lat":31.17016186799057,"确诊日期36":"18"},{"SH_ID_36":"10gbgcq","区36":"f","地址":"浦城路366弄","lng":121.51303388648388,"lat":31.228124218547485,"确诊日期36":"18"},{"SH_ID_36":"10gbgcr","区36":"f","地址":"浦城路377弄","lng":121.51279487167342,"lat":31.22656114882116,"确诊日期36":"18"},{"SH_ID_36":"10gbgcs","区36":"f","地址":"浦城路580弄","lng":121.51498693216409,"lat":31.22436929758241,"确诊日期36":"18"},{"SH_ID_36":"10gbgct","区36":"f","地址":"浦电路108弄","lng":121.52033344931539,"lat":31.218745948537205,"确诊日期36":"18"},{"SH_ID_36":"10gbgcu","区36":"f","地址":"浦电路149弄","lng":121.52123975751634,"lat":31.218064715544973,"确诊日期36":"18"},{"SH_ID_36":"10gbgcv","区36":"f","地址":"浦电路218号","lng":121.5232407884564,"lat":31.219946711796766,"确诊日期36":"18"},{"SH_ID_36":"10gbgcw","区36":"f","地址":"浦电路221号","lng":121.52392569583837,"lat":31.21850130780176,"确诊日期36":"18"},{"SH_ID_36":"10gbgcx","区36":"f","地址":"浦电路29弄","lng":121.51464974352932,"lat":31.21659886071797,"确诊日期36":"18"},{"SH_ID_36":"10gbgcy","区36":"f","地址":"浦电路300号","lng":121.52538804117295,"lat":31.219798298537892,"确诊日期36":"18"},{"SH_ID_36":"10gbgcz","区36":"f","地址":"浦电路305弄","lng":121.52634833264146,"lat":31.218481445676062,"确诊日期36":"18"},{"SH_ID_36":"10gbgd0","区36":"f","地址":"浦电路331弄","lng":121.52824918494359,"lat":31.219006266873357,"确诊日期36":"18"},{"SH_ID_36":"10gbgd1","区36":"f","地址":"浦电路479弄","lng":121.524316040289,"lat":31.218252119853414,"确诊日期36":"18"},{"SH_ID_36":"10gbgd2","区36":"f","地址":"浦东北路4588弄","lng":121.56262598361762,"lat":31.347279084772953,"确诊日期36":"18"},{"SH_ID_36":"10gbgd3","区36":"f","地址":"浦东大道1097弄","lng":121.53199942300755,"lat":31.243398477051667,"确诊日期36":"18"},{"SH_ID_36":"10gbgd4","区36":"f","地址":"浦东大道136弄","lng":121.51347532238218,"lat":31.237643005961093,"确诊日期36":"18"},{"SH_ID_36":"10gbgd5","区36":"f","地址":"浦东大道140弄","lng":121.5144505783348,"lat":31.23866810898975,"确诊日期36":"18"},{"SH_ID_36":"10gbgd6","区36":"f","地址":"浦东大道1558号工地生活区","lng":121.53284201099869,"lat":31.226816879502262,"确诊日期36":"18"},{"SH_ID_36":"10gbgd7","区36":"f","地址":"浦东大道1585弄","lng":121.54098622010673,"lat":31.24486920552987,"确诊日期36":"18"},{"SH_ID_36":"10gbgd8","区36":"f","地址":"浦东大道1615弄","lng":121.54152672264094,"lat":31.245906232221166,"确诊日期36":"18"},{"SH_ID_36":"10gbgd9","区36":"f","地址":"浦东大道1623弄","lng":121.54214942301392,"lat":31.2457172337362,"确诊日期36":"18"},{"SH_ID_36":"10gbgda","区36":"f","地址":"浦东大道1695弄","lng":121.54427059318301,"lat":31.246183160025964,"确诊日期36":"18"},{"SH_ID_36":"10gbgdb","区36":"f","地址":"浦东大道1819弄","lng":121.54557404934094,"lat":31.24724304237391,"确诊日期36":"18"},{"SH_ID_36":"10gbgdc","区36":"f","地址":"浦东大道1851弄","lng":121.54478556459664,"lat":31.247501691186667,"确诊日期36":"18"},{"SH_ID_36":"10gbgdd","区36":"f","地址":"浦东大道2568弄","lng":121.56407264194155,"lat":31.259723238156873,"确诊日期36":"18"},{"SH_ID_36":"10gbgde","区36":"f","地址":"浦东大道2639弄","lng":121.56758274273695,"lat":31.26360298307433,"确诊日期36":"18"},{"SH_ID_36":"10gbgdf","区36":"f","地址":"浦东大道2641弄","lng":121.56647736748837,"lat":31.2637489720577,"确诊日期36":"18"},{"SH_ID_36":"10gbgdg","区36":"f","地址":"浦东大道2894号","lng":121.57653846393129,"lat":31.27245518115252,"确诊日期36":"18"},{"SH_ID_36":"10gbgdh","区36":"f","地址":"浦东大道290弄","lng":121.51711009781276,"lat":31.239035099986467,"确诊日期36":"18"},{"SH_ID_36":"10gbgdi","区36":"f","地址":"浦东大道2970弄","lng":121.58105735929416,"lat":31.276984028338497,"确诊日期36":"18"},{"SH_ID_36":"10gbgdj","区36":"f","地址":"浦东大道3080弄","lng":121.57736834652667,"lat":31.282158684521924,"确诊日期36":"18"},{"SH_ID_36":"10gbgdk","区36":"f","地址":"浦东南路1288号","lng":121.51653670586086,"lat":31.225384473674115,"确诊日期36":"18"},{"SH_ID_36":"10gbgdl","区36":"f","地址":"浦东南路1475弄","lng":121.51851737633865,"lat":31.22206579636152,"确诊日期36":"18"},{"SH_ID_36":"10gbgdm","区36":"f","地址":"浦东南路1533号","lng":121.52089790205855,"lat":31.220544769087372,"确诊日期36":"18"},{"SH_ID_36":"10gbgdn","区36":"f","地址":"浦东南路1700弄","lng":121.51812627553574,"lat":31.21749511678633,"确诊日期36":"18"},{"SH_ID_36":"10gbgdo","区36":"f","地址":"浦东南路1862弄","lng":121.51770210667135,"lat":31.216008625236356,"确诊日期36":"18"},{"SH_ID_36":"10gbgdp","区36":"f","地址":"浦东南路2169号","lng":121.51660001854735,"lat":31.207277359949103,"确诊日期36":"18"},{"SH_ID_36":"10gbgdq","区36":"f","地址":"浦东南路2351弄","lng":121.51228419947248,"lat":31.19718286436784,"确诊日期36":"18"},{"SH_ID_36":"10gbgdr","区36":"f","地址":"浦东南路3649弄","lng":121.50574352308703,"lat":31.189568580422595,"确诊日期36":"18"},{"SH_ID_36":"10gbgds","区36":"f","地址":"浦明路233弄","lng":121.5108913744007,"lat":31.22661734985748,"确诊日期36":"18"},{"SH_ID_36":"10gbgdt","区36":"f","地址":"浦三路12弄","lng":121.51057335132766,"lat":31.196585849187247,"确诊日期36":"18"},{"SH_ID_36":"10gbgdu","区36":"f","地址":"浦三路288弄","lng":121.51370856644132,"lat":31.192844827109887,"确诊日期36":"18"},{"SH_ID_36":"10gbgdv","区36":"f","地址":"浦三路603号","lng":121.51663850240229,"lat":31.189285306668378,"确诊日期36":"18"},{"SH_ID_36":"10gbgdw","区36":"f","地址":"浦三路628弄","lng":121.51614746286117,"lat":31.18846103032446,"确诊日期36":"18"},{"SH_ID_36":"10gbgdx","区36":"f","地址":"浦三路637弄","lng":121.51798889438375,"lat":31.188607655462665,"确诊日期36":"18"},{"SH_ID_36":"10gbgdy","区36":"f","地址":"浦三路775弄","lng":121.51948004826939,"lat":31.184451583235234,"确诊日期36":"18"},{"SH_ID_36":"10gbgdz","区36":"f","地址":"浦三路817弄","lng":121.52039557817436,"lat":31.186117964109442,"确诊日期36":"18"},{"SH_ID_36":"10gbge0","区36":"f","地址":"浦三路年家浜路交界口工地生活区","lng":121.56747366411358,"lat":31.1135444963354,"确诊日期36":"18"},{"SH_ID_36":"10gbge1","区36":"f","地址":"浦三路秀浦路交界口工地生活区","lng":121.60333127966948,"lat":31.129409030361348,"确诊日期36":"18"},{"SH_ID_36":"10gbge2","区36":"f","地址":"普庆路115弄","lng":121.71949197537297,"lat":31.15549190350427,"确诊日期36":"18"},{"SH_ID_36":"10gbge3","区36":"f","地址":"栖山路1088弄","lng":121.55853928109275,"lat":31.252773678784244,"确诊日期36":"18"},{"SH_ID_36":"10gbge4","区36":"f","地址":"栖山路1300弄","lng":121.56116438898232,"lat":31.25463577884714,"确诊日期36":"18"},{"SH_ID_36":"10gbge5","区36":"f","地址":"栖山路1861弄","lng":121.57070884996,"lat":31.261913408647466,"确诊日期36":"18"},{"SH_ID_36":"10gbge6","区36":"f","地址":"栖山路1899弄","lng":121.57212368739158,"lat":31.261823651229125,"确诊日期36":"18"},{"SH_ID_36":"10gbge7","区36":"f","地址":"栖山路400弄","lng":121.55093356193697,"lat":31.24630210141521,"确诊日期36":"18"},{"SH_ID_36":"10gbge8","区36":"f","地址":"栖山路401弄","lng":121.54959328505754,"lat":31.24649994063972,"确诊日期36":"18"},{"SH_ID_36":"10gbge9","区36":"f","地址":"栖霞路190弄","lng":121.51867805317904,"lat":31.237173801513002,"确诊日期36":"18"},{"SH_ID_36":"10gbgea","区36":"f","地址":"千汇路198弄","lng":121.76957206505703,"lat":31.105580424845126,"确诊日期36":"18"},{"SH_ID_36":"10gbgeb","区36":"f","地址":"千汇路581弄","lng":121.76518791918429,"lat":31.11354005549723,"确诊日期36":"18"},{"SH_ID_36":"10gbgec","区36":"f","地址":"千汇路750弄","lng":121.76336667909669,"lat":31.117413215716123,"确诊日期36":"18"},{"SH_ID_36":"10gbged","区36":"f","地址":"前进村龚家宅","lng":121.64694066966396,"lat":31.199285108629795,"确诊日期36":"18"},{"SH_ID_36":"10gbgee","区36":"f","地址":"前进村唐家新村","lng":121.63861074900093,"lat":31.203073331300594,"确诊日期36":"18"},{"SH_ID_36":"10gbgef","区36":"f","地址":"前进村唐家宅","lng":121.58293877398047,"lat":31.161523719882133,"确诊日期36":"18"},{"SH_ID_36":"10gbgeg","区36":"f","地址":"前哨村包家宅","lng":121.75786285217045,"lat":31.199611336391172,"确诊日期36":"18"},{"SH_ID_36":"10gbgeh","区36":"f","地址":"前哨村马家宅","lng":121.73392802766635,"lat":31.241049678626023,"确诊日期36":"18"},{"SH_ID_36":"10gbgei","区36":"f","地址":"前哨村张家宅","lng":121.73370835004879,"lat":31.24115578367384,"确诊日期36":"18"},{"SH_ID_36":"10gbgej","区36":"f","地址":"勤奋村陈家宅","lng":121.72724630472949,"lat":31.242748109862717,"确诊日期36":"18"},{"SH_ID_36":"10gbgek","区36":"f","地址":"勤奋村黄家宅","lng":121.57084157846273,"lat":31.182072803436174,"确诊日期36":"18"},{"SH_ID_36":"10gbgel","区36":"f","地址":"勤奋村张家宅","lng":121.72212973272742,"lat":31.25512354385905,"确诊日期36":"18"},{"SH_ID_36":"10gbgem","区36":"f","地址":"勤益村东顾家宅","lng":121.6039307124632,"lat":31.28062671531593,"确诊日期36":"18"},{"SH_ID_36":"10gbgen","区36":"f","地址":"勤益村何家宅","lng":121.71050909895563,"lat":31.209298870770066,"确诊日期36":"18"},{"SH_ID_36":"10gbgeo","区36":"f","地址":"勤益村陆家宅","lng":121.71030422994366,"lat":31.209449606491695,"确诊日期36":"18"},{"SH_ID_36":"10gbgep","区36":"f","地址":"勤益村南顾家宅","lng":121.7514896129777,"lat":30.98786521627874,"确诊日期36":"18"},{"SH_ID_36":"10gbgeq","区36":"f","地址":"勤益村西张家宅","lng":121.71051519031366,"lat":31.209320985663535,"确诊日期36":"18"},{"SH_ID_36":"10gbger","区36":"f","地址":"勤益村徐家宅","lng":121.7072046154942,"lat":31.208771117728226,"确诊日期36":"18"},{"SH_ID_36":"10gbges","区36":"f","地址":"勤政路88弄","lng":121.62428094198374,"lat":31.17299768690145,"确诊日期36":"18"},{"SH_ID_36":"10gbget","区36":"f","地址":"青三村二村宅","lng":121.69506878229836,"lat":31.19703197624953,"确诊日期36":"18"},{"SH_ID_36":"10gbgeu","区36":"f","地址":"青三村后张家宅","lng":121.68652797305576,"lat":31.21777070399225,"确诊日期36":"18"},{"SH_ID_36":"10gbgev","区36":"f","地址":"青四村北邬家宅","lng":121.7370970807931,"lat":31.230958529939805,"确诊日期36":"18"},{"SH_ID_36":"10gbgew","区36":"f","地址":"青四村龚家宅","lng":121.71624433171914,"lat":31.226112962853826,"确诊日期36":"18"},{"SH_ID_36":"10gbgex","区36":"f","地址":"清溪路400弄","lng":121.57106313550054,"lat":31.341016252981692,"确诊日期36":"18"},{"SH_ID_36":"10gbgey","区36":"f","地址":"庆丰村龚家宅","lng":121.71628452516413,"lat":31.22619484275021,"确诊日期36":"18"},{"SH_ID_36":"10gbgez","区36":"f","地址":"庆丰村顾家宅","lng":121.71711357321088,"lat":31.241418183874636,"确诊日期36":"18"},{"SH_ID_36":"10gbgf0","区36":"f","地址":"庆丰村吴家宅","lng":121.63147458124142,"lat":31.179761356215888,"确诊日期36":"18"},{"SH_ID_36":"10gbgf1","区36":"f","地址":"庆星村","lng":121.71910761339478,"lat":31.234427240691282,"确诊日期36":"18"},{"SH_ID_36":"10gbgf2","区36":"f","地址":"秋岚路91弄","lng":121.59118275909242,"lat":31.32812353529792,"确诊日期36":"18"},{"SH_ID_36":"10gbgf3","区36":"f","地址":"秋亭路88弄","lng":121.76204586744346,"lat":31.097558023390622,"确诊日期36":"18"},{"SH_ID_36":"10gbgf4","区36":"f","地址":"群乐村花家宅","lng":121.68460435533153,"lat":31.28332466932537,"确诊日期36":"18"},{"SH_ID_36":"10gbgf5","区36":"f","地址":"群乐村南冯家宅","lng":121.68086444628794,"lat":31.283767443569577,"确诊日期36":"18"},{"SH_ID_36":"10gbgf6","区36":"f","地址":"群乐村张家宅","lng":121.68091107410044,"lat":31.283473489955853,"确诊日期36":"18"},{"SH_ID_36":"10gbgf7","区36":"f","地址":"人民东路2648弄","lng":121.76675118465532,"lat":31.0515238547276,"确诊日期36":"18"},{"SH_ID_36":"10gbgf8","区36":"f","地址":"人民东路3185号","lng":121.75843988181722,"lat":31.04890471305908,"确诊日期36":"18"},{"SH_ID_36":"10gbgf9","区36":"f","地址":"仁义村","lng":121.64069407664827,"lat":31.058453244761814,"确诊日期36":"18"},{"SH_ID_36":"10gbgfa","区36":"f","地址":"日新村北万家宅","lng":121.66822142756858,"lat":31.25825638501247,"确诊日期36":"18"},{"SH_ID_36":"10gbgfb","区36":"f","地址":"日新村龚家宅","lng":121.64689392632495,"lat":31.2049504355411,"确诊日期36":"18"},{"SH_ID_36":"10gbgfc","区36":"f","地址":"日新村南房宅","lng":121.66816324318388,"lat":31.25834175115553,"确诊日期36":"18"},{"SH_ID_36":"10gbgfd","区36":"f","地址":"日新村南万家宅","lng":121.66852021504137,"lat":31.25847800465671,"确诊日期36":"18"},{"SH_ID_36":"10gbgfe","区36":"f","地址":"日新村杨薛家宅","lng":121.66832540442124,"lat":31.25859199329287,"确诊日期36":"18"},{"SH_ID_36":"10gbgff","区36":"f","地址":"乳山路161弄","lng":121.52109648919108,"lat":31.23629275727549,"确诊日期36":"18"},{"SH_ID_36":"10gbgfg","区36":"f","地址":"乳山路313弄","lng":121.52101112856373,"lat":31.23982767089121,"确诊日期36":"18"},{"SH_ID_36":"10gbgfh","区36":"f","地址":"瑞安路700弄","lng":121.60121034442709,"lat":31.09164489336709,"确诊日期36":"18"},{"SH_ID_36":"10gbgfi","区36":"f","地址":"瑞安路80弄","lng":121.58774488475188,"lat":31.089046155887427,"确诊日期36":"18"},{"SH_ID_36":"10gbgfj","区36":"f","地址":"瑞和路101弄","lng":121.58661117718229,"lat":31.086688383384956,"确诊日期36":"18"},{"SH_ID_36":"10gbgfk","区36":"f","地址":"瑞和路555弄","lng":121.5956524941566,"lat":31.0905206051907,"确诊日期36":"18"},{"SH_ID_36":"10gbgfl","区36":"f","地址":"瑞浦路287弄","lng":121.58538851969284,"lat":31.095108679874446,"确诊日期36":"18"},{"SH_ID_36":"10gbgfm","区36":"f","地址":"瑞浦路288弄","lng":121.58450524673532,"lat":31.095600562613686,"确诊日期36":"18"},{"SH_ID_36":"10gbgfn","区36":"f","地址":"瑞浦路611弄","lng":121.58630092028092,"lat":31.09137768965611,"确诊日期36":"18"},{"SH_ID_36":"10gbgfo","区36":"f","地址":"瑞浦路77弄","lng":121.58765979910109,"lat":31.097989659250192,"确诊日期36":"18"},{"SH_ID_36":"10gbgfp","区36":"f","地址":"瑞浦路8弄","lng":121.58544878258894,"lat":31.098751893077424,"确诊日期36":"18"},{"SH_ID_36":"10gbgfq","区36":"f","地址":"瑞阳路81弄","lng":121.58856620637842,"lat":31.098899119029635,"确诊日期36":"18"},{"SH_ID_36":"10gbgfr","区36":"f","地址":"三彩路166弄","lng":121.49759845577711,"lat":31.12353514711328,"确诊日期36":"18"},{"SH_ID_36":"10gbgfs","区36":"f","地址":"三彩路59弄","lng":121.49877975707602,"lat":31.12677307723256,"确诊日期36":"18"},{"SH_ID_36":"10gbgft","区36":"f","地址":"三林路1662弄","lng":121.52628066478887,"lat":31.1470674977003,"确诊日期36":"18"},{"SH_ID_36":"10gbgfu","区36":"f","地址":"三林路200号","lng":121.49638202953084,"lat":31.13690105887873,"确诊日期36":"18"},{"SH_ID_36":"10gbgfv","区36":"f","地址":"三林路235号","lng":121.49600896621273,"lat":31.13816640718697,"确诊日期36":"18"},{"SH_ID_36":"10gbgfw","区36":"f","地址":"三林路675弄","lng":121.50453503717624,"lat":31.14160507501577,"确诊日期36":"18"},{"SH_ID_36":"10gbgfx","区36":"f","地址":"三林路706弄","lng":121.5058674506284,"lat":31.14090775285875,"确诊日期36":"18"},{"SH_ID_36":"10gbgfy","区36":"f","地址":"三林路788弄","lng":121.50791385508512,"lat":31.141303087100663,"确诊日期36":"18"},{"SH_ID_36":"10gbgfz","区36":"f","地址":"三三公路5020弄","lng":121.9077007538758,"lat":30.952857578594255,"确诊日期36":"18"},{"SH_ID_36":"10gbgg0","区36":"f","地址":"三舒路192弄","lng":121.5041890704517,"lat":31.122556021867183,"确诊日期36":"18"},{"SH_ID_36":"10gbgg1","区36":"f","地址":"三新路5弄","lng":121.50699694870063,"lat":31.139216668404156,"确诊日期36":"18"},{"SH_ID_36":"10gbgg2","区36":"f","地址":"三旋路506弄","lng":121.5025024205116,"lat":31.11941788464877,"确诊日期36":"18"},{"SH_ID_36":"10gbgg3","区36":"f","地址":"三灶路451弄","lng":121.64050687641728,"lat":31.17920444856067,"确诊日期36":"18"},{"SH_ID_36":"10gbgg4","区36":"f","地址":"沙北村","lng":121.59271967022417,"lat":31.051001258026865,"确诊日期36":"18"},{"SH_ID_36":"10gbgg5","区36":"f","地址":"沙东村","lng":121.61428407032359,"lat":31.056834823552794,"确诊日期36":"18"},{"SH_ID_36":"10gbgg6","区36":"f","地址":"商城路1025弄","lng":121.52561663497923,"lat":31.234277186929752,"确诊日期36":"18"},{"SH_ID_36":"10gbgg7","区36":"f","地址":"商城路297号","lng":121.510170875312,"lat":31.22933340608301,"确诊日期36":"18"},{"SH_ID_36":"10gbgg8","区36":"f","地址":"商城路48弄","lng":121.59553252748758,"lat":31.028414133423478,"确诊日期36":"18"},{"SH_ID_36":"10gbgg9","区36":"f","地址":"上川路361号","lng":121.63926329676708,"lat":31.273986730630398,"确诊日期36":"18"},{"SH_ID_36":"10gbgga","区36":"f","地址":"上川路612号生活区","lng":121.64751911029319,"lat":31.272584259326663,"确诊日期36":"18"},{"SH_ID_36":"10gbggb","区36":"f","地址":"上川路620号","lng":121.6482078680686,"lat":31.273934495368728,"确诊日期36":"18"},{"SH_ID_36":"10gbggc","区36":"f","地址":"上南路1000弄","lng":121.49398525272797,"lat":31.174819607137835,"确诊日期36":"18"},{"SH_ID_36":"10gbggd","区36":"f","地址":"上南路1251弄","lng":121.49687078682257,"lat":31.17326999660321,"确诊日期36":"18"},{"SH_ID_36":"10gbgge","区36":"f","地址":"上南路3058弄","lng":121.49709406860707,"lat":31.161209304041275,"确诊日期36":"18"},{"SH_ID_36":"10gbggf","区36":"f","地址":"上南路3333弄","lng":121.5019450175333,"lat":31.159789750935747,"确诊日期36":"18"},{"SH_ID_36":"10gbggg","区36":"f","地址":"上南路3339弄","lng":121.50709377912175,"lat":31.160212459569752,"确诊日期36":"18"},{"SH_ID_36":"10gbggh","区36":"f","地址":"上南路3500弄","lng":121.49951277317746,"lat":31.154313172291292,"确诊日期36":"18"},{"SH_ID_36":"10gbggi","区36":"f","地址":"上南路3827弄","lng":121.50670828537899,"lat":31.151903543791683,"确诊日期36":"18"},{"SH_ID_36":"10gbggj","区36":"f","地址":"上南路3880弄","lng":121.50379335890993,"lat":31.14970923935331,"确诊日期36":"18"},{"SH_ID_36":"10gbggk","区36":"f","地址":"上南路5588号","lng":121.52708931829861,"lat":31.124754666447256,"确诊日期36":"18"},{"SH_ID_36":"10gbggl","区36":"f","地址":"上南路6333弄","lng":121.54941846131953,"lat":31.11938226410508,"确诊日期36":"18"},{"SH_ID_36":"10gbggm","区36":"f","地址":"上南路6555弄","lng":121.55195471508702,"lat":31.120236280706795,"确诊日期36":"18"},{"SH_ID_36":"10gbggn","区36":"f","地址":"上南路6611弄","lng":121.55372691313474,"lat":31.11949907091645,"确诊日期36":"18"},{"SH_ID_36":"10gbggo","区36":"f","地址":"上南路6733弄","lng":121.56273942822307,"lat":31.120048709645353,"确诊日期36":"18"},{"SH_ID_36":"10gbggp","区36":"f","地址":"上南路6869弄","lng":121.5655736356496,"lat":31.11873446001477,"确诊日期36":"18"},{"SH_ID_36":"10gbggq","区36":"f","地址":"上南路7718弄","lng":121.57035672335032,"lat":31.11695883043507,"确诊日期36":"18"},{"SH_ID_36":"10gbggr","区36":"f","地址":"上南路929弄","lng":121.49605441728623,"lat":31.176871671683337,"确诊日期36":"18"},{"SH_ID_36":"10gbggs","区36":"f","地址":"上浦路165弄","lng":121.49215718031806,"lat":31.146008892970443,"确诊日期36":"18"},{"SH_ID_36":"10gbggt","区36":"f","地址":"上浦路201弄","lng":121.49163895221876,"lat":31.14719624335865,"确诊日期36":"18"},{"SH_ID_36":"10gbggu","区36":"f","地址":"上浦路202弄","lng":121.49269365581655,"lat":31.144524439154186,"确诊日期36":"18"},{"SH_ID_36":"10gbggv","区36":"f","地址":"上浦路329弄","lng":121.49491525039436,"lat":31.146301389421712,"确诊日期36":"18"},{"SH_ID_36":"10gbggw","区36":"f","地址":"上游村卢家宅","lng":121.63162520179318,"lat":31.308198532550144,"确诊日期36":"18"},{"SH_ID_36":"10gbggx","区36":"f","地址":"上游村罗家宅","lng":121.6413183214706,"lat":31.31076723165558,"确诊日期36":"18"},{"SH_ID_36":"10gbggy","区36":"f","地址":"尚博路129弄","lng":121.51035883370056,"lat":31.146524630492024,"确诊日期36":"18"},{"SH_ID_36":"10gbggz","区36":"f","地址":"尚博路518弄","lng":121.51942374856199,"lat":31.148604280178287,"确诊日期36":"18"},{"SH_ID_36":"10gbgh0","区36":"f","地址":"申江路轲桥路交界口工地生活区","lng":121.62953383263527,"lat":31.285132314065205,"确诊日期36":"18"},{"SH_ID_36":"10gbgh1","区36":"f","地址":"申江南路1999号生活区","lng":121.63569979461089,"lat":31.12682713348877,"确诊日期36":"18"},{"SH_ID_36":"10gbgh2","区36":"f","地址":"沈家弄路936号","lng":121.54711666726418,"lat":31.24008247135501,"确诊日期36":"18"},{"SH_ID_36":"10gbgh3","区36":"f","地址":"沈西村","lng":121.56547675355046,"lat":31.09015934702309,"确诊日期36":"18"},{"SH_ID_36":"10gbgh4","区36":"f","地址":"沈庄村","lng":121.58462627798387,"lat":31.085941467541584,"确诊日期36":"18"},{"SH_ID_36":"10gbgh5","区36":"f","地址":"胜利路169弄","lng":121.68766487338719,"lat":31.245310440885824,"确诊日期36":"18"},{"SH_ID_36":"10gbgh6","区36":"f","地址":"胜利路30弄","lng":121.68598722683836,"lat":31.24302370233429,"确诊日期36":"18"},{"SH_ID_36":"10gbgh7","区36":"f","地址":"胜利路836弄","lng":121.70164182048215,"lat":31.24568728545409,"确诊日期36":"18"},{"SH_ID_36":"10gbgh8","区36":"f","地址":"盛夏路1107弄","lng":121.63493466499779,"lat":31.19801182979134,"确诊日期36":"18"},{"SH_ID_36":"10gbgh9","区36":"f","地址":"盛朱村","lng":121.69916140419822,"lat":31.269433228475204,"确诊日期36":"18"},{"SH_ID_36":"10gbgha","区36":"f","地址":"施湾二路863弄","lng":121.7489783177934,"lat":31.144548714858576,"确诊日期36":"18"},{"SH_ID_36":"10gbghb","区36":"f","地址":"施湾三路1105弄","lng":121.75355938372017,"lat":31.140037011910522,"确诊日期36":"18"},{"SH_ID_36":"10gbghc","区36":"f","地址":"世博家园大道站路94弄","lng":121.53478821062741,"lat":31.16315048279675,"确诊日期36":"18"},{"SH_ID_36":"10gbghd","区36":"f","地址":"首善街555弄","lng":121.87510923410457,"lat":30.97424607730712,"确诊日期36":"18"},{"SH_ID_36":"10gbghe","区36":"f","地址":"寿光路161弄","lng":121.5840513742238,"lat":31.27446599522322,"确诊日期36":"18"},{"SH_ID_36":"10gbghf","区36":"f","地址":"双桥路220弄","lng":121.59622335186626,"lat":31.285468155313172,"确诊日期36":"18"},{"SH_ID_36":"10gbghg","区36":"f","地址":"顺凌路49弄","lng":121.53698575158646,"lat":31.365136939425955,"确诊日期36":"18"},{"SH_ID_36":"10gbghh","区36":"f","地址":"思浦路11弄","lng":121.49364953198024,"lat":31.159149876389616,"确诊日期36":"18"},{"SH_ID_36":"10gbghi","区36":"f","地址":"思浦路14弄","lng":121.49403986317787,"lat":31.158651820495184,"确诊日期36":"18"},{"SH_ID_36":"10gbghj","区36":"f","地址":"思浦路16弄","lng":121.49391175899467,"lat":31.15793623423443,"确诊日期36":"18"},{"SH_ID_36":"10gbghk","区36":"f","地址":"思浦路17弄","lng":121.49333221011665,"lat":31.158586298397363,"确诊日期36":"18"},{"SH_ID_36":"10gbghl","区36":"f","地址":"思浦路6弄","lng":121.49451510151117,"lat":31.158870216328587,"确诊日期36":"18"},{"SH_ID_36":"10gbghm","区36":"f","地址":"思学路55弄","lng":121.57973918039441,"lat":31.29948699495937,"确诊日期36":"18"},{"SH_ID_36":"10gbghn","区36":"f","地址":"松林路88弄","lng":121.5285152125331,"lat":31.23244194004276,"确诊日期36":"18"},{"SH_ID_36":"10gbgho","区36":"f","地址":"孙环路377弄","lng":121.64046396551744,"lat":31.181282986406526,"确诊日期36":"18"},{"SH_ID_36":"10gbghp","区36":"f","地址":"孙建路665弄","lng":121.6367275250402,"lat":31.182923661089735,"确诊日期36":"18"},{"SH_ID_36":"10gbghq","区36":"f","地址":"孙桥路235弄","lng":121.63077880239311,"lat":31.182248654733527,"确诊日期36":"18"},{"SH_ID_36":"10gbghr","区36":"f","地址":"孙桥路788号工地生活区","lng":121.63094283931113,"lat":31.170778071528968,"确诊日期36":"18"},{"SH_ID_36":"10gbghs","区36":"f","地址":"孙耀路111弄","lng":121.63706585089325,"lat":31.183510833054953,"确诊日期36":"18"},{"SH_ID_36":"10gbght","区36":"f","地址":"孙耀路128弄","lng":121.63382139147669,"lat":31.185259587536827,"确诊日期36":"18"},{"SH_ID_36":"10gbghu","区36":"f","地址":"台儿庄路666弄","lng":121.59619663347911,"lat":31.25473698982565,"确诊日期36":"18"},{"SH_ID_36":"10gbghv","区36":"f","地址":"谈弄村","lng":121.55262391363974,"lat":31.061471037415952,"确诊日期36":"18"},{"SH_ID_36":"10gbghw","区36":"f","地址":"檀香村","lng":121.60170629465475,"lat":31.00532890541955,"确诊日期36":"18"},{"SH_ID_36":"10gbghx","区36":"f","地址":"坦南村","lng":121.65197476994858,"lat":31.07157715603334,"确诊日期36":"18"},{"SH_ID_36":"10gbghy","区36":"f","地址":"汤巷村","lng":121.60389269750739,"lat":31.147171132804576,"确诊日期36":"18"},{"SH_ID_36":"10gbghz","区36":"f","地址":"唐丰路328号","lng":121.64671408963096,"lat":31.209992416671955,"确诊日期36":"18"},{"SH_ID_36":"10gbgi0","区36":"f","地址":"唐兴路436弄","lng":121.6555187497174,"lat":31.20634797269393,"确诊日期36":"18"},{"SH_ID_36":"10gbgi1","区36":"f","地址":"唐镇路127弄","lng":121.64978455458852,"lat":31.207141800542107,"确诊日期36":"18"},{"SH_ID_36":"10gbgi2","区36":"f","地址":"塘南路159弄","lng":121.5096341254184,"lat":31.202726013364472,"确诊日期36":"18"},{"SH_ID_36":"10gbgi3","区36":"f","地址":"塘桥路551弄","lng":121.52088393310632,"lat":31.21165686045898,"确诊日期36":"18"},{"SH_ID_36":"10gbgi4","区36":"f","地址":"天花庵村北陈队大陈家宅","lng":121.52062939284596,"lat":31.124601016806302,"确诊日期36":"18"},{"SH_ID_36":"10gbgi5","区36":"f","地址":"天花庵村东瞿队大瞿家宅","lng":121.53424743554781,"lat":31.12265348012132,"确诊日期36":"18"},{"SH_ID_36":"10gbgi6","区36":"f","地址":"天花庵村芦家队芦家油车","lng":121.52642941941053,"lat":31.123993786628144,"确诊日期36":"18"},{"SH_ID_36":"10gbgi7","区36":"f","地址":"天花庵村闵西队闵家宅","lng":121.53182366640878,"lat":31.121477932131395,"确诊日期36":"18"},{"SH_ID_36":"10gbgi8","区36":"f","地址":"天花庵村南陈队大陈家宅","lng":121.52357226794965,"lat":31.122308412339567,"确诊日期36":"18"},{"SH_ID_36":"10gbgi9","区36":"f","地址":"天花庵村南王家队南王家宅","lng":121.52796172556958,"lat":31.13340636765073,"确诊日期36":"18"},{"SH_ID_36":"10gbgia","区36":"f","地址":"天花庵村西瞿队大瞿家宅","lng":121.5343574442513,"lat":31.122816152486088,"确诊日期36":"18"},{"SH_ID_36":"10gbgib","区36":"f","地址":"听健路151弄","lng":121.74475842859415,"lat":31.06710578509068,"确诊日期36":"18"},{"SH_ID_36":"10gbgic","区36":"f","地址":"听康路181弄","lng":121.74845535889216,"lat":31.06761169390275,"确诊日期36":"18"},{"SH_ID_36":"10gbgid","区36":"f","地址":"听民路242弄","lng":121.75925487023734,"lat":31.068296909513016,"确诊日期36":"18"},{"SH_ID_36":"10gbgie","区36":"f","地址":"亭东村胡家宅","lng":121.7555827340281,"lat":31.18535804241243,"确诊日期36":"18"},{"SH_ID_36":"10gbgif","区36":"f","地址":"亭中村","lng":121.77203027334468,"lat":31.09709756988857,"确诊日期36":"18"},{"SH_ID_36":"10gbgig","区36":"f","地址":"同心村","lng":121.79948131257686,"lat":30.88999233970269,"确诊日期36":"18"},{"SH_ID_36":"10gbgih","区36":"f","地址":"晚霞路550弄","lng":121.75053205447236,"lat":31.178055665586083,"确诊日期36":"18"},{"SH_ID_36":"10gbgii","区36":"f","地址":"万二村","lng":121.81518052982717,"lat":30.95158553000709,"确诊日期36":"18"},{"SH_ID_36":"10gbgij","区36":"f","地址":"王桥街41弄","lng":121.70032118795092,"lat":31.20268938601029,"确诊日期36":"18"},{"SH_ID_36":"10gbgik","区36":"f","地址":"望楼三村陈家宅","lng":121.56501843045959,"lat":31.176848190125977,"确诊日期36":"18"},{"SH_ID_36":"10gbgil","区36":"f","地址":"望楼三村金家宅","lng":121.58656424941222,"lat":31.125035420815387,"确诊日期36":"18"},{"SH_ID_36":"10gbgim","区36":"f","地址":"潍坊路126弄","lng":121.52368938085105,"lat":31.221732880083067,"确诊日期36":"18"},{"SH_ID_36":"10gbgin","区36":"f","地址":"潍坊路140弄","lng":121.52509750952676,"lat":31.225303711776927,"确诊日期36":"18"},{"SH_ID_36":"10gbgio","区36":"f","地址":"潍坊路149弄","lng":121.52110624975988,"lat":31.218522134808854,"确诊日期36":"18"},{"SH_ID_36":"10gbgip","区36":"f","地址":"潍坊路154弄","lng":121.52556079197251,"lat":31.223939332096233,"确诊日期36":"18"},{"SH_ID_36":"10gbgiq","区36":"f","地址":"潍坊路168弄","lng":121.52757717691922,"lat":31.225494456060524,"确诊日期36":"18"},{"SH_ID_36":"10gbgir","区36":"f","地址":"潍坊路208弄","lng":121.52944689723202,"lat":31.226433553089887,"确诊日期36":"18"},{"SH_ID_36":"10gbgis","区36":"f","地址":"潍坊路333弄","lng":121.5271604265766,"lat":31.2262018957563,"确诊日期36":"18"},{"SH_ID_36":"10gbgit","区36":"f","地址":"潍坊路606号","lng":121.52227005443176,"lat":31.222607465421195,"确诊日期36":"18"},{"SH_ID_36":"10gbgiu","区36":"f","地址":"潍坊西路1弄","lng":121.51267883501538,"lat":31.222617446118118,"确诊日期36":"18"},{"SH_ID_36":"10gbgiv","区36":"f","地址":"潍坊西路2弄","lng":121.51482477983527,"lat":31.21965171606999,"确诊日期36":"18"},{"SH_ID_36":"10gbgiw","区36":"f","地址":"卫行村顾家队顾家宅","lng":121.58257973476272,"lat":31.16697901039334,"确诊日期36":"18"},{"SH_ID_36":"10gbgix","区36":"f","地址":"卫行村顾家队张家宅","lng":121.58301493489614,"lat":31.16684227175037,"确诊日期36":"18"},{"SH_ID_36":"10gbgiy","区36":"f","地址":"卫行村沈家队沈家宅","lng":121.58021059442294,"lat":31.15880919056625,"确诊日期36":"18"},{"SH_ID_36":"10gbgiz","区36":"f","地址":"卫行村张浜队曹家宅","lng":121.58239739578454,"lat":31.165752443763246,"确诊日期36":"18"},{"SH_ID_36":"10gbgj0","区36":"f","地址":"卫行村张浜队南顾家宅","lng":121.58164297597312,"lat":31.16563254861904,"确诊日期36":"18"},{"SH_ID_36":"10gbgj1","区36":"f","地址":"卫行村张浜队王家宅","lng":121.67879535033025,"lat":31.165782440897026,"确诊日期36":"18"},{"SH_ID_36":"10gbgj2","区36":"f","地址":"卫行村张浜队杨家宅","lng":121.57994788751077,"lat":31.165618651442472,"确诊日期36":"18"},{"SH_ID_36":"10gbgj3","区36":"f","地址":"卫行村张家队张家宅","lng":121.54774413580157,"lat":31.16800227265797,"确诊日期36":"18"},{"SH_ID_36":"10gbgj4","区36":"f","地址":"卫行村朱家队朱家宅","lng":121.58308455462563,"lat":31.16166444923247,"确诊日期36":"18"},{"SH_ID_36":"10gbgj5","区36":"f","地址":"五莲路1042弄","lng":121.59488362619874,"lat":31.270847652959667,"确诊日期36":"18"},{"SH_ID_36":"10gbgj6","区36":"f","地址":"五莲路108弄","lng":121.59967329341148,"lat":31.28212485994858,"确诊日期36":"18"},{"SH_ID_36":"10gbgj7","区36":"f","地址":"五四村沈孙家宅","lng":121.65173728204002,"lat":31.254548328338352,"确诊日期36":"18"},{"SH_ID_36":"10gbgj8","区36":"f","地址":"五星村陈家队陈家宅","lng":121.56753728497175,"lat":31.192035919034417,"确诊日期36":"18"},{"SH_ID_36":"10gbgj9","区36":"f","地址":"五星村陈家队奚家宅","lng":121.55025537928427,"lat":31.156338468079127,"确诊日期36":"18"},{"SH_ID_36":"10gbgja","区36":"f","地址":"五星村邱桥队陈家宅","lng":121.56783050869032,"lat":31.19177231303893,"确诊日期36":"18"},{"SH_ID_36":"10gbgjb","区36":"f","地址":"五星村三联队陈家宅","lng":121.56577827895813,"lat":31.180246904273602,"确诊日期36":"18"},{"SH_ID_36":"10gbgjc","区36":"f","地址":"五星村三联队黄家宅","lng":121.57084933474307,"lat":31.182256916610473,"确诊日期36":"18"},{"SH_ID_36":"10gbgjd","区36":"f","地址":"五星村吴家队吴家宅","lng":121.63167249637205,"lat":31.17986825889062,"确诊日期36":"18"},{"SH_ID_36":"10gbgje","区36":"f","地址":"五星村五星队陈家宅","lng":121.56774248892613,"lat":31.19182521750415,"确诊日期36":"18"},{"SH_ID_36":"10gbgjf","区36":"f","地址":"五星村徐家队顾家宅","lng":121.5713437247876,"lat":31.16527558540473,"确诊日期36":"18"},{"SH_ID_36":"10gbgjg","区36":"f","地址":"五星路231弄","lng":121.56216299156331,"lat":31.174788898168103,"确诊日期36":"18"},{"SH_ID_36":"10gbgjh","区36":"f","地址":"五星路239弄","lng":121.56464140355915,"lat":31.17567556962002,"确诊日期36":"18"},{"SH_ID_36":"10gbgji","区36":"f","地址":"五星路410弄","lng":121.56653748079304,"lat":31.174914511750806,"确诊日期36":"18"},{"SH_ID_36":"10gbgjj","区36":"f","地址":"西浜头","lng":121.6089683370565,"lat":31.286703351741266,"确诊日期36":"18"},{"SH_ID_36":"10gbgjk","区36":"f","地址":"西林村洪家队西林街","lng":121.49674708651088,"lat":31.134174684096333,"确诊日期36":"18"},{"SH_ID_36":"10gbgjl","区36":"f","地址":"西林村圈门队西林街","lng":121.4970554778983,"lat":31.134265693671146,"确诊日期36":"18"},{"SH_ID_36":"10gbgjm","区36":"f","地址":"西林村圈门队叶家宅","lng":121.49208255112013,"lat":31.13745349206557,"确诊日期36":"18"},{"SH_ID_36":"10gbgjn","区36":"f","地址":"西林村万家队西林街","lng":121.49685169931428,"lat":31.134310846516946,"确诊日期36":"18"},{"SH_ID_36":"10gbgjo","区36":"f","地址":"西林村西林队金家宅","lng":121.58685778738871,"lat":31.12517795603933,"确诊日期36":"18"},{"SH_ID_36":"10gbgjp","区36":"f","地址":"西门村","lng":121.74171670143821,"lat":31.05472422056672,"确诊日期36":"18"},{"SH_ID_36":"10gbgjq","区36":"f","地址":"西门路7号","lng":121.74372388045363,"lat":31.047280818185477,"确诊日期36":"18"},{"SH_ID_36":"10gbgjr","区36":"f","地址":"西三里桥路8弄","lng":121.50656785861521,"lat":31.199330868348223,"确诊日期36":"18"},{"SH_ID_36":"10gbgjs","区36":"f","地址":"西泰林路158弄","lng":121.53136138112002,"lat":31.152462284223855,"确诊日期36":"18"},{"SH_ID_36":"10gbgjt","区36":"f","地址":"西泰林路901弄","lng":121.53931593771414,"lat":31.144375530843156,"确诊日期36":"18"},{"SH_ID_36":"10gbgju","区36":"f","地址":"西营路33弄","lng":121.48484329568174,"lat":31.171239172347104,"确诊日期36":"18"},{"SH_ID_36":"10gbgjv","区36":"f","地址":"西营路44弄","lng":121.48219111970955,"lat":31.17053338879915,"确诊日期36":"18"},{"SH_ID_36":"10gbgjw","区36":"f","地址":"西营南路18弄","lng":121.48793710322376,"lat":31.160113703361283,"确诊日期36":"18"},{"SH_ID_36":"10gbgjx","区36":"f","地址":"西营南路6弄","lng":121.4861212085538,"lat":31.161946613889494,"确诊日期36":"18"},{"SH_ID_36":"10gbgjy","区36":"f","地址":"奚家村卫家宅","lng":121.71123137211731,"lat":31.247863989233547,"确诊日期36":"18"},{"SH_ID_36":"10gbgjz","区36":"f","地址":"下南路161弄","lng":121.54453457359824,"lat":31.1671289813163,"确诊日期36":"18"},{"SH_ID_36":"10gbgk0","区36":"f","地址":"下南路225弄","lng":121.54299160346505,"lat":31.1682759608447,"确诊日期36":"18"},{"SH_ID_36":"10gbgk1","区36":"f","地址":"下南路276弄","lng":121.54183933162223,"lat":31.16823882604631,"确诊日期36":"18"},{"SH_ID_36":"10gbgk2","区36":"f","地址":"下南路309弄","lng":121.54342409141621,"lat":31.169061624521184,"确诊日期36":"18"},{"SH_ID_36":"10gbgk3","区36":"f","地址":"下南路320弄","lng":121.54058910783907,"lat":31.16866228120472,"确诊日期36":"18"},{"SH_ID_36":"10gbgk4","区36":"f","地址":"下南路339弄","lng":121.54259692346406,"lat":31.16947867072749,"确诊日期36":"18"},{"SH_ID_36":"10gbgk5","区36":"f","地址":"下南路370弄","lng":121.53936296537525,"lat":31.170106455129023,"确诊日期36":"18"},{"SH_ID_36":"10gbgk6","区36":"f","地址":"下南路465弄","lng":121.54067100877725,"lat":31.171500075590146,"确诊日期36":"18"},{"SH_ID_36":"10gbgk7","区36":"f","地址":"下南路500弄","lng":121.53890222271723,"lat":31.1719982573516,"确诊日期36":"18"},{"SH_ID_36":"10gbgk8","区36":"f","地址":"下南路501弄","lng":121.54106300628723,"lat":31.172194371467555,"确诊日期36":"18"},{"SH_ID_36":"10gbgk9","区36":"f","地址":"下南路518弄","lng":121.53943615542072,"lat":31.172335084234668,"确诊日期36":"18"},{"SH_ID_36":"10gbgka","区36":"f","地址":"下南路526弄","lng":121.538249072721,"lat":31.17128109849566,"确诊日期36":"18"},{"SH_ID_36":"10gbgkb","区36":"f","地址":"下南路551弄","lng":121.54209438147261,"lat":31.173159200812783,"确诊日期36":"18"},{"SH_ID_36":"10gbgkc","区36":"f","地址":"下南路880号","lng":121.53620736555928,"lat":31.18132937259382,"确诊日期36":"18"},{"SH_ID_36":"10gbgkd","区36":"f","地址":"先锋村卢家宅","lng":121.63168254093944,"lat":31.30851166956497,"确诊日期36":"18"},{"SH_ID_36":"10gbgke","区36":"f","地址":"先锋村王朱家宅","lng":121.6299330168557,"lat":31.305030242466778,"确诊日期36":"18"},{"SH_ID_36":"10gbgkf","区36":"f","地址":"香楠路199弄","lng":121.61460332758162,"lat":31.216270616733432,"确诊日期36":"18"},{"SH_ID_36":"10gbgkg","区36":"f","地址":"香楠路39弄","lng":121.61283849280576,"lat":31.215617850085042,"确诊日期36":"18"},{"SH_ID_36":"10gbgkh","区36":"f","地址":"翔川路458弄","lng":121.69570221426072,"lat":31.183638413740876,"确诊日期36":"18"},{"SH_ID_36":"10gbgki","区36":"f","地址":"向东村陆家宅","lng":121.74372793855142,"lat":31.23353970763198,"确诊日期36":"18"},{"SH_ID_36":"10gbgkj","区36":"f","地址":"向东村马家宅","lng":121.74400616538236,"lat":31.23334371924846,"确诊日期36":"18"},{"SH_ID_36":"10gbgkk","区36":"f","地址":"向东村宋家宅","lng":121.86029665037168,"lat":31.02632072293091,"确诊日期36":"18"},{"SH_ID_36":"10gbgkl","区36":"f","地址":"向东村唐家宅","lng":121.58298223393048,"lat":31.161420339871505,"确诊日期36":"18"},{"SH_ID_36":"10gbgkm","区36":"f","地址":"小南码头路4弄","lng":121.51072500922496,"lat":31.20814490647232,"确诊日期36":"18"},{"SH_ID_36":"10gbgkn","区36":"f","地址":"小湾村北张家宅","lng":121.70536606219096,"lat":31.14029520432544,"确诊日期36":"18"},{"SH_ID_36":"10gbgko","区36":"f","地址":"小湾村奚家宅","lng":121.55047305268937,"lat":31.156351138103858,"确诊日期36":"18"},{"SH_ID_36":"10gbgkp","区36":"f","地址":"新陈路150弄","lng":121.56034232618386,"lat":31.178720525531794,"确诊日期36":"18"},{"SH_ID_36":"10gbgkq","区36":"f","地址":"新陈路303弄","lng":121.56609683296159,"lat":31.180684800930084,"确诊日期36":"18"},{"SH_ID_36":"10gbgkr","区36":"f","地址":"新川路190弄","lng":121.70585395144741,"lat":31.195298033118874,"确诊日期36":"18"},{"SH_ID_36":"10gbgks","区36":"f","地址":"新川路279弄","lng":121.7031188411103,"lat":31.193794128312547,"确诊日期36":"18"},{"SH_ID_36":"10gbgkt","区36":"f","地址":"新德路365弄","lng":121.69785807798537,"lat":31.19718482709744,"确诊日期36":"18"},{"SH_ID_36":"10gbgku","区36":"f","地址":"新德西路207弄","lng":121.67352663958825,"lat":31.19081402605105,"确诊日期36":"18"},{"SH_ID_36":"10gbgkv","区36":"f","地址":"新德西路508弄","lng":121.66773197290166,"lat":31.190801169816982,"确诊日期36":"18"},