SH_ID_36,区36,地址,lng,lat
10g95up,d,爱辉路1018弄,121.4468954175168,31.34563309236245
10g95un,d,爱辉路171号,121.44969438534581,31.341784101456543
10g95uo,d,爱辉路198号,121.45479669175653,31.329921913917676
10g95uk,d,爱辉路27弄,121.45579494647419,31.3279130390029
10g95ul,d,爱辉路28弄,121.45313305592317,31.32671222067842
10g95um,d,爱辉路49号,121.4556872693537,31.328061326206825
10g95uq,d,安达路5号,121.49567462610699,31.36343601346517
10g95ur,d,白杨村,121.39646960498253,31.342333684720895
10g95us,d,班溪路24弄,121.4957990034127,31.37044598003142
10g95uu,d,宝安公路332号,121.41832293620229,31.366847468561367
10g95ut,d,宝安公路88号,121.42716100837553,31.37125397758
10g95uv,d,宝城二村,121.4894850551887,31.40912440350154
10g95uw,d,宝荻路516号,121.3963708460035,31.360909044507494
10g95ux,d,宝荻路535弄,121.39559609543336,31.360905847241135
10g95uy,d,宝东路41号,121.50302288112873,31.39564543474079
10g95uz,d,宝钢二村,121.4841915298065,31.404161154917627
10g95v1,d,宝钢七村,121.48285922817934,31.409067215120675
10g95v0,d,宝钢三村,121.4809208201793,31.403023386405867
10g95v2,d,宝钢十一村,121.484674460705,31.410465693518272
10g95v3,d,宝菊路377号,121.36331917754757,31.349086194046592
10g95v7,d,宝林八村,121.49399782407565,31.406780128701847
10g95v4,d,宝林二村,121.48767677730542,31.400815975195577
10g95v8,d,宝林九村,121.49914577389768,31.404077792406994
10g95v6,d,宝林六村,121.4989073582146,31.402528818234337
10g95v9,d,宝林路277号,121.48646470435183,31.401255756145495
10g95v5,d,宝林四村,121.49130159688193,31.404967321876196
10g95va,d,宝祁路399号,121.34913651077272,31.303111034653426
10g95ve,d,宝山八村,121.494580316199,31.395829314633787
10g95vb,d,宝山二村,121.50010861526695,31.39358067369903
10g95vf,d,宝山九村,121.49699561713128,31.399993947097766
10g95vd,d,宝山七村,121.49875768847131,31.39697156239494
10g95vc,d,宝山三村,121.49688757742307,31.393681769752472
10g95vg,d,宝山十村,121.4918075855732,31.397174845192698
10g95vi,d,宝杨路158号,121.49997269459591,31.401928516259087
10g95vj,d,宝杨路1800号,121.47538671103236,31.39266862240394
10g95vk,d,宝杨路1850号,121.47620099441981,31.391944991023223
10g95vl,d,宝杨路1900弄,121.47381765848976,31.391155113061547
10g95vm,d,宝杨路1941弄,121.4718475101228,31.394382748340814
10g95vo,d,宝杨路2000号,121.47108200606431,31.3910156899226
10g95vp,d,宝杨路2020号,121.46471331995052,31.387696065900634
10g95vq,d,宝杨路3088号,121.44329717945735,31.37606272570578
10g95vr,d,宝杨路3090号,121.4441845111181,31.375777936376014
10g95vs,d,宝杨路3184弄,121.44018186823224,31.374548261876537
10g95vt,d,宝杨路3256弄,121.43780845727831,31.372017293361374
10g95vu,d,宝杨路3323号,121.4341227117221,31.37333598159137
10g95vn,d,宝杨路853弄,121.48516769215856,31.399400067354737
10g95vv,d,北安路45号,121.42804917484406,31.419383866890147
10g95vw,d,北宗村,121.40334875164386,31.387832227462905
10g95vx,d,采江路8弄,121.48535430852576,31.41451694285413
10g95vy,d,采江路9弄,121.48361392366914,31.413328251696935
10g95vz,d,蔡家弄村,121.36579434362599,31.373058908832764
10g95x3,d,场北路39弄,121.43634362896515,31.334577017697704
10g95x4,d,场北路551弄,121.42693418321417,31.332664933042796
10g95x5,d,场北路704号,121.42526205423636,31.33205082488989
10g95x6,d,场联路188号,121.41024774381889,31.306567719863377
10g95x7,d,场南村,121.41578201373495,31.289743785090824
10g95x8,d,场中路3658弄,121.42641181967132,31.302090528247344
10g95x9,d,场中路4079弄,121.41476321295531,31.304468786165526
10g95xa,d,场中路4098弄,121.4150714155726,31.301125786568107
10g95xb,d,陈川路555弄,121.332931561471,31.47828423746437
10g95xc,d,陈巷村,121.47399387730287,31.376549141703148
10g95xd,d,城西二村,121.43415720732911,31.393663186792537
10g95xe,d,城银路1号,121.36098544621807,31.311870229825587
10g95xf,d,城银路525号,121.35095668308855,31.313554887529794
10g95xg,d,城银路655弄,121.34926354159772,31.31597867417454
10g95xh,d,城银路700号,121.34687588704794,31.314264524252216
10g95xi,d,川念路58号,121.37689166493854,31.482113659518955
10g95xj,d,春和路406号,121.40844128908941,31.408969674964975
10g95xk,d,春雷路136弄,121.43394163342026,31.404765513896066
10g95xl,d,春雷路331弄,121.43585802730844,31.409485420978314
10g95xm,d,春雷路332弄,121.43269003502664,31.41012947730378
10g95xn,d,春雷路354弄,121.43343379766009,31.41161210167311
10g95xo,d,大华二路268号,121.41396322355325,31.272711289848747
10g95xp,d,大华路455弄,121.41562849912978,31.27107134346052
10g95xq,d,大华路600号,121.41638261089054,31.281385507004593
10g95xr,d,大华路781弄,121.4154587817554,31.27425076458643
10g95xs,d,大华路988弄,121.41311537279341,31.27838408134502
10g95xt,d,大康路632号,121.426220477508,31.321852932576544
10g95xu,d,大康路829号,121.41659627983458,31.3291458963005
10g95xv,d,大康路891弄,121.42307866517274,31.330240538156435
10g95xw,d,大陆村,121.38339817325186,31.34864671616081
10g95y2,d,德都路108号,121.42300476372726,31.416311208841513
10g95y3,d,德都路165弄,121.42646439815981,31.409015810440614
10g95y4,d,德都路168弄,121.42481016061134,31.4095309815744
10g95xy,d,德都路18号,121.42814189884344,31.40277879753171
10g95y5,d,德都路218弄,121.42319416366779,31.411406525280775
10g95y6,d,德都路269弄,121.42526840562898,31.411485493879624
10g95xz,d,德都路28弄,121.42544813252047,31.40317664122451
10g95y7,d,德都路399弄,121.42375226150595,31.419807085555117
10g95xx,d,德都路4号,121.42391418975143,31.41426395188618
10g95y0,d,德都路58弄,121.42701967672174,31.404789374161737
10g95y1,d,德都路88弄,121.42517694696235,31.406300124921813
10g95y8,d,电台路568弄,121.39146348186974,31.35615353820949
10g95y9,d,电台路599弄,121.39208791741214,31.356697795646063
10g95ya,d,东方红村,121.40375068077178,31.279430183917345
10g95yb,d,东街村,121.43766235868648,31.382353865736082
10g95yd,d,东林路395弄,121.49283774258534,31.40862991310969
10g95yc,d,东林路84号,121.49630129089019,31.403894955211207
10g95ye,d,东南弄村,121.3503656788692,31.412382764249248
10g95yf,d,东升路6号,121.33235091373801,31.496600326913526
10g95yg,d,东太路260弄,121.36449508665784,31.384837962691833
10g95yh,d,段泾村,121.3963604202198,31.42138338479544
10g95yi,d,段泾路32号,121.40133780166794,31.41976641186673
10g95yj,d,鄂尔多斯路67弄,121.39047263031789,31.29508646402548
10g95yk,d,鄂尔多斯路91弄,121.39064228381713,31.29523198122929
10g95yl,d,鄂尔多斯路98弄,121.39116437275132,31.29572023667037
10g95ym,d,二纺老工房,121.48428399806818,31.36646885396223
10g95yn,d,帆远路55弄,121.39884744289327,31.28022481775464
10g95yo,d,繁荣村,121.3614657337331,31.40816209230185
10g95yp,d,丰皓路138弄,121.39459650362902,31.305095674130683
10g95yq,d,丰皓路633弄,121.3901743692719,31.304984814058454
10g95yr,d,丰皓路658弄,121.3890676143169,31.306440060684146
10g95ys,d,丰明村,121.38005980514896,31.303818427245723
10g95yt,d,丰收村,121.36823723957419,31.309687727050218
10g95yu,d,丰翔路1675号,121.34492256986317,31.30848258903034
10g95yv,d,丰翔路2000号,121.3406043367729,31.304754955663203
10g95yw,d,葑村村,121.37123715542143,31.316566774612195
10g95yx,d,冯江巷36号,121.42191239973786,31.36918000503529
10g95yy,d,抚远路2588号,121.35293204037636,31.42935432725036
10g95yz,d,富锦路2207号,121.36143404295655,31.382582262366245
10g95z0,d,富锦路5278弄,121.36168076447923,31.382548350855057
10g95z1,d,富联二路177弄,121.40769235267841,31.370738834108923
10g95z4,d,富联路1188号,121.4003394821681,31.372623592944674
10g95z3,d,富联路128弄,121.41027688957537,31.353705184661965
10g95z2,d,富联路39号,121.41417703299994,31.35217257469702
10g95z5,d,富南路199弄,121.36623690369842,31.389766618621135
10g95z6,d,高境路477弄,121.47206271124332,31.3236080233527
10g95z7,d,高逸路110弄,121.4888784297897,31.325661213987015
10g95z8,d,高逸路168号,121.48788817327966,31.32537534715312
10g95z9,d,高逸路201弄,121.48949231605417,31.325237450996173
10g95za,d,高跃路133弄,121.47193955977639,31.318173943918033
10g95zb,d,高跃路176号,121.4734430871226,31.32008344531811
10g95zd,d,革新路10号,121.45517491879896,31.33892235944925
10g95ze,d,革新路11号,121.45510377368196,31.33886653972612
10g95zf,d,革新路16号,121.4551656435937,31.338839277501894
10g95zg,d,革新路20号,121.45509138203566,31.338515028195957
10g95zc,d,革新路7号,121.45579850838178,31.33897155634637
10g95zh,d,工业路518号,121.35791453354702,31.311512511814048
10g95zo,d,共富二村,121.43196498615184,31.350375844608926
10g95zi,d,共富路156弄,121.43144840947151,31.34962353617705
10g95zj,d,共富路183弄,121.43097784609796,31.350989601499332
10g95zk,d,共富路351弄,121.42451023765578,31.350302239678943
10g95zl,d,共富路518弄,121.42392223300672,31.348217500865704
10g95zm,d,共富路569弄,121.41903102066874,31.34840006656455
10g95zp,d,共富四村,121.4248886818442,31.349679247440825
10g95zn,d,共富一村,121.4331442407557,31.350631861570495
10g95zu,d,共和八村,121.45484549851744,31.323419371472877
10g95zq,d,共和二村,121.46138441071744,31.321654113553826
10g95zr,d,共和三村,121.458708022479,31.321993173538935
10g95zs,d,共和四村,121.45528462183175,31.320208542175873
10g95zt,d,共和五村,121.46411467637525,31.324300678689895
10g95zv,d,共和新路4701号,121.4522837261542,31.318317093365483
10g95zw,d,共和新路4703弄,121.44867910000583,31.319114429797388
10g95zx,d,共和新路5000弄,121.44399974921384,31.322534416779014
10g95zy,d,共和新路5199号,121.4452946748207,31.325639594157188
10g95zz,d,共和新路5288号,121.44150630714073,31.32745058729402
10g9600,d,共和新路5308弄,121.44245481718667,31.327980607622905
10g9601,d,共江路1169号,121.4446535258845,31.328504235043027
10g9602,d,共江路749号,121.44682079061384,31.32783331203636
10g9603,d,共康东路161号,121.4607135056354,31.32332396049881
10g9605,d,共康路169弄,121.44203293063862,31.32330349867449
10g9606,d,共康路421号,121.4384423456616,31.32229412970427
10g9607,d,共康路828弄,121.43767178243519,31.321219544380643
10g9604,d,共康路98号,121.4433081708353,31.321035895069738
10g9608,d,共康七村,121.43639177450584,31.327498323569976
10g9609,d,共悦路218号,121.41394175959297,31.4068945769955
10g960c,d,顾北东路155弄,121.41200835522008,31.36089778628054
10g960d,d,顾北东路188弄,121.41301688563009,31.3587980806486
10g960a,d,顾北东路39弄,121.41528538203127,31.362330754694085
10g960e,d,顾北东路501弄,121.40730012227978,31.358345548609417
10g960b,d,顾北东路88弄,121.41637877210601,31.360416016752215
10g960f,d,顾陈路231弄,121.39389517118951,31.34140085786639
10g960g,d,顾陈路388号,121.3891472093539,31.33651161260169
10g960h,d,顾陈路455弄,121.39018870873592,31.338316459492695
10g960i,d,顾陈路488号,121.37985059160425,31.333265192574142
10g960j,d,广福村,121.33938540584498,31.348527465306685
10g960k,d,归王村,121.35645225476739,31.358580799668854
10g960m,d,国权北路290弄,121.49461961039631,31.317273120720355
10g960n,d,国权北路351弄,121.49631126628988,31.31522401247906
10g960o,d,国权北路579号,121.49561482997353,31.323569732500697
10g960l,d,国权北路61号,121.49618861983912,31.31171508426348
10g960p,d,国权北路639号,121.4961053062662,31.32759571283831
10g960q,d,国权北路828弄,121.49197127927502,31.329265646491983
10g960r,d,国权北路829弄,121.49719234249906,31.327770027074894
10g960w,d,海滨八村,121.4998123673994,31.38251915599463
10g960s,d,海滨二村,121.491236059954,31.381278997722553
10g960v,d,海滨七村,121.49721546438323,31.383920071119753
10g960t,d,海滨四村,121.49458834232651,31.383781412057512
10g960u,d,海滨五村,121.49660767406782,31.382710444642022
10g960x,d,海红村,121.37826053065974,31.464084054818013
10g9610,d,海江二村,121.50280875151068,31.393101406866307
10g9611,d,海江路667弄,121.48934312701232,31.397816326281195
10g960y,d,海江新村,121.50391064985219,31.389474654763433
10g960z,d,海江一村,121.50543782301287,31.388406557811635
10g9612,d,海陆村,121.38800241732869,31.461110266518578
10g9613,d,涵青路100弄,121.40249846224455,31.332715190812465
10g9614,d,涵青路398弄,121.39652409635865,31.332937408339465
10g9615,d,韩家湾76弄,121.34541641673056,31.411358461037263
10g961e,d,何家湾路111弄,121.49293435364683,31.330952739986845
10g961d,d,何家湾路49号,121.49418936697336,31.32984221282976
10g961f,d,鹤岗路288号,121.49054034899885,31.363610328800004
10g961g,d,鹤岗路301号,121.49037364049155,31.363957669844993
10g961h,d,鹤林路58弄,121.40425681763534,31.446846784725885
10g961k,d,恒高路127弄,121.46867888506367,31.326193519528665
10g961l,d,恒高路128弄,121.47031010701096,31.323643303121507
10g961i,d,恒高路56弄,121.47130243049884,31.32554175115982
10g961j,d,恒高路83弄,121.47146578733543,31.32596260664345
10g961n,d,红林路528弄,121.42007827545545,31.363450215493327
10g961o,d,红林路589弄,121.41921771388155,31.36232815944102
10g961m,d,红林路99弄,121.43236794499377,31.366833047849752
10g961q,d,呼兰路455号,121.45321987898156,31.346551394935418
10g961r,d,呼兰路515弄,121.45008693572366,31.346956634645867
10g961s,d,呼兰路519号,121.45106396641224,31.345023203063082
10g961t,d,呼兰路525号,121.44976404258524,31.344671927454346
10g961u,d,呼兰路555号,121.44873367393396,31.34452258473594
10g961v,d,呼兰路653号,121.44611483811994,31.343187568978838
10g961w,d,呼兰路911弄,121.43931290693712,31.343800929190145
10g961p,d,呼兰路92号,121.4395192434017,31.340735086870357
10g961x,d,呼兰西路100号,121.4329524757753,31.338728813914365
10g9626,d,呼玛二村,121.44662345795474,31.340975330940886
10g961y,d,呼玛路376号,121.4417659914341,31.330685325663378
10g961z,d,呼玛路537号,121.4494477654239,31.339706321393297
10g9620,d,呼玛路547号,121.44888920921507,31.339705233680338
10g9621,d,呼玛路549号,121.44934256782004,31.339535223994115
10g9622,d,呼玛路599号,121.44156819078535,31.3392175173778
10g9623,d,呼玛路682弄,121.44616801027598,31.33814809374612
10g9624,d,呼玛路792号,121.44257092334783,31.33622966837658
10g9625,d,呼玛路818号,121.44182065393694,31.335812086531202
10g9627,d,呼玛三村,121.44146563023322,31.339310424059256
10g9628,d,呼玛四村,121.44523409528264,31.344053465005434
10g9629,d,呼玛五村,121.43893340006603,31.341199946524945
10g962a,d,胡庄村,121.42068820511575,31.347763530026633
10g962f,d,虎林路135弄,121.46025834129536,31.3328774014849
10g962g,d,虎林路159弄,121.46053537583369,31.330803939398596
10g962c,d,虎林路18弄,121.45775549538058,31.33193934615905
10g962b,d,虎林路1号,121.45426401509008,31.34307628632446
10g962h,d,虎林路329弄,121.45549340157547,31.341641774669448
10g962i,d,虎林路435弄,121.45860739223983,31.33665311244465
10g962j,d,虎林路502号,121.45705097874753,31.33827351267665
10g962k,d,虎林路510号,121.45660060142427,31.339096244839645
10g962l,d,虎林路518弄,121.4561506253218,31.339967437200578
10g962d,d,虎林路51号,121.46017962480504,31.32726859350277
10g962m,d,虎林路688号,121.45077384486285,31.344344781265537
10g962n,d,虎林路800弄,121.45354605788103,31.343818795146543
10g962o,d,虎林路890号,121.45164981185762,31.347844520126174
10g962p,d,虎林路948号,121.45163282619319,31.349000390033865
10g962e,d,虎林路99弄,121.46225028022792,31.328623197679114
10g962q,d,沪联路796号,121.3684992285348,31.36129876870754
10g962r,d,沪联路818号,121.35741202181622,31.358460286564835
10g962s,d,沪太路1771弄,121.42207674009433,31.287165989428253
10g962t,d,沪太路1995号,121.41607691088122,31.29441870713274
10g962u,d,沪太路2009号,121.41470844179939,31.29853798269287
10g962v,d,沪太路2588弄,121.40891406568856,31.310251647872914
10g962w,d,沪太路2999弄,121.41041636395448,31.315789566429107
10g962x,d,沪太路3100号,121.40758614794747,31.315533774418597
10g962y,d,沪太路3559号,121.40828796822859,31.321446505413213
10g962z,d,沪太路3611弄,121.40837611087034,31.325344854413157
10g9630,d,沪太路3633号,121.40860341367218,31.326781981213305
10g9631,d,沪太路3717弄,121.40070092215672,31.344327316832015
10g9632,d,沪太路4099弄,121.40619970182345,31.332915295360003
10g9633,d,沪太路4201弄,121.4035566552678,31.33627177643983
10g9634,d,沪太路5355弄,121.37834461108926,31.359355221986263
10g9635,d,沪太路5551号,121.3748191895808,31.362698554426075
10g9636,d,沪太路5553号,121.37415932239041,31.363620020498082
10g9637,d,沪太路5557号,121.37316889305906,31.364254747461374
10g9638,d,沪太路6545弄,121.36111443147065,31.389405469737422
10g9639,d,沪太路9377号,121.31684282856133,31.48196179053073
10g963c,d,沪太支路1470号,121.41525738796243,31.29975684221567
10g963d,d,沪太支路1562号,121.41445144208662,31.299599443513898
10g963b,d,沪太支路188弄,121.42261969752391,31.2858059926894
10g963a,d,沪太支路30弄,121.41472221147838,31.29964385761785
10g963e,d,花园宅路52弄,121.42561310147127,31.329284846952678
10g963f,d,华浜新村,121.49381267045769,31.34880190890427
10g963k,d,华灵路1180弄,121.42032740866718,31.278898358647215
10g963l,d,华灵路1225弄,121.4192291440875,31.281561887003235
10g963m,d,华灵路1351弄,121.41506555820538,31.281023594723635
10g963n,d,华灵路1895弄,121.40267965242852,31.282208536669128
10g963o,d,华灵路1900弄,121.40465596771072,31.277668574314827
10g963g,d,华灵路198弄,121.42175939122009,31.271830956841782
10g963h,d,华灵路510弄,121.42195761482114,31.273658740797003
10g963i,d,华灵路591弄,121.42361350348146,31.27502889652232
10g963j,d,华灵路680弄,121.42246265295489,31.279196676441384
10g963q,d,华秋路349弄,121.37936132398984,31.32560644139996
10g963p,d,华秋路58弄,121.38047756747011,31.319524659401587
10g963r,d,化成路366弄,121.499520947178,31.37942963269692
10g9647,d,环镇北路1118弄,121.39080788773751,31.307488193084538
10g9648,d,环镇北路1366弄,121.38589898511498,31.30799090947723
10g963s,d,环镇北路211弄,121.41022437988087,31.308582122985314
10g963t,d,环镇北路300弄,121.4083115863369,31.30811095420145
10g963u,d,环镇北路322号,121.40823358556865,31.30786663887499
10g963v,d,环镇北路323弄,121.40981094968635,31.308377227335267
10g963w,d,环镇北路400弄,121.40764718952005,31.306952614379377
10g963x,d,环镇北路417弄,121.40742807305834,31.309401088404137
10g963y,d,环镇北路500弄,121.4047704617788,31.3077715205945
10g963z,d,环镇北路509弄,121.4061089158202,31.308512343272476
10g9640,d,环镇北路543号,121.40557687483494,31.30832346501406
10g9641,d,环镇北路600弄,121.40242957532962,31.30494475903286
10g9642,d,环镇北路655弄,121.4048096284528,31.309839278207882
10g9643,d,环镇北路699弄,121.40211282725906,31.309497964837004
10g9644,d,环镇北路700弄,121.40308929561165,31.30694179724579
10g9645,d,环镇北路735号,121.40201830820757,31.307773695402695
10g9646,d,环镇南路858弄,121.39675588086791,31.29684082125338
10g9649,d,吉浦路521号,121.49057272085736,31.313098045767774
10g964a,d,吉浦路615弄,121.49319423095994,31.316967201425275
10g964g,d,集贤路1301弄,121.35266602592976,31.42383474373818
10g964b,d,集贤路138弄,121.35562661115242,31.416122834997015
10g964c,d,集贤路151弄,121.35573590580073,31.417098474812985
10g964d,d,集贤路501弄,121.3538919505814,31.42195554487992
10g964e,d,集贤路700弄,121.35042670273661,31.428212061639783
10g964f,d,集贤路800弄,121.35035437631238,31.423959455353373
10g964h,d,江杨北路57号,121.46043807624218,31.356201482178523
10g964i,d,江杨村,121.46654819681262,31.320837222512118
10g964k,d,江杨南路1098号,121.46580784834562,31.326558125269088
10g964l,d,江杨南路1505号,121.46731496646495,31.334426234156883
10g964m,d,江杨南路1518号,121.46607640392297,31.334459421546825
10g964n,d,江杨南路1646号,121.46586901124863,31.337128762388573
10g964o,d,江杨南路1992号,121.46814145756545,31.310308279345307
10g964p,d,江杨南路2058号,121.46167601175297,31.342373082613324
10g964q,d,江杨南路2500弄,121.45718886768967,31.350733592577928
10g964r,d,江杨南路2550弄,121.46061779290117,31.351162841323646
10g964j,d,江杨南路982号,121.46821262259195,31.310435793827377
10g964s,d,蒋巷街54弄,121.34800115775938,31.412523491076662
10g964t,d,教育路555弄,121.39520376736613,31.357116314645413
10g964u,d,界华路100弄,121.42317711781398,31.302079677522485
10g964v,d,锦富路298号,121.40588040955757,31.40177290254515
10g964w,d,锦乐路947号,121.41097865858386,31.416143161683586
10g964z,d,锦秋路1360号,121.37792026307588,31.31808660024087
10g9650,d,锦秋路1456弄,121.37706413891064,31.317995634487065
10g9651,d,锦秋路1518号,121.3755101567963,31.317987807214806
10g9652,d,锦秋路1526号,121.37546589070321,31.317873396837268
10g9653,d,锦秋路1588弄,121.37507439504185,31.316632856374042
10g9654,d,锦秋路1688号,121.37165302077265,31.316478993023868
10g964x,d,锦秋路36弄,121.40534608965761,31.319697501148514
10g964y,d,锦秋路699弄,121.39074300946699,31.325346374945806
10g9655,d,菊联路68弄,121.36779914851262,31.35023357894709
10g9659,d,菊泉街1280弄,121.37180685032867,31.360614588467925
10g965a,d,菊泉街1346弄,121.3697244052686,31.363205595820126
10g965b,d,菊泉街1398弄,121.36957784995482,31.362959250678994
10g965c,d,菊泉街1969弄,121.37185120031523,31.36393563224918
10g9656,d,菊泉街39弄,121.37843732180905,31.351624450491492
10g9657,d,菊泉街55弄,121.3780092587918,31.35298662396818
10g9658,d,菊泉街577弄,121.37413847067309,31.357342786301032
10g965d,d,菊盛路814号,121.36911511543396,31.359916790130043
10g965e,d,菊盛路851弄,121.36844621516921,31.35903728790255
10g965f,d,菊盛路952号,121.36847522767049,31.36297022290538
10g965h,d,菊太路1221弄,121.35669538047979,31.34952684185644
10g965g,d,菊太路999弄,121.36095917245292,31.35117103130111
10g965i,d,聚丰园路105弄,121.38476037148318,31.31763433582096
10g965j,d,聚丰园路388弄,121.37854916535188,31.313139726006277
10g965k,d,聚丰园路439弄,121.37654853876876,31.314612021075533
10g965l,d,聚丰园路500弄,121.37788159164286,31.31144105959367
10g965m,d,聚丰园路628弄,121.37402142073317,31.31123218639558
10g965n,d,聚丰园路669弄,121.37365666068122,31.314209116663832
10g965o,d,聚源桥村,121.38541998038663,31.439373828927238
10g965p,d,康家村,121.431684484916,31.316444575958236
10g965q,d,康文路330弄,121.41937963813812,31.334310786153942
10g965s,d,克东路16号,121.46027778058384,31.40599288503408
10g965r,d,克东路9号,121.46095603080545,31.40590545388873
10g965t,d,兰岗路757号,121.45336185448498,31.375236565928546
10g965u,d,莲花山路517弄,121.44547926303717,31.361740351104743
10g965v,d,联泰路158弄,121.42779880946983,31.346753892970423
10g965w,d,联泰路518弄,121.42453177860081,31.350525455628183
10g965x,d,联西村,121.39779256282792,31.30553903010327
10g965y,d,联谊路501弄,121.42758788499093,31.34535776249997
10g965z,d,联长路80号,121.46468023890894,31.337018587154244
10g9660,d,临江新村,121.48947892458123,31.411351484510195
10g9661,d,岭南路1053号,121.4555998766503,31.320880579263676
10g9662,d,岭南路1118弄,121.45680964157438,31.322362507297658
10g9663,d,岭南路1288弄,121.45665458661455,31.324480910630037
10g9664,d,刘场路600号,121.42885695972446,31.324816392403438
10g9665,d,陆翔路1018弄,121.36129913531512,31.36064066303656
10g9666,d,罗北路688号,121.37934595147269,31.454259871689764
10g9669,d,罗东路501弄,121.37520777707971,31.431918532000513
10g9667,d,罗东路50弄,121.37802575071802,31.417373617529282
10g9668,d,罗东路52弄,121.37592352600659,31.41899081469081
10g966a,d,罗芬路98弄,121.35830695695611,31.392049733714085
10g966b,d,罗太路869弄,121.33945346680045,31.427487607567713
10g966e,d,罗溪路1000弄,121.34350274985769,31.42359527777708
10g966f,d,罗溪路1001弄,121.34342317075512,31.424982426740915
10g966g,d,罗溪路1079弄,121.34205961916118,31.427669512386988
10g966h,d,罗溪路1185弄,121.3412756415655,31.430043746144786
10g966c,d,罗溪路121号,121.35043681966415,31.41305037889408
10g966d,d,罗溪路671弄,121.34716485640227,31.41891716751135
10g966i,d,罗贤路388弄,121.35124846374187,31.391072765693565
10g966j,d,罗迎路588弄,121.3557596550217,31.405352687889245
10g966k,d,洛场路132号,121.41002273465656,31.302252253548136
10g966l,d,洛场路250弄,121.40877896846723,31.302122389407238
10g966n,d,马泾桥二村,121.41494234491056,31.418071431466654
10g966o,d,马泾桥三村,121.41402027186813,31.418431479313206
10g966m,d,马泾桥一村,121.41724701485519,31.419106482355755
10g966p,d,毛家路409弄,121.3869687383853,31.42653011356045
10g966q,d,毛家路600弄,121.3842772182946,31.432624625988527
10g966r,d,茂盛村,121.39939698449464,31.41034292537298
10g966s,d,梅林路768号,121.43613524914038,31.368892606960316
10g966t,d,梅园村,121.42000081830773,31.415071641769284
10g966u,d,湄浦村,121.42592793770041,31.387404408238428
10g966v,d,湄浦路280号,121.4610272335884,31.40516872086664
10g966w,d,美艾路198弄,121.36223592387066,31.39410936675123
10g966x,d,美安路628弄,121.3425692564025,31.386874997169322
10g966z,d,美丹路1033弄,121.33753495477812,31.3922768200545
10g966y,d,美丹路188弄,121.35177937861253,31.403653913661156
10g9670,d,美健路200号,121.33402620966957,31.39017663179674
10g9673,d,美平路1060弄,121.33608180173529,31.38727242223062
10g9671,d,美平路428弄,121.34549054442009,31.38958867799125
10g9672,d,美平路745弄,121.33926736492857,31.38757751456349
10g9676,d,密山二村,121.48689826941468,31.403071911511947
10g9674,d,密山路500弄,121.48168534326885,31.40157946094711
10g9675,d,密山新村,121.48180352520235,31.40128889758211
10g95vh,d,苗圃路680号,121.36168291911395,31.420911359097257
10g9677,d,漠河路600弄,121.46944880916546,31.406734707196403
10g967a,d,牡丹江路1211号,121.48775925632879,31.394030923423983
10g967b,d,牡丹江路1242弄,121.48777390401649,31.39085942959706
10g967c,d,牡丹江路1538号,121.48390365551866,31.40031989790482
10g967d,d,牡丹江路1688号,121.48238681661398,31.40324354829846
10g9678,d,牡丹江路285弄,121.49794896039994,31.38070157794427
10g9679,d,牡丹江路375弄,121.49553539927135,31.384962943301577
10g967f,d,南陈路278弄,121.3944507875208,31.30991605852485
10g967g,d,南陈路279弄,121.39877981764926,31.309102694804707
10g967e,d,南陈路98号,121.39673815412458,31.303485380528745
10g967h,d,南大村,121.38394734527284,31.299803270692326
10g967q,d,南大路126弄,121.40294248432191,31.299556796922484
10g967j,d,南大路12弄,121.40975792836728,31.29965239709461
10g967r,d,南大路138弄,121.4023786592536,31.300260629481937
10g967s,d,南大路146弄,121.40207701481627,31.300908977763136
10g967k,d,南大路14弄,121.40928699376609,31.30010438162125
10g967t,d,南大路158弄,121.40198761347918,31.30238431762499
10g967l,d,南大路16弄,121.40912455790227,31.30020786447369
10g967m,d,南大路17号,121.4073761573245,31.29890126399844
10g967u,d,南大路180弄,121.39927334477737,31.30055080879777
10g967v,d,南大路190弄,121.39878529199319,31.300534331468857
10g967n,d,南大路19号,121.40678942013865,31.298504022382286
10g967w,d,南大路204号,121.39754421550231,31.29977751514659
10g967x,d,南大路363号,121.38922345034152,31.29989779745597
10g967o,d,南大路76弄,121.40566844391739,31.299808161313482
10g967p,d,南大路86弄,121.4061837041467,31.299656072032626
10g967i,d,南大路8弄,121.41110999844597,31.29972738547994
10g967y,d,南东路20弄,121.36252345710238,31.384726281855013
10g967z,d,南卫路38弄,121.35979808908327,31.384703282824873
10g9680,d,南长路111弄,121.36685288138715,31.38465394778165
10g9681,d,南周村,121.34033547115008,31.377726699519354
10g9682,d,年吉路650弄,121.3344804336594,31.399375941832268
10g9683,d,潘泾路307号,121.40384795789774,31.35626296402336
10g9684,d,潘泾路3998号,121.35229858843924,31.450749033296237
10g968d,d,盘古路1848号,121.4477810329791,31.395432637884728
10g9685,d,盘古路345号,121.48478521661264,31.408905532111067
10g9686,d,盘古路388弄,121.48283582019387,31.407736769258307
10g9687,d,盘古路500号,121.47935133509772,31.406760939855356
10g9688,d,盘古路601号,121.47457772237247,31.40559626467605
10g9689,d,盘古路689弄,121.4721163185687,31.40670587579759
10g968a,d,盘古路712弄,121.47055325571569,31.402987035828847
10g968b,d,盘古路895弄,121.46327290802037,31.402546447051197
10g968c,d,盘古路927弄,121.46206987196739,31.401387714837437
10g968e,d,炮台村,121.49648077427112,31.387179439876107
10g968h,d,祁北东路361弄,121.34661404017339,31.421076272747047
10g968f,d,祁北东路68号,121.35912208693412,31.424694716051253
10g968g,d,祁北东路85弄,121.35307084720822,31.42480895134377
10g968i,d,祁华路218弄,121.37792118352385,31.32344943660389
10g968j,d,祁华路219弄,121.3772230846236,31.322200090214707
10g968k,d,祁华路235号,121.38066726883633,31.32290309832432
10g968l,d,祁华路300弄,121.37100897213438,31.32267833641167
10g968m,d,祁华路655弄,121.37228982166806,31.320456567409458
10g968n,d,祁连山路2500弄,121.3805279536239,31.313574070529217
10g968o,d,祁连山路2555弄,121.38146186526772,31.313047592968847
10g968p,d,祁连山路2828弄,121.38049379043773,31.317243675648733
10g968r,d,祁真路160弄,121.37832880507523,31.32131947434521
10g968s,d,祁真路199弄,121.37741632897394,31.320726793668495
10g968q,d,祁真路36弄,121.38067750097599,31.32152610368937
10g968t,d,前三营房,121.50025893191173,31.385796154351247
10g968u,d,钱潘村,121.39995495297693,31.43190638682781
10g968v,d,乾溪路101弄,121.41249854648807,31.30475715378889
10g968w,d,乾溪路150弄,121.41054707727005,31.304093859823194
10g968x,d,乾溪路151弄,121.4119765833095,31.304003541902183
10g968y,d,乾溪路200弄,121.41153475254202,31.304212466796105
10g968z,d,乾溪路250弄,121.4089005639906,31.303437972786593
10g9690,d,乾溪路251弄,121.4100491875272,31.305856045527793
10g9691,d,羌家村,121.38606926653405,31.35751052513428
10g9692,d,勤丰村,121.39252237292847,31.414818300836707
10g9696,d,庆安二村,121.43684743294625,31.406139306297003
10g9693,d,庆安路51弄,121.42732197527569,31.409938493221745
10g9694,d,庆安路77号,121.42791614220455,31.411171785214766
10g9695,d,庆安一村,121.43570307286768,31.40775282590692
10g9697,d,邱家弄,121.34395510171949,31.416480156303585
10g9698,d,瑞丰路456弄,121.37529928575276,31.31862006955491
10g9699,d,三门路485弄,121.49419898771839,31.31402803295167
10g969a,d,三门路555弄,121.4893553398111,31.311797847251576
10g969b,d,三门路559弄,121.48862615496068,31.311747420788823
10g969c,d,三泉路1859弄,121.43625073802647,31.329997719531995
10g969d,d,三星村,121.35077546903253,31.310872867227964
10g969e,d,沙浦路311弄,121.38713101600676,31.355470322112286
10g969f,d,山连路168号,121.35675622961868,31.30528389642242
10g969j,d,上大路1288弄,121.38441302850478,31.308745308676922
10g969g,d,上大路128弄,121.40689987108351,31.312053477548815
10g969k,d,上大路1329弄,121.38288680053014,31.31170726888738
10g969h,d,上大路132号,121.39434657159305,31.31142070189628
10g969i,d,上大路688号,121.39092362315426,31.310971956925947
10g969l,d,韶山路245弄,121.3647759262771,31.35887168578921
10g969m,d,韶山路348弄,121.36574569412105,31.36277725238172
10g969n,d,韶山路418弄,121.36560043781319,31.36544966704402
10g969o,d,申浦路288弄,121.41331215458183,31.4256363006436
10g969p,d,沈家桥村,121.38996778300293,31.450632416169242
10g969q,d,沈巷村,121.41148946807918,31.41951977139025
10g969r,d,沈杨村,121.37269162943127,31.330695919119222
10g969s,d,盛桥三村,121.40104203815343,31.450281065634496
10g969t,d,盛桥四村,121.40467723961187,31.44906460998421
10g969u,d,盛星村,121.38548534313823,31.4491363692715
10g969v,d,盛宅村,121.41037475679818,31.349155336692377
10g969w,d,石驳岸路28弄,121.34437257770921,31.415159314699824
10g969x,d,石太路2160号,121.36068165392106,31.435141395507078
10g969y,d,石太路2575号,121.35183158160348,31.43331641045997
10g969z,d,石太路2605号,121.3505339538822,31.4333330504186
10g96a0,d,石太路2888号,121.35011683466693,31.431938804315113
10g96a1,d,石太路3121号,121.34194401806738,31.430165076817772
10g96a2,d,市台路388号,121.35269437798094,31.315112385522433
10g96a3,d,市台路555弄,121.34926532390973,31.31850874997469
10g96a5,d,市一路153弄,121.34921797278925,31.414333074618032
10g96a6,d,市一路178弄,121.34813777198598,31.416486193342376
10g96a4,d,市一路55号,121.35662227825053,31.418209064469995
10g96a7,d,束里桥村,121.37746160629138,31.41965339047146
10g96a8,d,双城路803弄,121.48529238604766,31.38888535598432
10g96a9,d,双庆路85弄,121.48786487044694,31.38941237295335
10g96ac,d,水产路1468号,121.47838209849945,31.378116829901764
10g96ad,d,水产路2159号,121.43519120602119,31.36328328040272
10g96ae,d,水产路2289号,121.4470672449862,31.367966429772775
10g96af,d,水产路2600弄,121.44228668610009,31.364473585563996
10g96ag,d,水产路2700弄,121.44117701017097,31.360028134967553
10g96aa,d,水产路477号,121.49497632202242,31.388340708255466
10g96ab,d,水产路992弄,121.49277368849022,31.382135516413122
10g96ah,d,水产西路268弄,121.4279175738821,31.35968864613472
10g96ai,d,水产西路729弄,121.41733566561538,31.358202076426522
10g96aj,d,水产西路777弄,121.41561130984722,31.357120033317546
10g96ak,d,水产西路859弄,121.41369375928606,31.355935177234358
10g96al,d,水上新村,121.48779345600227,31.40848222249261
10g96am,d,四元路20弄,121.43481472365319,31.412190046471753
10g96an,d,寺前村,121.48977117498107,31.405450358248817
10g96ao,d,泗东路28号,121.48415427540208,31.367140646377408
10g96ap,d,泗东路37号,121.48414018850715,31.368318501409355
10g96at,d,泗塘八村,121.45722070133917,31.329927000748615
10g96aq,d,泗塘二村,121.45609186328883,31.337151402580325
10g96ar,d,泗塘六村,121.45790637251292,31.332132523561693
10g96as,d,泗塘七村,121.46240119892165,31.33035281381358
10g96au,d,松兰路1068号,121.44393307010998,31.382866956339154
10g96av,d,松兰路1166弄,121.44342761291767,31.385015568524615
10g96aw,d,松兰路198弄,121.45110658218867,31.368068003946075
10g96ax,d,松兰路233弄,121.44882679886342,31.370667311235383
10g96ay,d,松兰路328弄,121.44945432791674,31.373306225243784
10g96az,d,淞宝路155弄,121.50079061885785,31.380490550927597
10g96b0,d,淞宝路91号,121.49878614423548,31.379290786867692
10g96b1,d,淞宝路94弄,121.49872968481266,31.37942504379837
10g96b2,d,淞滨路110弄,121.49476848057698,31.372616033875005
10g96b3,d,淞滨路135号,121.49669837250856,31.374091888500423
10g96b4,d,淞滨路140号,121.49662860266545,31.373381488610896
10g96b5,d,淞滨路150号,121.49653236545318,31.373390106463606
10g96b6,d,淞滨路803弄,121.48834890203112,31.37135592743254
10g96b7,d,淞滨路810弄,121.48919943049796,31.36909593850768
10g96b9,d,淞滨支路120弄,121.48663330147588,31.369620844059753
10g96b8,d,淞滨支路40弄,121.48760722810387,31.368622386159036
10g96ba,d,淞发路500弄,121.4902197579316,31.341957551520096
10g96bb,d,淞发路901弄,121.48713456742892,31.342741247955274
10g96bd,d,淞良路201弄,121.4866892161109,31.343822236080648
10g96bc,d,淞良路99弄,121.49334841055051,31.339340519289514
10g96bh,d,淞南八村,121.4816249349713,31.33481320230752
10g96bf,d,淞南六村,121.48443587621072,31.339778322936706
10g96bj,d,淞南路103号,121.49210746867233,31.340296067842
10g96bk,d,淞南路111弄,121.49365886036985,31.34095837428101
10g96bl,d,淞南路200弄,121.48513193236427,31.33919071943471
10g96bm,d,淞南路301号,121.48936574208987,31.344535269025794
10g96bg,d,淞南七村,121.48168724177134,31.333136758472143
10g96bi,d,淞南十村,121.47264561753613,31.334088758927482
10g96be,d,淞南一村,121.48466613569411,31.342348512921046
10g96bn,d,淞桥东路111号,121.49429178212417,31.37127826539402
10g96bo,d,淞塘路98弄,121.48888630662208,31.334448629056784
10g96bp,d,淞兴路305弄,121.49598213856649,31.372027414010866
10g96bq,d,淞兴路342号,121.49487915715599,31.371036908279144
10g96br,d,淞兴西路102号,121.4910412639906,31.36896736769054
10g96bs,d,淞肇路327号,121.4813110808427,31.343376686805712
10g96bt,d,苏家浜路388弄,121.39146219509591,31.362944321448392
10g96bu,d,苏嘉浜路218弄,121.40918194704244,31.42692830381577
10g96bv,d,绥化路201弄,121.43171998966147,31.407117521336
10g96bw,d,绥化路265弄,121.42774815547355,31.40676612698501
10g96bx,d,绥化路50弄,121.43663708424549,31.40469693535489
10g96by,d,绥化路52弄,121.4341724059771,31.404309775326528
10g96bz,d,塔源路150弄,121.39810753781231,31.446240319090766
10g96c1,d,塔源路258弄,121.39964272848734,31.449057819525308
10g96c0,d,塔源路58弄,121.40265417676146,31.44862813695633
10g96c9,d,泰和路1000号,121.48012470329559,31.368648831620067
10g96ca,d,泰和路1700号,121.44836473712745,31.354855524900586
10g96cb,d,泰和路2008号,121.44033656762825,31.355532006373814
10g96cc,d,泰和路2053号,121.4811422661921,31.369926805691016
10g96c3,d,泰和路245号,121.49490701327602,31.3749774513134
10g96c4,d,泰和路309弄,121.49273891163425,31.375248304792752
10g96c5,d,泰和路318弄,121.49352469901473,31.37303969372523
10g96c6,d,泰和路678弄,121.48800975110603,31.370217628174785
10g96c7,d,泰和路710弄,121.48501267180407,31.37006152148096
10g96c8,d,泰和路717弄,121.48385845917487,31.37354845082282
10g96c2,d,泰和路87号,121.4811866069573,31.369894375528112
10g96cd,d,泰和西路3527弄,121.40003273007989,31.34764761449557
10g96ce,d,泰和支路60号,121.46189460864491,31.362920820906044
10g96cf,d,泰和支路87弄,121.45997923704972,31.35976568742895
10g96cg,d,泰路518号,121.48961475957289,31.40526324670908
10g96ch,d,谭杨村,121.39484426548775,31.374766740750992
10g96ci,d,塘后路285弄,121.50491520976666,31.396458757473397
10g96cj,d,塘南街57号,121.43082244173856,31.419471347511777
10g96ck,d,塘祁路517弄,121.38083372010018,31.327330600507608
10g96cl,d,塘祁路577弄,121.3759064288658,31.325589457212974
10g96cm,d,塘湾村,121.31957804528147,31.49102471552184
10g96cn,d,塘西街397弄,121.34265529327068,31.42202644769556
10g96co,d,天家路99弄,121.3405764264322,31.383418110702475
10g96cp,d,铁城路1555号,121.45146166588576,31.356509960092367
10g96cq,d,铁峰路2000弄,121.45303913510463,31.396135598600907
10g96cs,d,铁峰路2268弄,121.45200344879223,31.400679053547265
10g96cr,d,铁峰路477号,121.47023804085488,31.37205388112324
10g96cu,d,铁力路223号,121.47645176431223,31.374343220899576
10g96cv,d,铁力路2469号,121.46118830751051,31.40323009580725
10g96ct,d,铁力路3号,121.47377149587247,31.368258359658032
10g96cx,d,铁山路55号,121.46784185646575,31.36269559164865
10g96cy,d,铁山路69号,121.46956138064995,31.363836270564075
10g96cw,d,铁山路9号,121.46949954819642,31.360782370726138
10g96cz,d,亭前街27弄,121.34568168082056,31.41267955732371
10g96d0,d,亭前街30号,121.34563183416732,31.413061205438897
10g96d9,d,通河九村,121.44786659104763,31.32719053888285
10g96d1,d,通河路100弄,121.44700985991275,31.333541171221167
10g96d2,d,通河路129弄,121.45172220131086,31.32811991215569
10g96d3,d,通河路254号,121.44850763881077,31.330245424998548
10g96d4,d,通河路438弄,121.44636067075831,31.334184928549085
10g96d5,d,通河路533弄,121.44580059397911,31.337360563346714
10g96d8,d,通河七村,121.45197370706666,31.32935782758459
10g96d6,d,通河三村,121.44462070114857,31.33531656878214
10g96d7,d,通河四村,121.44519159429116,31.330653045943905
10g96da,d,通南路28弄,121.47769705402658,31.33795254536361
10g96dc,d,通南路328弄,121.47097534913941,31.33423304159881
10g96db,d,通南路70号,121.47657202153833,31.337970617589637
10g96de,d,同济路303号,121.48965354452358,31.380787845823875
10g96df,d,同济路333号,121.48762314598108,31.384088854780366
10g96dg,d,同济路343号,121.48620646912163,31.386189782758
10g96dj,d,同济路3509号,121.47064428597052,31.411663277804394
10g96dk,d,同济路3521号,121.46280245721935,31.4178255376378
10g96dd,d,同济路60弄,121.49229059196476,31.369537061257073
10g96dh,d,同济路669弄,121.48198913368488,31.3954618072502
10g96di,d,同济路940号,121.4739649670337,31.399441163512446
10g96dl,d,同济支路199号,121.49126812252857,31.37883937799715
10g96dm,d,同济支路201弄,121.49417082096392,31.379735386939156
10g96dn,d,同泰北路403弄,121.49418112173976,31.38101428611697
10g96do,d,同泰北路520弄,121.49448526264483,31.378566762478748
10g96dp,d,纬地路155号,121.40152661703159,31.325626550048373
10g96ds,d,纬地路375弄,121.39661859589063,31.324872000470425
10g96dq,d,纬地路88弄,121.40388503968914,31.328869238301117
10g96dr,d,纬地路99弄,121.40474826229843,31.324999206219434
10g96h3,d,蕰川路1498弄,121.42524527300316,31.360785401765618
10g96h4,d,蕰川路1803号,121.43057858817836,31.376476482489235
10g96h6,d,蕰川路2728号,121.42141269148699,31.404604742043237
10g96h7,d,蕰川路2767号,121.42226436857928,31.404571865898504
10g96h8,d,蕰川路5001号,121.43545601334635,31.3468894746547
10g96h9,d,蕰川路5475号,121.40801274305211,31.44922387481595
10g96ha,d,蕰川路5549号,121.40654838654036,31.45137345322697
10g96hb,d,蕰川路5575号,121.40571776769872,31.453893402655922
10g96h2,d,蕰川路6号,121.43415559512599,31.34434934484623
10g96hc,d,蕰藻南路399号,121.46198495765776,31.353034309487942
10g96dt,d,汶水路1555号,121.42093984747682,31.28954910721324
10g96du,d,汶水路1585弄,121.41588938219535,31.289543535929553
10g96dv,d,吴淞三村,121.49572718211333,31.37061100036107
10g96dw,d,五星村,121.34671340236996,31.304575949958455
10g96dx,d,西浜村,121.44128117588525,31.358651841853728
10g96dy,d,西街村,121.4323179352248,31.372328857036198
10g96dz,d,西埝村,121.3645699992697,31.38403513257363
10g96e0,d,向阳新村,121.34214707767028,31.41414734583078
10g96e1,d,新村路789弄,121.41738418472197,31.267053753542747
10g96e2,d,新二路1088弄,121.47202840767494,31.33094954568774
10g96e4,d,新二路168号,121.47464466753596,31.325729594423994
10g96e5,d,新二路183弄,121.47517255280437,31.325700373021434
10g96e6,d,新二路195号,121.47511907234644,31.3259270524591
10g96e3,d,新二路55号,121.47610480385936,31.323315531599246
10g96eb,d,新沪路1059弄,121.41812011409526,31.274025671767337
10g96ec,d,新沪路1099弄,121.42016050863789,31.276448804946888
10g96e7,d,新沪路285弄,121.41788317814272,31.26940101425018
10g96e8,d,新沪路405弄,121.41952577970889,31.270578460327204
10g96e9,d,新沪路475弄,121.41880797912683,31.271013397276118
10g96ea,d,新沪路837弄,121.41649826534666,31.27095095889255
10g96ed,d,星星村,121.41231499847412,31.373563294642683
10g9616,d,行知路299号,121.41647859779572,31.283508323165083
10g9617,d,行知路380弄,121.41546821488286,31.285571670627494
10g9618,d,行知路451号,121.41358706724532,31.28351373429872
10g9619,d,行知路569弄,121.41201495868555,31.283426117141975
10g961a,d,行知路638弄,121.41216381279256,31.283847428311894
10g961b,d,行知路684弄,121.40872164693555,31.285310240134343
10g961c,d,行知路695号,121.40825635711816,31.283369000515176
10g96ee,d,阳曲路1111弄,121.45876879530535,31.324455516644946
10g96ef,d,阳曲路1388号,121.45948427721876,31.322961613399436
10g96eg,d,阳曲路1388弄,121.46110657213336,31.32616737008105
10g96eh,d,阳泉路18弄,121.4638328479525,31.314741214850784
10g96ei,d,杨北路185弄,121.41137514378131,31.393180993484933
10g96ej,d,杨东村,121.46353175151256,31.386685550534118
10g96ek,d,杨南路501号,121.4009540958569,31.401726873497687
10g96ep,d,杨泰路2152号,121.44026743739076,31.37627548016649
10g96en,d,杨泰路328弄,121.441009483016,31.371505818643822
10g96eo,d,杨泰路345弄,121.44220368752521,31.374151899116754
10g96el,d,杨泰路55弄,121.45046157894946,31.363455099008853
10g96em,d,杨泰路99弄,121.45119016403883,31.36664383092254
10g96eq,d,杨泰三村,121.44911001644604,31.36275548488675
10g96er,d,杨桃路185弄,121.43853872235037,31.371941113468402
10g96et,d,杨鑫路200弄,121.43550195843108,31.364027102961927
10g96eu,d,杨鑫路388号,121.43977397886853,31.36719757742725
10g96ev,d,杨鑫路451弄,121.43502819360208,31.36692047377526
10g96es,d,杨鑫路98弄,121.45042101867944,31.372216100138036
10g96ew,d,一二八纪念东路518弄,121.47869339173461,31.328242123165474
10g96ex,d,一二八纪念路149号,121.46383077915372,31.327683836200638
10g96ey,d,一二八纪念路688弄,121.45329015493446,31.325974050209858
10g96ez,d,一二八纪念路811弄,121.44915551519762,31.32610459416948
10g96f0,d,一二八纪念路967弄,121.44563502116759,31.324942590458747
10g96f1,d,一二八纪念路988号,121.44724416410253,31.323834674810854
10g96f2,d,逸仙路1238弄,121.48192133242682,31.315142033421186
10g96f3,d,逸仙路1321弄,121.48748663791143,31.31572804587333
10g96f4,d,逸仙路1588弄,121.483663334648,31.321854894204144
10g96f5,d,逸仙路1950号,121.489090654019,31.328685873282303
10g96f6,d,逸仙路2816号,121.49380265223407,31.336672588860857
10g96f7,d,逸仙路3808号,121.50088894585691,31.352465632859026
10g96f8,d,逸仙路3945号,121.50258951066124,31.354415842404038
10g96f9,d,逸仙路3950号,121.4995105051842,31.353643205734368
10g96fa,d,逸仙路4188号,121.49756724834344,31.36010389150102
10g96fb,d,逸仙路4288号,121.49613277788521,31.364380451410003
10g96fc,d,毅翔村,121.36642674177389,31.356438554308095
10g96fd,d,殷高路15号,121.49061890841519,31.322884513261137
10g96fe,d,殷高路21弄,121.4904426936466,31.322137138677167
10g96ff,d,殷高路65号,121.48887869802431,31.320538006747277
10g96fh,d,殷高西路101弄,121.47850018895507,31.319679538713803
10g96fi,d,殷高西路331弄,121.47433760515929,31.321362228141997
10g96fj,d,殷高西路711号,121.46916846522309,31.32015226072927
10g96fg,d,殷高西路81号,121.46995205298786,31.31974781543981
10g96fk,d,永乐路115弄,121.50233274221218,31.398203030389457
10g96fl,d,永乐路388号,121.49870853548451,31.394878085549653
10g96fp,d,永清二村,121.49500277865677,31.388385477061046
10g96fn,d,永清路211号,121.49806055407035,31.386467147112796
10g96fm,d,永清路30号,121.49911327211447,31.382338628701515
10g96fo,d,永清新村,121.49839892634098,31.391255852464425
10g96fq,d,友谊村,121.41197862913766,31.432774011643563
10g96fr,d,友谊路114号,121.48756156296247,31.404856750787207
10g96fv,d,友谊路1500弄,121.45909689964404,31.395340549140727
10g96fs,d,友谊路174号,121.4798846594249,31.404277548750454
10g96fw,d,友谊路1999弄,121.44744396810424,31.39117447182522
10g96ft,d,友谊路216号,121.47926694074194,31.402454383848212
10g96fu,d,友谊路221号,121.4803855255611,31.404020343691478
10g96fy,d,友谊路2758号,121.4353594981732,31.385279572220178
10g96fx,d,友谊路999号,121.46840489624293,31.399980623786277
10g96g0,d,友谊支路295号,121.48672951946449,31.409369284645635
10g96fz,d,友谊支路8号,121.48850247757916,31.4031697136748
10g96g1,d,园丰路69号,121.34408617105811,31.303663622099617
10g96g2,d,园康路300号,121.34573400013527,31.31433745897242
10g96g3,d,远景村,121.33778401377131,31.403911941041045
10g96g4,d,月春路41号,121.38784814222002,31.415478592937
10g96g6,d,月富路218弄,121.4105220065875,31.4263646166626
10g96g5,d,月富路88弄,121.41002508764915,31.428713454205372
10g96g7,d,月辉路108弄,121.43863899300388,31.38816284351857
10g96g9,d,月罗公路268号,121.41286002163874,31.418317048212852
10g96g8,d,月罗公路58号,121.37167343966873,31.417477736096796
10g96ga,d,月罗公路888弄,121.39109512169645,31.413356489450756
10g96gj,d,月罗路1077号,121.38332746666994,31.418017645212128
10g96gk,d,月罗路1116号,121.38165376296706,31.41583765113696
10g96gl,d,月罗路1201弄,121.38882586439603,31.416747939742123
10g96gb,d,月罗路120号,121.42522393197713,31.42149602757458
10g96gm,d,月罗路1211号,121.38077553229031,31.418092913770543
10g96gc,d,月罗路160号,121.4248570891649,31.421499004846158
10g96gn,d,月罗路1881号,121.36376631460686,31.415268657450856
10g96go,d,月罗路2425弄,121.34836385951024,31.408816441319527
10g96gd,d,月罗路259弄,121.41415813919892,31.420638832905958
10g96ge,d,月罗路300弄,121.41167749977976,31.417116667844187
10g96gf,d,月罗路307弄,121.4114580490422,31.418558352735552
10g96gg,d,月罗路313号,121.41015347130299,31.418193953435885
10g96gh,d,月罗路340号,121.40731777601383,31.417088836046265
10g96gi,d,月罗路986号,121.389415861563,31.416790960660165
10g96gs,d,月浦八村,121.42563325366297,31.415376797926722
10g96gp,d,月浦二村,121.42843090999804,31.419669781623995
10g96gt,d,月浦九村,121.42224339079652,31.416513113896382
10g96gu,d,月浦十村,121.4307579938112,31.414924207519554
10g96gq,d,月浦四村,121.42593790133746,31.406907063663525
10g96gr,d,月浦五村,121.42662503107526,31.417672201935478
10g96gv,d,月狮村,121.40746192819287,31.449094104954856
10g96gw,d,月塘路268弄,121.41193867442149,31.42435393694372
10g96gx,d,月塘路272号,121.41206847538973,31.423209019255584
10g96gy,d,月新北路106号,121.39589081521426,31.421002191418193
10g96gz,d,月新南路47号,121.39837349861081,31.41421612742451
10g96h0,d,月新南路805号,121.39857597600573,31.414191546344256
10g96h1,d,云天路348号,121.39283727864937,31.465672577094125
10g96hd,d,蕴川路5569号,121.40590673359326,31.453191658523355
10g96h5,d,薀川路1999号,121.42817956323677,31.3826088757735
10g96he,d,张墅村,121.32852476151754,31.387582134149962
10g95w0,d,长春村,121.38857702898454,31.4075932373529
10g95w1,d,长虹路779弄,121.32648908849747,31.476867335183606
10g95w2,d,长江路20弄,121.49935055493397,31.351926485329006
10g95w4,d,长江路258号,121.49629880138521,31.34924745378344
10g95w3,d,长江路30弄,121.49988899399101,31.352835616241567
10g95w5,d,长江路440弄,121.49076330006143,31.348164305882833
10g95w6,d,长江路441弄,121.48447054082446,31.347289282248244
10g95w7,d,长江路442弄,121.48442859829649,31.347271120534074
10g95w8,d,长江路443弄,121.48451105622344,31.347161380377646
10g95w9,d,长江路444弄,121.48444528125746,31.347148772717716
10g95wa,d,长江路68弄,121.49792508832613,31.351162608332245
10g95wb,d,长江路735号,121.48796413941068,31.34898783074422
10g95wc,d,长江路848弄,121.48578170464212,31.346685768389992
10g95wd,d,长江路860弄,121.48556000640947,31.343238523912078
10g95we,d,长江南路180号,121.48492457661656,31.333391461283213
10g95wf,d,长江南路188号,121.48492165683064,31.3344811153432
10g95wg,d,长江南路651号,121.48035868548374,31.337847546073732
10g95wh,d,长江南路886号,121.478227170553,31.340905558325346
10g95wj,d,长江西路101号,121.47798391652809,31.34644684424496
10g95wl,d,长江西路1139号,121.46005567338723,31.339391576330087
10g95wm,d,长江西路1160弄,121.45941139534179,31.338307188016852
10g95wn,d,长江西路1180号,121.45865186947808,31.338272089685614
10g95wo,d,长江西路1241号,121.45689640732077,31.33826049824824
10g95wp,d,长江西路1250号,121.45695180986246,31.337730710933872
10g95wq,d,长江西路1261号,121.456565141249,31.33834788776423
10g95wr,d,长江西路1270号,121.45630146002453,31.337523412908194
10g95ws,d,长江西路1340号,121.45524299979799,31.336793772796394
10g95wt,d,长江西路1360号,121.45600090778717,31.335236415332105
10g95wu,d,长江西路1568号,121.45021391474835,31.33330851874775
10g95wv,d,长江西路2322号,121.43720202016365,31.326715030528312
10g95wi,d,长江西路53弄,121.45238450921705,31.336009926730746
10g95wk,d,长江西路755号,121.47166161173378,31.34351440935986
10g95wx,d,长临路1118弄,121.43168539930188,31.326378784967694
10g95wy,d,长临路1318弄,121.43203205356684,31.330846685859328
10g95ww,d,长临路924号,121.4354723991206,31.324375901568125
10g95wz,d,长逸路188号,121.493751549153,31.338301323762813
10g95x0,d,长逸路301弄,121.49099284540765,31.33829035138926
10g95x1,d,长逸路379号,121.48926407779615,31.33818080504309
10g95x2,d,长逸路722号,121.48293306093092,31.336731759862072
10g96hf,d,真北路4333弄,121.40487089941243,31.29283741949466
10g96hh,d,真陈路1000号,121.34990694694771,31.310594002785777
10g96hi,d,真陈路1398弄,121.3516334283898,31.31651200404342
10g96hg,d,真陈路868号,121.34647527590528,31.303631763791586
10g96hj,d,真大路298号,121.39819276419202,31.288141576545627
10g96hk,d,真大路309号,121.40112995943356,31.28814475061139
10g96hl,d,真大路333弄,121.40267986422137,31.289310512988973
10g96hm,d,真大路358弄,121.39913635587591,31.289549102801296
10g96hn,d,真大路551号,121.41109172085191,31.296298463936832
10g96ho,d,真大路560号,121.40966032921294,31.298347469998447
10g96hq,d,真华路1615弄,121.41032265294623,31.28664131199251
10g96hr,d,真华路1800弄,121.4119127596636,31.289814891791295
10g96hs,d,真华路1801弄,121.41055898630198,31.289402740264016
10g96hp,d,真华路999弄,121.40908730143498,31.275850948199878
10g96ht,d,真金路1039弄,121.40496463362061,31.282010231417267
10g96hu,d,真金路1250弄,121.40731377283238,31.285755370987026
10g96hv,d,真朋路99弄,121.39962823460554,31.293084665043455
10g96hw,d,镇北街23弄,121.4894119277542,31.405628809885354
10g96hx,d,镇北街36弄,109.85136024738462,20.83975969356591
10g96hy,d,镇泰路211弄,121.44227851652013,31.382469964089804
10g96hz,d,中食新村,121.40375753526271,31.30184580050097
10g96i0,d,朱家店村,121.38225963637973,31.392820879018533
10g96i1,d,朱家弄,121.39383950221185,31.342874104438113
10g96i2,d,竹韵路259弄,121.4414846283538,31.367074429191707
10g96i3,d,竹韵路58弄,121.44515233730402,31.364205699836685
10g96i4,d,走马塘路1228弄,121.37211610671976,31.304678200929406
10g97dk,u,北兴村,121.7963369210466,31.56294530662714
10g97dp,u,东河沿,121.40448848083332,31.635525578694903
10g97dl,u,凤滨路59号,121.69195186494042,31.38974322208643
10g97dm,u,海燕二村,121.60204739542853,31.6452880234827
10g97dh,u,江南大道,121.73768563806185,31.36833291169572
10g97di,u,南海村,121.69089875181393,31.520219987709122
10g97dn,u,裕安路120号,121.83275569662618,31.527770277109035
10g97dj,u,长凯路253号,121.73703612345737,31.373419512375012
10g97cl,k,大叶公路2058弄,121.38689230592269,30.9514333067557
10g97cm,k,大叶公路5555号,121.51870552328393,30.976528683562908
10g97cn,k,大宅小区,121.64838600339785,30.954259377630887
10g97co,k,德丰路69弄,121.4914892021374,30.926279860008744
10g97cp,k,灯塔村,121.4247153723956,30.984885080373555
10g97cq,k,工业路1550号,121.505956976035,30.99127585212076
10g97cr,k,光钱路508号,121.50883162106584,30.905167920750166
10g97cs,k,国顺路669弄,121.45394803330812,30.930479087811122
10g97ct,k,航谊路8号,121.46174031190307,30.947242049943544
10g97cu,k,汇中路126号,121.39971998401593,30.962138105810247
10g97cv,k,集贤村,121.69662035622953,30.915648087255605
10g97cw,k,江海村,121.4451561671816,30.894442769890876
10g97cx,k,金碧路1959弄,121.51342384079481,30.974533227881036
10g97cy,k,金海公路1611弄,121.50133882316246,30.891376913332135
10g97cz,k,乐善村,121.5757837157126,30.972152304736504
10g97d0,k,民乐路28弄,121.56473792250796,30.861962319738755
10g97d1,k,明星村,121.55287318486286,30.981767283701544
10g97d2,k,南渡村,121.45152000112212,30.999430297488722
10g97d3,k,南奉公路8505号,121.48526706371185,30.916523541019036
10g97d4,k,水闸路14弄,121.68134576848097,30.922751640420156
10g97d5,k,万顺路2968弄,121.51653429477378,30.970950348655887
10g97d6,k,邬康路27号,121.40201993852814,30.962081671135376
10g97d7,k,吴塘路799弄,121.44404201818705,30.961185472737608
10g97d8,k,西纬四路9号,121.39683658787989,30.94105134331224
10g97d9,k,西校村,121.40319852171758,30.935087887383478
10g97da,k,西闸公路1827号,121.42905895192484,30.987851625620372
10g97dc,k,小荡村,121.70411017010686,30.977539932135393
10g97db,k,肖塘路146弄,121.43773621641914,30.96255928448904
10g97dd,k,新叶村,121.37655606821373,30.958534958663325
10g97de,k,杨王村,121.48992286239572,30.892394196089842
10g97df,k,耀光小区,121.39696678070065,30.96122109846384
10g97dg,k,育秀路438弄,121.46321979444228,30.908203015476985
10g95hj,9,宝安路160弄,121.48765574412498,31.264803044183285
10g95hk,9,宝安路7号,121.4882105916884,31.262855321159087
10g95hl,9,宝安支路49号,121.48864157674402,31.264689165056662
10g95hm,9,宝安支路79弄,121.48827187511857,31.264577468028893
10g95hn,9,宝山路571号,121.47808181861421,31.258791092902317
10g95ho,9,宝山路621号,121.47879516103393,31.25970233497581
10g95hp,9,宝山路625号,121.47969666783652,31.260284154989094
10g95hq,9,宝山路778号,121.47945226957658,31.26197522088052
10g95hr,9,保定路20弄,121.51438824330555,31.254949685011077
10g95hs,9,保定路520弄,121.50739027050308,31.261053590766515
10g95ht,9,北宝兴路103弄,121.46656649611496,31.272710770573813
10g95hu,9,北苏州路400号,121.48349149684185,31.24311866151704
10g95hv,9,车站北路491弄,121.474163525642,31.296096051906094
10g95hw,9,车站北路507弄,121.47341774598802,31.296734680036597
10g95hx,9,车站北路625弄,121.47033797591489,31.29695558210531
10g95hy,9,车站西路80弄,121.48323194415009,31.29593619640113
10g95hz,9,赤峰路626弄,121.48560245546108,31.284526340314706
10g95i0,9,川公路167弄,121.48103615594499,31.256263013463347
10g95i1,9,大连路839弄,121.50714485817649,31.263260022484136
10g95i2,9,大连西路157号,121.49684146139235,31.276361016298637
10g95i3,9,大连西路201弄,121.49336105481554,31.275889717013012
10g95i4,9,大连西路23号,121.49840036784221,31.276167736952758
10g95i5,9,大连西路261号,121.48728770681271,31.27614365782625
10g95i6,9,东宝兴路254弄,121.4809384843325,31.257820863736207
10g95i7,9,东宝兴路258弄,121.48226630635644,31.257328447250437
10g95i8,9,东宝兴路272弄,121.48095769061135,31.25837380650169
10g95i9,9,东宝兴路306号,121.48089746581142,31.258124663014087
10g95ia,9,东宝兴路312号,121.48096553462442,31.258399583594276
10g95ib,9,东宝兴路334号,121.48037632112434,31.26054934486498
10g95ic,9,东宝兴路570号,121.47747140385492,31.26086561365678
10g95id,9,东宝兴路667弄,121.47639078466788,31.261630325678397
10g95ie,9,东宝兴路733号,121.4755685014954,31.262596649196784
10g95if,9,东宝兴路753弄,121.47557748945178,31.262538981563505
10g95ig,9,东汉阳路338弄,121.4964269239306,31.25148939626124
10g95ih,9,东汉阳路440号,121.49712654493787,31.25231108271531
10g95ii,9,东江湾路570弄,121.48020649584949,31.27398410643274
10g95ij,9,东体育会路100弄,121.48165972197667,31.274373218026064
10g95ik,9,东体育会路115弄,121.48231326169191,31.273938292445855
10g95il,9,东体育会路119弄,121.48205742886884,31.272967899406616
10g95im,9,东体育会路23号,121.48836018853059,31.2816543790813
10g95in,9,东体育会路29号,121.48061642291555,31.274443019151825
10g95io,9,东长治路330号,121.49479039244024,31.248568234266735
10g95ip,9,东长治路340弄,121.4951926404172,31.2487185020062
10g95iq,9,多伦路165号,121.48163995574474,31.26314084844425
10g95ir,9,多伦路201弄,121.48104579174924,31.263835774176076
10g95is,9,广联路29弄,121.47156317629407,31.26733845673946
10g95it,9,广灵二村,121.47866396989005,31.28585971310321
10g95iu,9,广灵一路44号,121.47745528328154,31.278387668187612
10g95iv,9,广粤路287弄,121.46425765604533,31.28746351552731
10g95iw,9,广粤路577弄,121.46677975314832,31.29394263184691
10g95ix,9,广中二村,121.47879966119696,31.27872357340677
10g95iy,9,广中路310弄,121.47385106504794,31.27794385897823
10g95iz,9,广中路320号,121.47371047916361,31.278060766235917
10g95j0,9,广中路366弄,121.47340725311295,31.27700184393105
10g95j1,9,广中路368弄,121.47289590445008,31.27813524937563
10g95j2,9,广中三村,121.47639679792032,31.27888587852943
10g95j3,9,广中五村,121.47649655653922,31.277668310275843
10g95j4,9,广中一村,121.47803015268151,31.277309592093808
10g95j5,9,海伦路188弄,121.4933517176666,31.257584911771158
10g95j6,9,海伦路555弄,121.48701183536814,31.258351032654602
10g95j7,9,海门路609弄,121.50008669766754,31.257511184666537
10g95j8,9,海宁路358号,121.48576409256484,31.250646043209574
10g95j9,9,恒业路115弄,121.4756175466221,31.26910743801227
10g95ja,9,恒业路118弄,121.47620856194406,31.26892070125467
10g95jb,9,恒业路387弄,121.47234828349963,31.265858371724125
10g95jc,9,横浜路43号,121.48050250883365,31.26238260122532
10g95jd,9,衡水路89弄,121.48629764183542,31.255136402718655
10g95je,9,虹湾路55弄,121.47471486744112,31.31271937098367
10g95jf,9,虹湾路86弄,121.47462509400253,31.313057397092305
10g95jg,9,虹镇北街28弄,121.49991123378493,31.263094249852895
10g95jh,9,花园路1号,121.48558732516774,31.248878046149848
10g95ji,9,花园路5号,121.32473258490127,31.12626124978658
10g95jj,9,花园路7号,121.47917305123504,31.269456553792196
10g95jk,9,华昌路9号,121.47829556070182,31.26131887822812
10g95jl,9,华严路68弄,121.47420955096914,31.302989703187237
10g95jm,9,黄渡路103弄,121.48163954716915,31.268136984886606
10g95jn,9,黄渡路105号,121.4814579391106,31.267964745869637
10g95jo,9,黄渡路109号,121.48147324255162,31.26805201205417
10g95jp,9,黄渡路17弄,121.48103815123265,31.266152372670295
10g95jq,9,黄浦路199号,121.49302691869654,31.24521404885662
10g95jr,9,惠民路117弄,121.51179075093009,31.253238382565783
10g95js,9,吉祥路184弄,121.48494569599272,31.265520512838886
10g95jt,9,吉祥路84弄,121.48809283206813,31.265433068474266
10g95ju,9,江杨南路55弄,121.46997877055955,31.309384677498453
10g95jv,9,九龙路575号,121.49102149684933,31.253377439081703
10g95jw,9,奎照路789弄,121.47034567964947,31.300685398506054
10g95jx,9,昆山花园路9号,121.48625975358244,31.249229528988216
10g95jy,9,昆山路172弄,121.48733575159736,31.249451027148908
10g95jz,9,昆山路206号,121.48656997325826,31.24948447319191
10g95k0,9,凉城路1201弄,121.47017013511378,31.3035638060651
10g95k1,9,凉城路341弄,121.46925961392294,31.280501441373385
10g95k2,9,凉城路585弄,121.47084730639605,31.29288877887344
10g95k3,9,凉城路847弄,121.47052409986723,31.29932683535379
10g95k4,9,临平北路88号,121.49145312656093,31.26395145000804
10g95k5,9,临平北路89弄,121.4921681314897,31.264624839751736
10g95k6,9,临潼路221号,121.51200843710537,31.254427233671443
10g95k7,9,柳营路125号,121.4683051149971,31.271614342266368
10g95k8,9,柳营路45弄,121.46912434059881,31.27226691142307
10g95k9,9,罗浮路89弄,121.48151868411465,31.25238447439619
10g95ka,9,旅顺路71弄,121.49583173895334,31.248581988131733
10g95kb,9,马厂路49弄,121.49571330272455,31.24798357544519
10g95kc,9,马厂路63号,121.49581826770466,31.24807818568123
10g95kd,9,密云路199弄,121.4955996950714,31.272348581970622
10g95ke,9,闵行路181号,121.49166539841475,31.24672641217279
10g95kf,9,闵行路201号,121.49110917071995,31.247162435361545
10g95kg,9,欧阳路363号,121.48778680313166,31.27045808129099
10g95kh,9,欧阳路568号,121.48606435755188,31.273748724599102
10g95ki,9,蟠龙街26号,121.48706426253422,31.24764015933317
10g95kj,9,曲阳路118弄,121.49456029775284,31.271429268652728
10g95kk,9,曲阳路385弄,121.49001595114329,31.2721308380572
10g95kl,9,曲阳路58弄,121.49399092387524,31.26980494613461
10g95km,9,曲阳路820弄,121.49165370832867,31.287485341132864
10g95kn,9,瑞虹路16号,121.50041884504729,31.26608199096791
10g95ko,9,山阴路165弄,121.48534479516599,31.266715136001835
10g95kp,9,山阴路44弄,121.48453926314065,31.26495343915997
10g95kq,9,商丘路250号,121.49695232110624,31.25104172471155
10g95kr,9,商业一村,121.4762406279659,31.275839514607416
10g95ks,9,水电路261弄,121.47629643459334,31.272713749239966
10g95kt,9,水电路300弄,121.47364738563898,31.275797199955736
10g95ku,9,水电路541弄,121.4765654901244,31.28079849965221
10g95kv,9,水电路609弄,121.47749914984202,31.281401107638583
10g95kw,9,水电路818弄,121.47647102756027,31.286424734605305
10g95kx,9,四川北路1274号,121.4846703129645,31.250765825456657
10g95ky,9,四川北路1457号,121.48294358819703,31.253857523556036
10g95kz,9,四川北路1545弄,121.48207122303943,31.25558318430895
10g95l0,9,四川北路1569弄,121.48299163732901,31.256340139095247
10g95l1,9,四川北路1589弄,121.48304319231707,31.25660921309947
10g95l2,9,四川北路1706弄,121.48307365288494,31.264508114929527
10g95l3,9,四川北路1760号,121.48341137147997,31.25938737643204
10g95l4,9,四川北路1774弄,121.48433191134826,31.25922608371436
10g95l5,9,四川北路1856弄,121.48562942083494,31.26077543153168
10g95l6,9,四川北路1885号,121.48350548637123,31.26208769299081
10g95l7,9,四川北路1906弄,121.48438316986888,31.261921270151802
10g95l8,9,四川北路1953弄,121.48263444830144,31.262879222582047
10g95l9,9,四川北路1999弄,121.48362530856924,31.26375058305406
10g95la,9,四川北路2285号,121.48110617326196,31.268814423884745
10g95lb,9,四川北路85号,121.48500826200505,31.246430906040167
10g95lc,9,四平路283号,121.48968215663626,31.263675949011695
10g95ld,9,四平路621弄,121.49653044867449,31.272454578411583
10g95le,9,四平路721号,121.49698577230598,31.2716284498718
10g95lf,9,四平路97弄,121.48738171534147,31.259513552049384
10g95lg,9,谭家桥,121.49029550128948,31.27026419061716
10g95lh,9,塘沽路308弄,121.4891760998775,31.24814989654619
10g95li,9,塘沽路326号,121.48898965298976,31.24832303618224
10g95lj,9,塘沽路328号,121.48894479265748,31.24810238458064
10g95lk,9,塘沽路330号,121.48889830883958,31.248125924859316
10g95ll,9,塘沽路346号,121.4885574431468,31.248185634089683
10g95lm,9,天宝路388弄,121.49853252374555,31.26691359660868
10g95ln,9,天宝路466弄,121.49711135928938,31.267163429657963
10g95lo,9,天宝路479号,121.49746965524365,31.268119743139927
10g95lp,9,天宝西路241弄,121.49439038432706,31.274842435491653
10g95lq,9,天宝西路248弄,121.49290544220784,31.273870678170738
10g95lr,9,天宝西路4弄,121.49574312410626,31.272186153160597
10g95ls,9,天通庵路558号,121.47603200900372,31.2623647665993
10g95lt,9,天通庵路569号,121.4761047018777,31.26253978439466
10g95lu,9,天通庵路570号,121.47570289753452,31.262857989625303
10g95lv,9,天通庵路715号,121.47752944068066,31.26431325149899
10g95lw,9,甜爱路128弄,121.4836448445574,31.267725052437005
10g95lx,9,同丰路666弄,121.46806834824199,31.272828869089548
10g95ly,9,同鸣路140弄,121.47762374418319,31.2685000119558
10g95lz,9,同心路116弄,121.4776246267624,31.266039749655828
10g95m0,9,同心路121号,121.47788579021825,31.266570422544273
10g95m1,9,同心路125弄,121.47783714070587,31.267484487486282
10g95m2,9,同心路209弄,121.47618463479918,31.267964711024913
10g95m3,9,同心路338弄,121.47422119112335,31.2681714661533
10g95m4,9,同心路41号,121.47619528990288,31.267657848745284
10g95m5,9,同心路589号,121.47346199634633,31.268923517898255
10g95m6,9,同心路649弄,121.47331786745129,31.269772627923768
10g95m7,9,汶水东路650弄,121.47641958826513,31.28851454902321
10g95m8,9,梧州路289号,121.49333836811665,31.255780555861573
10g95m9,9,武昌路338号,121.48826351134144,31.247271061389153
10g95ma,9,武进路216号,121.48659293522451,31.25253966878446
10g95mb,9,西宝兴路949弄,121.46949570381763,31.269897203754173
10g95mc,9,西江湾路122号,121.47838869822918,31.267077102407917
10g95md,9,西江湾路700弄,121.48058876459129,31.27620355902911
10g95me,9,新同心路285弄,121.4685285982267,31.278620327621265
10g95mf,9,幸福村,121.49747078503803,31.2733085643033
10g95mg,9,邮电新村,121.49454737486542,31.270460262941143
10g95mh,9,友谊二村,121.47934983140676,31.285033059669306
10g95mi,9,友谊一村,121.47869454460573,31.284793917041725
10g95mj,9,乍浦路313弄,121.4865016306076,31.249759704606735
10g95mk,9,乍浦路425号,121.48656503699146,31.251602882802935
10g95ml,9,乍浦路455号,121.48626411758552,31.251808918596684
10g95mm,9,长春路158号,121.48676821297249,31.26161095791469
10g95mn,9,长春路170号,121.48577203393648,31.261237413978158
10g95mo,9,长春路361号,121.48447880941785,31.262956931681856
10g95mp,9,中山北一路48号,121.47522506524503,31.269430900225206
10g95mq,9,周家嘴路753弄,121.50180324901211,31.259244771919754
10g93yk,1,安平街13弄,121.49130829647845,31.228912173609512
10g93yl,1,安平街23弄,121.49204748839892,31.22892303313047
10g93ym,1,白渡路188弄,121.50165339068818,31.219783227761553
10g93yn,1,白渡路258弄,121.50132513691612,31.219582645011208
10g93yo,1,百翎路5号,121.49136206317326,31.226470117073696
10g93yp,1,半淞园路178号,121.49746154735394,31.205156675938223
10g93yq,1,半淞园路188号,121.49772438432292,31.205195063326425
10g93yr,1,半淞园路628号,121.49460134126335,31.200010156005593
10g93ys,1,保屯路135号,121.49058705772865,31.204706466674484
10g93yt,1,保屯路50弄,121.48959746597723,31.2059192934733
10g93yu,1,北海路267弄,121.47814031277873,31.2300716183337
10g93yv,1,北京东路123号,121.48752630631432,31.24048467274195
10g93yw,1,北京东路288弄,121.48391219424421,31.24131640142344
10g93yx,1,北京东路316弄,121.48395655420472,31.241239216080384
10g93yy,1,北京东路345号,121.48294067656329,31.24022700768195
10g93yz,1,北京东路360弄,121.48316808103397,31.24049014662788
10g93z0,1,北京东路431弄,121.47952648068853,31.239283166953218
10g93z1,1,北京东路460号,121.48115948129278,31.239794827222234
10g93z2,1,北京东路528号,121.48028196886023,31.23953266835127
10g93z3,1,北京东路647弄,121.47789334299488,31.238403062246267
10g93z4,1,北京西路239弄,121.46940845320624,31.235395790125974
10g93z5,1,北京西路243号,121.46901386259651,31.23558193004724
10g93z6,1,北京西路256弄,121.46561291830969,31.23423131710251
10g93z7,1,北京西路267号,121.46864694933038,31.235558747834794
10g93z8,1,曹家街40弄,121.48598566295512,31.21902312794454
10g93zg,1,成都北路1050号,121.46346870610293,31.240349721724158
10g93zh,1,成都北路152弄,121.4686851998845,31.227018525422174
10g93zi,1,成都北路162弄,121.46798411976071,31.22677147153078
10g93zj,1,成都北路262弄,121.46796051816177,31.22846129861227
10g93zk,1,成都北路274弄,121.46725677620576,31.228437603314404
10g93zl,1,成都北路600号,121.46685733498202,31.23414890395924
10g93zm,1,成都南路108弄,121.46729377862619,31.2215786486622
10g93zn,1,成都南路120号,121.46778780096137,31.22125819197452
10g93zo,1,成都南路132弄,121.46801933931569,31.22114209762028
10g93zp,1,成都南路136号,121.46765907097725,31.22116396710242
10g9404,1,打浦路210弄,121.4708059222412,31.20099363869123
10g9405,1,打浦路258弄,121.47092064677915,31.200293283869364
10g9406,1,打浦路25号,121.4705661463974,31.20373480887827
10g9407,1,打浦路271号,121.47205884576648,31.2012708910749
10g9408,1,打浦路284弄27号,121.47086929208456,31.199652810213983
10g9409,1,打浦路299弄,121.47228934285262,31.20134675925445
10g940a,1,打浦路29号,121.47106215261229,31.199244206583753
10g940b,1,打浦路303弄,121.47169394390846,31.199844776792958
10g940c,1,打浦路316弄,121.4710920885231,31.200113316260556
10g940d,1,打浦路318号,121.47141313489645,31.199649254528598
10g940e,1,打浦路339弄,121.47210840083895,31.199569752346704
10g940f,1,打浦路38弄,121.46868610676096,31.204624697836582
10g940g,1,打浦路457弄,121.47314884162499,31.197645671043315
10g940h,1,打浦路500弄,121.4731223637521,31.196430718864175
10g940i,1,打浦路68号,121.47000381038909,31.204163176993585
10g940j,1,打浦路78号,121.47035953766544,31.203783739947518
10g940k,1,打浦路80弄,121.46968690639875,31.203261549224134
10g940l,1,打浦路92号,121.47069582478717,31.202614114173755
10g940m,1,大沽路181号,121.4709377717753,31.22603499052173
10g940n,1,大沽路183弄,121.47129652919081,31.2258744766768
10g940o,1,大沽路250号,121.46984339948881,31.225938874632945
10g940p,1,大吉路135弄,121.48467378348835,31.21467389738289
10g940q,1,大吉路173弄,121.48403489048754,31.21438180046254
10g940r,1,大吉路270号,121.48258773918506,31.21328806022663
10g940s,1,大吉路272号,121.48248172921119,31.21313992715732
10g940t,1,大吉路280号,121.48221805877972,31.213161051406107
10g940u,1,大吉路308号,121.48170255601443,31.21306706860659
10g940v,1,大吉路310弄,121.48199393642277,31.212776177781183
10g940w,1,大吉路36号,121.48667190382132,31.214984367436614
10g940x,1,大吉路44弄,121.48185891992529,31.213144416077693
10g940y,1,大林路11号,121.48804732608235,31.213912610367206
10g940z,1,大林路255号,121.48331571745584,31.212429222655476
10g9410,1,大林路256号,121.48430608056621,31.21245579007926
10g9411,1,大林路338号,121.4837139268824,31.21223775303017
10g9412,1,大林路37号,121.48741208996408,31.213947873035526
10g9413,1,大林路78号,121.48698744597876,31.21296189165527
10g9414,1,大林路86号,121.48630892078978,31.213017016416597
10g9415,1,大林路90号,121.48681809782576,31.212844169844473
10g9416,1,大兴街10号,121.48814337873887,31.21349579291095
10g9417,1,淡水路184号,121.47301685923571,31.218017933891304
10g9418,1,淡水路214弄,121.47284420393889,31.217234189135
10g9419,1,淡水路225弄,121.47318195632376,31.216720322189857
10g941a,1,淡水路232号,121.47334093358232,31.216907585195724
10g941b,1,淡水路256弄,121.4729931659666,31.21654694496548
10g941c,1,淡水路266弄,121.47286013759938,31.216010037444374
10g941d,1,淡水路278弄,121.47298267019751,31.217246511845488
10g941e,1,淡水路322弄,121.47296687135423,31.214917003151122
10g941f,1,淡水路372号,121.47362979923425,31.21411348037293
10g941g,1,淡水路89弄,121.47295442340234,31.22127231013545
10g941h,1,滇池路119号,121.48749701423266,31.239669170883502
10g941i,1,定兴路24号,121.47126856318874,31.2353185867477
10g941j,1,东街123号,121.4970725465079,31.222989960703547
10g941k,1,东街159号,121.49732008863482,31.2221160861036
10g941l,1,东街161号,121.5843622398158,31.345772226299673
10g941m,1,东街167弄,121.49702027198396,31.22182859163589
10g941n,1,东街22号,121.49746032711066,31.22479802008428
10g941o,1,东台路277号,121.4827047111724,31.218109779980985
10g941p,1,东台路279号,121.48248184504921,31.21715995563788
10g941q,1,东姚家弄44号,121.4976571828521,31.22248094551913
10g941r,1,多稼路208号,121.50211911953957,31.211969267466586
10g941s,1,方浜西路45号,121.4829102554429,31.221136147190904
10g941t,1,方浜西路49号,121.48277776481098,31.22124841779636
10g941u,1,方浜西路53号,121.48250742455149,31.221215809610058
10g941v,1,方浜西路63弄,121.48273301019786,31.22052330384951
10g941w,1,方浜西路67号,121.48248040466913,31.22122426426808
10g941x,1,方浜西路69号,121.48239132799023,31.22112133990603
10g941y,1,方浜西路73号,121.48231434593741,31.22124794999687
10g941z,1,方浜中路523号,121.48714696640421,31.224428418017453
10g9420,1,方浜中路593号,121.48669418215917,31.223678895404134
10g9421,1,方斜路556弄,121.48253250042472,31.212458864889403
10g9422,1,方斜支路35弄,121.48586000747181,31.216548566374282
10g9423,1,凤阳路200弄,121.47132522268467,31.234994673553626
10g9424,1,凤阳路228弄,121.4712104491835,31.234815892744603
10g9425,1,福建南路33号,121.48400194575328,31.230319379990497
10g9426,1,福佑路288号,121.49165251089418,31.227167390326063
10g9427,1,福州路623号,121.47881694588371,31.232261008844493
10g9428,1,抚安街9弄,121.49706963092139,31.22146256289953
10g9429,1,复兴东路201弄,121.48395436432403,31.219781434236538
10g942a,1,复兴东路248号,121.49933869136922,31.220466817982338
10g942b,1,复兴东路404弄,121.4965351495156,31.221270940114714
10g942c,1,复兴东路427弄,121.49701444733708,31.222026732036884
10g942d,1,复兴东路451弄,121.49626346708493,31.222239620452804
10g942e,1,复兴东路464弄,121.49574621486286,31.221584902310884
10g942f,1,复兴东路663弄,121.49210245917841,31.221962651358613
10g942g,1,复兴东路699号,121.49086045440299,31.22218428848322
10g942h,1,复兴东路701弄,121.4911929953509,31.222511490182157
10g942i,1,复兴东路983弄,121.48629088311654,31.220532399234983
10g942j,1,复兴中路553弄,121.4668817764315,31.214698222774228
10g942k,1,复兴中路565弄,121.46613511621231,31.21458752484075
10g942l,1,复兴中路583弄,121.46589651748435,31.214997913940994
10g942m,1,复兴中路587弄,121.46547717307519,31.21451540501646
10g942n,1,复兴中路616弄,121.4636694167039,31.21461696402775
10g942o,1,复兴中路618弄,121.46375275165884,31.214860319008302
10g942p,1,高家横弄11号,121.48905379026095,31.220751089523347
10g942q,1,高家弄37弄,121.48908536491456,31.221266443766584
10g942r,1,高家弄45弄,121.48913341056284,31.220961197040943
10g942s,1,高雄路189号,121.48944624161936,31.19870261974217
10g942t,1,牯岭路145弄,121.47160292109638,31.235697845457512
10g942u,1,牯岭路178号,121.47079833391265,31.23578439634833
10g942v,1,光启路103弄,121.49461141376744,31.223989901294242
10g942w,1,光启路105号,121.49429821234416,31.224097168799183
10g942x,1,光启路111号,121.49422546897958,31.223942987876754
10g942y,1,光启路215号,121.49388635019054,31.22278145343083
10g942z,1,光启路78号,121.49349466238574,31.22306837754592
10g9430,1,光启路91号,121.4942261668015,31.224127044905316
10g9431,1,光启南路307号,121.49505699864294,31.2171225918612
10g9432,1,广东路138号,121.4882501207126,31.23420407846285
10g9433,1,广东路140号,121.48832084678995,31.233535109008756
10g9434,1,广东路162号,121.48800022456841,31.233586027853864
10g9435,1,广东路20号,121.49056859929122,31.234335753365645
10g9436,1,广东路212号,121.48683252906528,31.233103211318802
10g9437,1,广东路339号,121.48457319736556,31.23216689550748
10g9438,1,广东路542号,121.48106674242395,31.232087488089157
10g9439,1,广东路543号,121.48094664105815,31.231813759473784
10g943a,1,广东路552号,121.4809184935112,31.23202250025339
10g943b,1,广东路554号,121.48092125656603,31.232036298928467
10g943c,1,广东路556号,121.48080928724588,31.231981869301425
10g943d,1,广东路654号,121.47932480787708,31.231491919306546
10g943e,1,广西北路118弄,121.4788762588984,31.23143796025682
10g943f,1,广西北路158号,121.47859494710318,31.232115402816394
10g943g,1,广西北路228弄,121.47852590684876,31.23333709599469
10g943h,1,广西北路442号,121.47674546801055,31.236342187296767
10g943i,1,广西南路23号,121.48110875052318,31.228835598195623
10g943j,1,贵州路198弄,121.47541161257004,31.237317144446052
10g943k,1,贵州路202号,121.4756880464965,31.23744013304848
10g943l,1,贵州路206号,121.4758674820999,31.23774688630382
10g943m,1,国货路135号,121.49636072892409,31.20883878451903
10g943n,1,国货路288号,121.49387497143275,31.208961042696153
10g943o,1,海潮路230弄,121.49744831761627,31.207796315721104
10g943p,1,海潮路23号,121.49854125101594,31.21048541971425
10g943q,1,海潮路240弄,121.49707318954192,31.207641119665002
10g943r,1,海潮路256弄,121.4967173594474,31.20731539234594
10g943s,1,海潮路93弄,121.4996717088848,31.21053653519592
10g943t,1,汉口路271号,121.48546378754206,31.235696823218802
10g943u,1,汉口路441号,121.48202367205067,31.234668392076433
10g943v,1,汉口路455弄,121.48187072360392,31.234211466134568
10g943w,1,汉口路618号,121.47866093349347,31.233990249699463
10g943x,1,汉口路766号,121.47585165187873,31.233312650203995
10g943y,1,合肥路289弄,121.47451407336143,31.21402535849674
10g943z,1,合肥路343号,121.47331576994723,31.214039114521377
10g9440,1,合肥路345号,121.47350340267067,31.21409719483678
10g9441,1,合肥路349弄,121.47323391570522,31.21355369455646
10g9442,1,和顺街53弄,121.49666328557623,31.220529251019528
10g9443,1,河南南路1001弄,121.4932751968399,31.21383121982682
10g9444,1,河南南路1009弄,121.49412321423671,31.213535101687526
10g9445,1,河南南路1号,121.48727928574036,31.230468358898616
10g9446,1,河南南路398弄,121.48855221853886,31.222634155202428
10g9447,1,河南南路555弄,121.49079512503232,31.220877269453684
10g9448,1,河南南路612弄,121.49064859620938,31.21954789289146
10g9449,1,河南南路747号,121.49267501266716,31.215688729688516
10g944a,1,河南南路790弄,121.4908425785823,31.216382457846574
10g944b,1,河南南路998弄,121.48814080755945,31.22764561982313
10g944c,1,河南中路166弄,121.48475682113741,31.233611699584777
10g944d,1,河南中路541弄,121.48302155981159,31.239320460077998
10g944e,1,河南中路575弄,121.4834773018884,31.24001029663051
10g944f,1,河南中路88号,121.48684159940986,31.23241638126469
10g944g,1,虹桥弄54弄,121.4933650111671,31.221442196798936
10g944h,1,湖滨路150号,121.47901862041967,31.221120943857596
10g944i,1,淮海东路89弄,121.48159335616226,31.225313925196236
10g944j,1,淮海路99号,121.4786291266357,31.22435433457898
10g944k,1,淮海中路417号,121.47198034761958,31.22164118669423
10g944l,1,淮海中路526弄,121.46909665696688,31.22146822932539
10g944m,1,淮海中路542弄,121.46877360339045,31.22108815100015
10g944n,1,淮海中路593弄,121.46772023958137,31.2201282138115
10g944o,1,淮海中路613弄,121.46730645535284,31.219618951179804
10g944p,1,淮海中路701号,121.4649191022574,31.219068710090628
10g944q,1,淮海中路774号,121.4633064662793,31.218754359215808
10g944r,1,淮海中路833弄,121.46243319074091,31.21807614917626
10g944s,1,淮海中路899弄,121.46056387699515,31.21728359013366
10g944t,1,淮海中路927弄,121.46082226581156,31.215883823665145
10g944u,1,黄陂北路249弄,121.4700815296027,31.229630648074476
10g944v,1,黄陂南路584号,121.47649454242882,31.216114182718897
10g944w,1,黄陂南路596弄,121.47656374513362,31.215736347704354
10g944x,1,黄陂南路783号,121.47749876198466,31.212239504136786
10g944y,1,黄陂南路847弄,121.47883702307857,31.21129345650574
10g944z,1,黄陂南路863弄,121.47894373157183,31.210867335340364
10g9450,1,黄河路107弄,121.46909877980616,31.233935809565445
10g9451,1,黄河路215弄,121.46870869324799,31.236511931534558
10g9452,1,黄河路253弄,121.4672413917642,31.23703397790138
10g9453,1,黄河路288号,121.46941378299599,31.23773646936756
10g9454,1,黄河路350号,121.4690632196713,31.238095701144815
10g9455,1,黄河路90号,121.47065377099567,31.23469134743481
10g9456,1,黄家路27号,121.78111916813569,31.02478246665586
10g9457,1,黄家路55弄,121.49722020074233,31.216177630229517
10g9458,1,黄家路88弄,121.49607405169176,31.21549577645402
10g9459,1,黄家路99弄,121.49664904867586,31.215781855681
10g945a,1,黄家阙路114号,121.48772937666226,31.214432346859894
10g945b,1,黄家阙路116号,121.48778548804819,31.21424592761118
10g945c,1,黄家阙路118号,121.48786135664965,31.214188772497
10g945d,1,黄家阙路38弄,121.48710645958482,31.215309350475856
10g945e,1,黄家阙路68弄,121.4873841011863,31.214870831233057
10g945f,1,黄家阙路72弄,121.48736788718577,31.21483093756932
10g945g,1,黄家阙路76弄,121.48771232520298,31.21479767940995
10g945h,1,黄家阙路86号,121.4876112956025,31.214633549234907
10g945i,1,黄家阙路88弄,121.48763158899857,31.21473853352256
10g945j,1,徽宁路164号,121.49340845217195,31.211529223336992
10g945k,1,徽宁路395号,121.48923706363819,31.21022136986449
10g945l,1,徽宁路501弄,121.48943551162105,31.210009584322002
10g945m,1,徽宁路716号,121.48492164574952,31.207381127954395
10g945n,1,会稽路38弄,121.48192833254372,31.222833684573995
10g945o,1,济南路168弄,121.47912917028577,31.218672905908683
10g945p,1,建德路9号,121.46762658429512,31.209814706688594
10g945q,1,建国东路31弄,121.4804862972272,31.213667918263308
10g945r,1,建国东路489弄,121.47341891544723,31.21119454510497
10g945s,1,建国西路110弄,121.46503384437416,31.20819365904436
10g945t,1,建国西路120弄,121.46509769681693,31.207855473748666
10g945u,1,建国西路134号,121.46452807591362,31.20763048908318
10g945v,1,建国西路135号,121.46410455464321,31.20680732021946
10g945w,1,建国西路144号,121.4642625627755,31.20766866948527
10g945x,1,建国西路25弄,121.46625109779748,31.208287368131074
10g945y,1,建国西路71号,121.46546842409019,31.207631008542872
10g945z,1,建国西路78弄,121.46537495073859,31.20809257702577
10g9460,1,建国西路91弄,121.46530145033314,31.206476007852537
10g9461,1,建国新路28弄,121.48379357683999,31.215048724050938
10g9462,1,建国中路101号,121.46928406284164,31.20975731840578
10g9463,1,建国中路103弄,121.46958819762096,31.209485444951504
10g9464,1,建国中路115弄,121.46854036679605,31.209337866769193
10g9465,1,建国中路137弄,121.46847605313961,31.209271798829203
10g9466,1,建国中路145号,121.4681976878449,31.208983909211575
10g9467,1,建国中路155弄,121.46757602309343,31.208471628586405
10g9468,1,建国中路1号,121.47152153914593,31.21035763671653
10g9469,1,建国中路26号,121.46781477755313,31.209243365091897
10g946a,1,建国中路97号,121.46943118620602,31.20941772297152
10g946b,1,建国中路99号,121.46941111394854,31.20968168410304
10g946c,1,江西中路135弄,121.48646369507753,31.233544894650176
10g946d,1,江西中路141号,121.48737204512547,31.234264624288
10g946e,1,江西中路14弄,121.48854157818947,31.23239225178883
10g946f,1,江西中路412弄,121.48572824335962,31.241471704179236
10g946g,1,江西中路418号,121.48541299791555,31.241080383409216
10g946h,1,江西中路420号,121.48537950644337,31.24100010591919
10g946i,1,江西中路422号,121.48795588889084,31.23286407972111
10g946j,1,江西中路434号,121.48541236290615,31.241317154886243
10g946k,1,江西中路452号,121.48511522020146,31.241654642095444
10g946l,1,江西中路460弄,121.48584046840489,31.242098026636537
10g946m,1,江西中路467号,121.48492470779051,31.2419275622901
10g946n,1,江西中路469弄,121.48492128476228,31.242017260520598
10g946o,1,江西中路481号,121.48496272405225,31.2425359838937
10g946p,1,江阴街442号,121.4874961774309,31.212869666045044
10g946q,1,江阴街8号,121.49490690545115,31.214009550199812
10g946r,1,江阴路249弄,121.469792848976,31.229516168749583
10g946s,1,江阴路88弄,121.46850659713941,31.229953059438834
10g946t,1,江阴路96号,121.46858884434373,31.229781569583437
10g946u,1,金陵东路111号,121.48939868791842,31.230790531723805
10g946v,1,金陵东路113号,121.48958449407937,31.231018190015245
10g946w,1,金陵东路12号,121.49140934288616,31.23163002275432
10g946x,1,金陵东路183弄,121.4886406573528,31.230159181919888
10g946y,1,金陵东路300弄,121.4830260273418,31.229197204086486
10g946z,1,金陵东路531号,121.48158406816626,31.227401406485413
10g9470,1,金陵东路569号,121.48034805492402,31.2266828043709
10g9471,1,金陵东路67号,121.491077163262,31.231317212206147
10g9472,1,金陵东路77号,121.49038694248662,31.231275190987112
10g9473,1,金陵东路79号,121.49021050648187,31.23124279490528
10g9474,1,金陵东路8号,121.49149516554787,31.231737845669507
10g9475,1,金坛路30号,121.497434907559,31.218599629382958
10g9476,1,金坛路35弄,121.4981602894386,31.219509290048258
10g9477,1,金坛路9号,121.49794715098307,31.219330864965247
10g9478,1,进贤路135号,121.46007635107662,31.22138177347873
10g9479,1,进贤路156弄,121.45937490723918,31.222111100966938
10g947a,1,进贤路216号,121.45811207300366,31.221466808954123
10g947b,1,净土街62号,121.49185323390417,31.21934645008357
10g947c,1,静修路114弄,121.48741297695396,31.219150346647478
10g947d,1,静修路23号,121.48799421055065,31.220111020210535
10g947e,1,九江路210号,121.48606903610258,31.23710882623807
10g947f,1,九江路458号,121.4815573060587,31.235739601078734
10g947g,1,九江路619号,121.47867890969579,31.234325468783034
10g947h,1,局门后路1号,121.48043963346177,31.20831978343621
10g947i,1,局门后路23号,121.48066503182146,31.208654732203684
10g947j,1,局门后路25号,121.4805946538683,31.208648407127335
10g947k,1,局门后路31号,121.48049418621113,31.209374683835236
10g947l,1,局门后路64号,121.48101064268637,31.208489536687626
10g947m,1,局门路160号,121.48034643267383,31.20703632215639
10g947n,1,局门路162号,121.48053161714205,31.206979993703506
10g947o,1,局门路1弄,121.47992655617823,31.209158923266234
10g947p,1,局门路233号,121.48072691545333,31.20654415120061
10g947q,1,局门路241弄,121.48046510378947,31.207686487709754
10g947r,1,局门路295弄,121.48174460409757,31.205039178628915
10g947s,1,局门路361弄,121.48201843470714,31.204609957505802
10g947t,1,局门路365号,121.48175876988131,31.20425383940823
10g947u,1,局门路402号,121.4815093479702,31.20396426127197
10g947v,1,局门路405弄,121.48264225420562,31.204045581208867
10g947w,1,局门路599弄,121.4835248200704,31.200607253989098
10g947x,1,局门路88号,121.47874123219303,31.208907355299548
10g947y,1,巨鹿路17号,121.46860915799931,31.22356431866998
10g947z,1,巨鹿路1号,121.46911631242746,31.223668635444554
10g9480,1,巨鹿路246号,121.46220121404309,31.223122037181458
10g9481,1,巨鹿路367号,121.4598822111473,31.222873859747132
10g9482,1,巨鹿路383弄,121.45929513069251,31.222513681500526
10g9483,1,巨鹿路3号,121.46918458254032,31.223650622525227
10g9484,1,聚奎街43号,121.49648031130236,31.22414558743727
10g9485,1,聚奎新村,121.49611774792739,31.223515071674434
10g9486,1,丽园路1024号,121.47207936131306,31.20558509702029
10g9487,1,丽园路1028号,121.47201211433234,31.20565742671334
10g9488,1,丽园路1032弄,121.47205144123313,31.205165828029727
10g9489,1,丽园路21号,121.49016139412147,31.21116888281095
10g948a,1,丽园路31号,121.48972582730536,31.211309224912895
10g948b,1,丽园路333弄,121.48342772330601,31.20984643996498
10g948c,1,丽园路43弄,121.48926314074124,31.211361810454772
10g948d,1,丽园路468号,121.48273674233303,31.20823063735905
10g948e,1,丽园路488弄,121.48190923119583,31.207772836644004
10g948f,1,丽园路514弄,121.48165772045759,31.20705939219217
10g948g,1,丽园路546号,121.48115189314971,31.20716108701043
10g948h,1,丽园路558号,121.48122048531035,31.207299804124666
10g948i,1,丽园路574弄,121.4810953345998,31.20693784439623
10g948j,1,丽园路59号,121.4891361628937,31.21115435169188
10g948k,1,丽园路640号,121.48026734026156,31.207017881290575
10g948l,1,丽园路642号,121.48040115225983,31.206930413673536
10g948m,1,丽园路694弄,121.47950274580765,31.206944148671404
10g948n,1,丽园路710弄,121.47962434673005,31.206337484037533
10g948o,1,丽园路73号,121.4890416145458,31.210809311036517
10g948p,1,丽园路842弄,121.47602432868847,31.20568922796549
10g948q,1,丽园路871号,121.47598396227674,31.206920179857416
10g948r,1,丽园路873号,121.4761694720943,31.20668816612104
10g948s,1,丽园路875号,121.4760937610326,31.206672795275804
10g948t,1,丽园路885号,121.47498818652825,31.20637846271871
10g948u,1,林荫路260弄,121.48651111891337,31.212235064275248
10g948v,1,灵济街39号,121.49549509880978,31.221351002667348
10g948w,1,柳市路80号,121.49879639035188,31.211984483595206
10g948x,1,龙华东路522号,121.48016575150376,31.194541203890807
10g948y,1,龙华东路888弄,121.4711472698214,31.19294939400055
10g948z,1,鲁班路166号,121.47406964656241,31.205599762717544
10g9490,1,鲁班路168弄,121.47323734713294,31.205042282641802
10g9491,1,鲁班路277弄,121.47578985927859,31.204753811207816
10g9492,1,鲁班路509弄,121.47776104699028,31.201444349158255
10g9493,1,鲁班路721弄,121.4786481270706,31.19719507005417
10g9494,1,鲁班路738弄,121.4776475849819,31.194220380900507
10g9495,1,鲁班路776弄,121.47779950943918,31.194319924856476
10g9496,1,鲁班路778弄,121.47867646285248,31.192946363227406
10g9497,1,鲁班路88弄,121.47287769725683,31.20687815529856
10g9498,1,陆家浜路1011号,121.48895924077071,31.21238970216122
10g9499,1,陆家浜路1018弄,121.48902410414625,31.21161357163586
10g949a,1,陆家浜路1034弄,121.48911786612979,31.21164199192155
10g949b,1,陆家浜路1088号,121.48780769820478,31.21203124680735
10g949c,1,陆家浜路1235弄,121.48520589852829,31.21188838874145
10g949d,1,陆家浜路1300号,121.48403303468503,31.211276096969115
10g949e,1,陆家浜路388号,121.49960449692216,31.210903929407976
10g949f,1,陆家浜路413弄,121.4996957233018,31.212349594086174
10g949g,1,陆家浜路418号,121.49954321328386,31.210968622356116
10g949h,1,陆家浜路468弄,121.49729993838842,31.210422391307354
10g949i,1,陆家浜路804弄,121.49297997598039,31.212192166847508
10g949j,1,陆家宅路115号,121.49539535514695,31.224362854749927
10g949k,1,陆家宅路91弄,121.49575630204632,31.22430714859659
10g949l,1,马当路183号,121.47505072921888,31.218871614100824
10g949m,1,马当路278弄,121.47382271139048,31.21755774870291
10g949n,1,马当路306弄,121.47467884079049,31.217260732137692
10g949o,1,马当路318弄,121.47451500955317,31.21708541291358
10g949p,1,马当路328弄,121.47436921367024,31.21669143150904
10g949q,1,马当路357弄,121.47590187389373,31.21337401575297
10g949r,1,马当路528号,121.47568424277365,31.211231523715757
10g949s,1,马当路588弄,121.47597099941436,31.210395440892114
10g949t,1,毛家园路88弄,121.50276391222847,31.218543869818685
10g949u,1,茂名南路169弄,121.46269732834594,31.21513835555283
10g949v,1,茂名南路56弄,121.45999783807527,31.22155542193752
10g949w,1,茂名南路58号,121.45980191472262,31.220024197405436
10g949x,1,蒙自路252弄,121.47772035054146,31.205232565597836
10g949y,1,蒙自路328号,121.47823842671885,31.205072767924623
10g949z,1,蒙自路345弄,121.47848872917912,31.204377552644637
10g94a0,1,蒙自路395弄,121.48017990982925,31.20300312328952
10g94a1,1,蒙自路440弄,121.47881508666386,31.202084913953772
10g94a2,1,蒙自路490弄,121.47941904873865,31.200791110253178
10g94a3,1,蒙自路778弄,121.47807552959034,31.205004022252755
10g94a4,1,蒙自路826号,121.47805741981968,31.20504417002147
10g94a5,1,蒙自西路12号,121.47616614270494,31.207528128903046
10g94a6,1,蒙自西路2号,121.47645505352445,31.207524884100096
10g94a7,1,梦花街114弄,121.48758889528926,31.21895159006488
10g94a8,1,梦花街163弄,121.4866286062975,31.218843944821344
10g94a9,1,梦花街181号,121.48652925758282,31.21834415942998
10g94aa,1,面筋弄12弄,121.49831409758751,31.22048313392817
10g94ab,1,面筋弄24号,121.4985020016904,31.220417513085184
10g94ac,1,面筋弄6号,121.49866227458286,31.220503749240734
10g94ad,1,苗江路888号,121.49860411431983,31.19968425483744
10g94ae,1,木桥街42号,121.48534516434226,31.22166731112177
10g94af,1,南昌路110弄,121.46840082040592,31.219303241742466
10g94ag,1,南昌路125号,121.46366888541033,31.217173037589085
10g94ah,1,南昌路127弄,121.4633946890821,31.21741177823839
10g94ai,1,南昌路136弄,121.46772923606552,31.21881271223833
10g94aj,1,南昌路156号,121.46748790405499,31.218733350328705
10g94ak,1,南昌路209弄,121.46022245030977,31.215497663548835
10g94al,1,南昌路212弄,121.46514269154233,31.218218434975636
10g94am,1,南昌路260号,121.46390703113433,31.217694749539998
10g94an,1,南昌路272弄,121.46364674936024,31.217730163719242
10g94ao,1,南昌路278弄,121.46282005718113,31.2174354020011
10g94ap,1,南昌路326号,121.46135920492489,31.216185460842173
10g94aq,1,南昌路338号,121.46142446791752,31.215780094060683
10g94ar,1,南昌路95号,121.46486627945883,31.217552027007645
10g94as,1,南车站路20弄,121.4896835093529,31.21174210376004
10g94at,1,南车站路30弄,121.48945153467946,31.211942716571695
10g94au,1,南京东路120号,121.48733274305818,31.23841723266583
10g94av,1,南京东路138号,121.48721949225082,31.23852620184805
10g94aw,1,南京东路199号,121.48590704707907,31.23752542097249
10g94ax,1,南京东路463号,121.48132838701295,31.235772933700943
10g94ay,1,南京东路789号,121.47595675599575,31.23430536245424
10g94az,1,南孔家弄36弄,121.48601397040952,31.220598870017916
10g94b0,1,南苏州路185号,121.48663086329182,31.243348852243123
10g94b1,1,南苏州路757号,121.4773900295145,31.240571774416715
10g94b2,1,南塘浜路128号,121.47136596177437,31.2027680983805
10g94b3,1,南塘浜路133号,121.4718760339116,31.20315087630346
10g94b4,1,南塘浜路18弄,121.47750032223271,31.20462015623892
10g94b5,1,南塘浜路93弄,121.47400931705243,31.20405610347621
10g94b6,1,宁安路107弄,121.48628363162366,31.216357364606225
10g94b7,1,宁安路123弄,121.48655464737932,31.216263748445556
10g94b8,1,宁安路99弄,121.4860537050669,31.2165435517773
10g94b9,1,宁波路120弄,121.48490793752597,31.239774258515332
10g94ba,1,宁波路201号,121.4836340204501,31.238956192854246
10g94bb,1,宁波路219号,121.48292085208148,31.238930906815387
10g94bc,1,宁波路222号,121.48301155803125,31.23896371669464
10g94bd,1,宁波路266号,121.48213966274082,31.238973480610607
10g94be,1,宁波路284弄,121.48192369721988,31.238681627897815
10g94bf,1,宁波路50号,121.486197722118,31.239959747463967
10g94bg,1,宁波路645号,121.47527164183643,31.236415141075366
10g94bh,1,宁波路74弄,121.48525562405887,31.239628572102283
10g94bi,1,宁海东路279弄,121.48014133055851,31.227719480275113
10g94bj,1,牛庄路692号,121.47681722137116,31.23772442366841
10g94bk,1,牛庄路742号,121.47568771994479,31.23746633783499
10g94bl,1,牌楼路23号,121.48640190150275,31.214101117534568
10g94bm,1,牌楼路41弄,121.48675586644475,31.2138430246364
10g94bn,1,蓬莱路348号,121.48862179988264,31.216688914618185
10g94bo,1,蓬莱路358号,121.4884012887096,31.216492784188805
10g94bp,1,蓬莱路378号,121.48795230062004,31.216348194561576
10g94bq,1,蓬莱路394号,121.48773187406422,31.216206441827406
10g94br,1,蓬莱路402弄,121.48768176908166,31.216449701078524
10g94bs,1,蓬莱路418号,121.48755007082033,31.216250937595916
10g94bt,1,平望街15弄,121.47880911729496,31.231706912137696
10g94bu,1,平望街23号,121.4793566498933,31.231913473450824
10g94bv,1,平望街29号,121.47905771706775,31.231451161865383
10g94bw,1,平望街31号,121.47894524366131,31.231767865869095
10g94bx,1,平望街9号,121.47908464763617,31.231534526124122
10g94by,1,普育东路196号,121.49600512923183,31.209142182823737
10g94bz,1,普育西支路100号,121.49233242484675,31.211786585155835
10g94c0,1,普育西支路81号,121.49247321243445,31.212043510554746
10g94c1,1,普育西支路95号,121.49227554533142,31.212228059673926
10g94c2,1,乔家路21号,121.4975443882602,31.216856880518424
10g94c3,1,乔家路8号,121.49792202350389,31.21623773138848
10g94c4,1,青岛路66弄,121.46805820603782,31.237776947257633
10g94c5,1,瞿溪路1003弄,121.47738176599968,31.19993819864223
10g94c6,1,瞿溪路1060弄,121.47516887504821,31.198639910439713
10g94c7,1,瞿溪路1072弄,121.47427165066708,31.198814340956694
10g94c8,1,瞿溪路1111弄,121.47420956590132,31.20038730356673
10g94c9,1,瞿溪路1145弄,121.47301147161988,31.199296033612804
10g94ca,1,瞿溪路1168号,121.47288394468795,31.19831250984974
10g94cb,1,瞿溪路117号,121.49459347328802,31.20708152862026
10g94cc,1,瞿溪路1195号,121.47135184605814,31.198214929051396
10g94cd,1,瞿溪路1199弄,121.47137994656276,31.19854475999248
10g94ce,1,瞿溪路1200弄,121.47257275756888,31.19738089058209
10g94cf,1,瞿溪路120弄,121.49555496761494,31.206614371017995
10g94cg,1,瞿溪路122号,121.49433446113288,31.206148479415333
10g94ch,1,瞿溪路1254弄,121.470471823267,31.197126731528478
10g94ci,1,瞿溪路132号,121.49368237894825,31.20567852015239
10g94cj,1,瞿溪路19号,121.49679295557657,31.206846718802158
10g94ck,1,瞿溪路889号,121.47919550957651,31.200242126683865
10g94cl,1,瞿溪路904弄,121.47943056447677,31.19975237707932
10g94cm,1,瞿溪路937弄,121.47752090218457,31.200255079447274
10g94cn,1,人民路386号,121.49185743832305,31.230311999046503
10g94co,1,人民路777弄,121.48481460000238,31.2270676766451
10g94cp,1,人民路875号,121.48378402579955,31.22663975767379
10g94cq,1,人民路885号,121.48353248627612,31.225453097085367
10g94cr,1,汝南街66号,121.48474546562362,31.202922862124346
10g94cs,1,瑞金二路111号,121.46525320312112,31.214879545942193
10g94ct,1,瑞金二路130号,121.4658303761227,31.211216980739618
10g94cu,1,瑞金二路137号,121.46531638234563,31.213708274842155
10g94cv,1,瑞金二路163号,121.46562043203001,31.21305851263514
10g94cw,1,瑞金二路200弄,121.46596880962348,31.208879083997164
10g94cx,1,瑞金二路225弄,121.4676532143956,31.207934873339497
10g94cy,1,瑞金二路24弄,121.4640931479471,31.218063227868278
10g94cz,1,瑞金二路384号,121.46675540125467,31.20689430043999
10g94d0,1,瑞金二路38号,121.46412748412679,31.217357705388032
10g94d1,1,瑞金二路410弄,121.46606988992271,31.206963802674704
10g94d2,1,瑞金二路48弄,121.46371254200562,31.216024677104254
10g94d3,1,瑞金二路70弄,121.46410982721979,31.215605809462968
10g94d4,1,瑞金南路185弄,121.46892411133501,31.20037376477287
10g94d5,1,瑞金南路1号,121.46748991855216,31.204491192446863
10g94d6,1,瑞金南路333弄,121.46937427037967,31.198552642897166
10g94d7,1,瑞金南路345弄,121.46990271472261,31.197255698590535
10g94d8,1,瑞金一路126弄,121.46333503044222,31.219704542948804
10g94d9,1,瑞金一路165号,121.46379183152648,31.220222409445945
10g94da,1,三牌楼路135号,121.49256584700423,31.222316688954443
10g94db,1,三牌楼路61弄,121.49259902155745,31.223662692142145
10g94dc,1,三牌楼路85号,121.49240526288337,31.22314738550427
10g94dd,1,桑园街38弄,121.49723510775061,31.213586887712935
10g94de,1,沙家街20弄,121.48719326995226,31.21282900924155
10g94df,1,山东北路83号,121.48209529387941,31.239829960059126
10g94dg,1,山东中路33号,121.48474508695553,31.23203057031892
10g94dh,1,山海关路174号,121.46576068564654,31.237270368513496
10g94di,1,山西南路264号,121.48232776350572,31.236496199394825
10g94dj,1,山西南路296号,121.48157109771454,31.238778417688295
10g94dk,1,山西南路31弄,121.483166786708,31.2349780059534
10g94dl,1,陕西南路155号,121.46093705626436,31.215108745408372
10g94dm,1,陕西南路15号,121.45723944724543,31.221844900690776
10g94dn,1,陕西南路255号,121.46180103162624,31.20811381875307
10g94do,1,陕西南路271弄,121.46409285860776,31.20846113281706
10g94dp,1,陕西南路287弄,121.4622997656074,31.207454650711195
10g94dq,1,陕西南路307弄,121.46257902177237,31.205889658264113
10g94dr,1,陕西南路333弄,121.46276622072884,31.204837249437947
10g94ds,1,陕西南路5号,121.45732352061049,31.222823031118747
10g94dt,1,陕西南路63弄,121.45890940953554,31.218272744235772
10g94du,1,陕西南路l5号,121.45764712736947,31.22273012243713
10g94dv,1,尚文路133弄,121.49128406226465,31.215873965311943
10g94dw,1,尚文路168号,121.4905097846638,31.21512897696213
10g94dx,1,尚文路185号,121.49026562427045,31.215313685782444
10g94dy,1,尚文路60号,121.49287819464509,31.21602287644112
10g94dz,1,绍兴路33号,121.46292457877553,31.208752344800956
10g94e0,1,绍兴路52弄,121.46431816110476,31.20973424027428
10g94e1,1,绍兴路58号,121.46389912076128,31.209578700259865
10g94e2,1,绍兴路60号,121.4638527400617,31.209338728901827
10g94e3,1,绍兴路76弄,121.46335215641626,31.209263948560967
10g94e4,1,绍兴路80号,121.46309972391748,31.209049526434647
10g94e5,1,绍兴路86号,121.46285424615472,31.20903272818323
10g94e6,1,绍兴路96弄,121.462294634567,31.209151954848537
10g94e7,1,绍兴路9号,121.46415663819673,31.209407192089877
10g94e8,1,寿宁路10弄,121.4824032748252,31.224412716250793
10g94e9,1,寿宁路98号,121.48075610562947,31.223759821549407
10g94ea,1,顺昌路168弄,121.47715460987827,31.217933775999597
10g94eb,1,顺昌路550弄,121.47924962739806,31.211699714909987
10g94ec,1,顺昌路560号,121.4796256567604,31.211713832463722
10g94ed,1,顺昌路612弄26号,121.47920057141262,31.211263156989713
10g94ee,1,顺昌路612弄43号,121.4791948313705,31.211384375747706
10g94ef,1,顺昌路612弄44号,121.47895353434039,31.21121539164911
10g94eg,1,顺昌路612弄52号,121.47903571725557,31.21129860056777
10g94eh,1,思南路113号,121.47102810098605,31.208696424226428
10g94ei,1,思南路115弄,121.47128566253016,31.20855953579632
10g94ej,1,思南路82弄,121.47019462855963,31.209615228766573
10g94ek,1,思南路88弄,121.47076222591379,31.208671089453926
10g94el,1,思南路9号,121.46613764565919,31.219068584314197
10g94em,1,四川南路25弄,121.49084205770971,31.232013703740783
10g94en,1,四川南路68号,121.4906317525236,31.230233360909015
10g94eo,1,四川中路126弄,121.48966915300548,31.234700758004603
10g94ep,1,四川中路33号,121.48931821901141,31.233178264540097
10g94eq,1,四川中路423弄,121.48677325324093,31.23909840987107
10g94er,1,四川中路563号,121.48665224841204,31.241242401289565
10g94es,1,四川中路565号,121.48657200821413,31.2413635214124
10g94et,1,四川中路615号,121.48608428700325,31.242401765336826
10g94eu,1,四川中路629号,121.48624237859309,31.242661299499026
10g94ev,1,四川中路668号,121.48424131622441,31.24248757887406
10g94ew,1,四牌楼路104号,121.4955189458358,31.224005033925142
10g94ex,1,四牌楼路106号,121.4950247994351,31.22382461327708
10g94ey,1,四牌楼路108号,121.49497909545057,31.223674607429775
10g94ez,1,四牌楼路110号,121.4955869529365,31.223585476521663
10g94f0,1,四牌楼路113号,121.4952587531329,31.22352034170032
10g94f1,1,四牌楼路114号,121.49517081442032,31.223453704657437
10g94f2,1,四牌楼路116号,121.49509571684833,31.223536064585446
10g94f3,1,四牌楼路126号,121.49515113542368,31.223219873598946
10g94f4,1,四牌楼路149号,121.49559246087381,31.222741497835223
10g94f5,1,四牌楼路71号,121.49535037771508,31.2244223671224
10g94f6,1,泗泾路10号,121.48719972505273,31.23378899527161
10g94f7,1,泗泾路24号,121.48709224777414,31.233657213364513
10g94f8,1,泗泾路36号,121.4864144071147,31.233609726048915
10g94f9,1,泰康路10弄,121.4718850891976,31.208505051410366
10g94fa,1,泰康路210弄,121.46885665379008,31.208418199255366
10g94fb,1,泰康路21号,121.47058923304832,31.207850028020825
10g94fc,1,泰康路248弄,121.46869737891093,31.208342698425547
10g94fd,1,泰康路252号,121.46865929968321,31.207633774747347
10g94fe,1,泰康路274弄,121.46803583884306,31.2076564336253
10g94ff,1,泰康路316弄,121.46746344656327,31.20726222514381
10g94fg,1,泰康路318号,121.46767665590865,31.207704328100167
10g94fh,1,泰康路324号,121.4673426197777,31.20745164491588
10g94fi,1,泰康路3号,121.47127237936677,31.208232713012166
10g94fj,1,唐家湾路158号,121.48158643695885,31.213956701690815
10g94fk,1,桃源路111弄,121.47889229734584,31.223974903593646
10g94fl,1,天津路110弄,121.48396774675525,31.239029381893573
10g94fm,1,天津路138弄,121.48347896574604,31.238486928192458
10g94fn,1,天津路157弄,121.48347066341518,31.23780723990014
10g94fo,1,天津路170弄,121.48290126250119,31.238888792891476
10g94fp,1,天津路179弄,121.48298548209297,31.23790192459958
10g94fq,1,天津路195弄,121.48268749961383,31.237571084962397
10g94fr,1,天津路236弄,121.48150411396526,31.237802811579822
10g94fs,1,天津路44弄,121.48544142650928,31.23901360083098
10g94ft,1,天津路478弄,121.4784408170856,31.236311625332583
10g94fu,1,天津路500号,121.47737812166275,31.23623844860218
10g94fv,1,铁道路676号,121.47654855622466,31.196436533768885
10g94fw,1,望云路35号,121.49254694975117,31.2216144256461
10g94fx,1,望云路45号,121.49237995639453,31.221500688092878
10g94fy,1,威海路163号,121.46813746864014,31.22739529289452
10g94fz,1,威海路176号,121.46801713669423,31.22790538151006
10g94g0,1,威海路20号,121.47077826067753,31.22839138335553
10g94g1,1,文庙路60弄,121.49032123360001,31.219018730979695
10g94g2,1,吴家弄27弄,121.48897897843852,31.227282558350176
10g94g3,1,五里桥路235弄,121.48014221451619,31.203953808700245
10g94g4,1,五里桥路269弄,121.47972595710525,31.203947101008406
10g94g5,1,武胜路429弄,121.4713685377943,31.227489048364085
10g94g6,1,西仓桥街112弄,121.48986179440486,31.220497876313665
10g94g7,1,西藏南路1108弄,121.48538501791583,31.210670786546306
10g94g8,1,西藏南路1号,121.47931663446684,31.22809221307102
10g94g9,1,西藏南路381号,121.4815668535851,31.222358674632673
10g94ga,1,西藏南路555弄,121.48332913088203,31.219651867976467
10g94gb,1,西藏南路688弄,121.48311653763207,31.21648853539875
10g94gc,1,西藏南路699弄,121.4846351635794,31.217781285844524
10g94gd,1,西藏南路748号,121.48402747305283,31.21627545616927
10g94ge,1,西藏南路900弄,121.48456091840283,31.21357983056164
10g94gf,1,西藏中路200号,121.47691087517985,31.23156065366108
10g94gg,1,西凌家宅路101号,121.48645270815649,31.204098473697865
10g94gh,1,西凌家宅路111弄,121.48643415221322,31.20544534345898
10g94gi,1,西凌家宅路146号,121.4855848045998,31.204014721404555
10g94gj,1,西凌家宅路58号,121.48700654148303,31.204109700925734
10g94gk,1,西凌家宅路86号,121.48651452859829,31.204258784584322
10g94gl,1,西凌家宅路98号,121.4861551811167,31.203912865498634
10g94gm,1,西姚家弄11号,121.49708177796977,31.22261619070064
10g94gn,1,西姚家弄21弄,121.4970268679608,31.223885532356746
10g94go,1,西姚家弄25号,121.49692805313198,31.222663148877835
10g94gp,1,西姚家弄27号,121.49681419616851,31.2224505133032
10g94gq,1,西姚家弄31号,121.49658477986564,31.222658863765353
10g94gr,1,西姚家弄33号,121.49644002165424,31.22208463778971
10g94gs,1,西姚家弄51号,121.49617657857539,31.222602889181513
10g94gt,1,西姚家弄53号,121.49615846938461,31.222378109794086
10g94gu,1,西姚家弄55号,121.49598820419746,31.22258995854942
10g94gv,1,先棉祠北弄40号,121.4913590234794,31.21766113888599
10g94gw,1,县左街14号,121.49498040969803,31.224413541174815
10g94gx,1,县左街20弄,121.49494167283538,31.22447800195961
10g94gy,1,县左街6号,121.49497169634677,31.22435972506425
10g94gz,1,香港路130号,121.48524858961463,31.24267194700155
10g94h0,1,香港路150号,121.48495633895958,31.242279315925785
10g94h1,1,香港路55号,121.4870012772175,31.24288999133781
10g94h2,1,小桃园街50弄,121.48921528829251,31.220800189447377
10g94h3,1,斜土路102号,121.4831182302221,31.206032562276473
10g94h4,1,斜土路114号,121.48273272296962,31.206123676338812
10g94h5,1,斜土路118弄,121.48289162305207,31.20543937051897
10g94h6,1,斜土路145弄,121.48221763736827,31.206130788725673
10g94h7,1,斜土路169号,121.48210824335459,31.206149955811192
10g94h8,1,斜土路185号,121.46217692888854,31.198114019996094
10g94h9,1,斜土路195弄,121.48200129949512,31.206394540461762
10g94ha,1,斜土路251弄,121.48048873166904,31.206015109732675
10g94hb,1,斜土路280号,121.4804162312374,31.205088785998765
10g94hc,1,斜土路282弄,121.46225018860113,31.1982162601002
10g94hd,1,斜土路298弄,121.48049767336316,31.20455885735062
10g94he,1,斜土路330弄,121.47933556233069,31.20420090157359
10g94hf,1,斜土路338号,121.47932702970236,31.20466816514796
10g94hg,1,斜土路456号,121.47769918173712,31.20371262163354
10g94hh,1,斜土路460弄,121.4777426786611,31.203096365647745
10g94hi,1,斜土路486弄,121.47765376264341,31.202504978560597
10g94hj,1,斜土路520号,121.47641560856127,31.2032214673065
10g94hk,1,斜土路530号,121.47645748820989,31.20291920523317
10g94hl,1,斜土路550弄,121.47645755195568,31.20311458233979
10g94hm,1,斜土路556弄,121.47582997575087,31.202334948758278
10g94hn,1,斜土路645号,121.47350892352172,31.20308563733684
10g94ho,1,斜土路678弄,121.47321441467653,31.202057228172986
10g94hp,1,斜土路766弄,121.47219005216802,31.200967260830506
10g94hq,1,斜土路80弄,121.48365516402352,31.20538999311016
10g94hr,1,斜土路810弄,121.46999690687788,31.200845650868345
10g94hs,1,新昌路295弄,121.46809647523746,31.23584005767768
10g94ht,1,新昌路300弄,121.46827255137785,31.23611228342629
10g94hu,1,新昌路346号,121.46778656884476,31.23674887027167
10g94hv,1,新昌路350号,121.46762364728939,31.236865762677134
10g94hw,1,新昌路477弄,121.46658582583223,31.23816764958704
10g94hx,1,新桥路52弄,121.46596430526508,31.2399456162719
10g94hy,1,新闸路274号,121.46776547376504,31.239041326181702
10g94hz,1,新闸路280号,121.4675142497782,31.239331398635514
10g94i0,1,兴业路168弄,121.47400076241331,31.219557121277248
10g94i1,1,徐家汇路1弄,121.48201516301248,31.210114536028428
10g94i2,1,徐家汇路258号,121.47045453978419,31.20614763722644
10g94i3,1,徐家汇路268号,121.47718770900909,31.210529666909434
10g94i4,1,徐家汇路388号,121.47409992540928,31.20893502198702
10g94i5,1,徐家汇路454弄,121.47027870177871,31.207490994884207
10g94i6,1,徐家汇路515弄,121.47540756612123,31.20858213014111
10g94i7,1,徐家汇路518号,121.47127985773957,31.207666347650726
10g94i8,1,徐家汇路531弄,121.47056381944878,31.206301450463833
10g94i9,1,徐家汇路536弄,121.47272433504861,31.20301091945835
10g94ia,1,徐家汇路552弄,121.47002601461512,31.206917908286506
10g94ib,1,徐家汇路585号,121.47149443480913,31.20557594694453
10g94ic,1,徐家汇路618号,121.46843541229268,31.206381222383193
10g94id,1,徐家汇路77弄,121.4807259071824,31.20964028775545
10g94ie,1,学前街100号,121.48931895324631,31.215971110887693
10g94if,1,学前街156号,121.48993521237514,31.214749733633358
10g94ig,1,学院路112弄,121.494971448859,31.222838815708656
10g94ih,1,学院路121弄,121.49539619908555,31.223479876918407
10g94ii,1,学院路131号,121.49491055891406,31.223818550488378
10g94ij,1,学院路135号,121.49437161127862,31.223119093340586
10g94ik,1,学院路228号,121.49287617928653,31.222967905614368
10g94il,1,学院路32弄,121.49636556287635,31.22298614894187
10g94im,1,学院路68号,121.4962160156192,31.22317596406073
10g94in,1,学院路79弄,121.49597328992046,31.223371837384214
10g94io,1,巡道街24号,121.49735417247503,31.220695840651192
10g94ip,1,巡道街26号,121.49737231560908,31.22059151940172
10g94iq,1,巡道街49号,121.49759478820155,31.22003483590197
10g94ir,1,巡道街8号,121.49756498696978,31.22075084193428
10g94is,1,延安东路1200号,121.47269345453714,31.22623917643193
10g94it,1,延安东路128弄,121.48863799713563,31.231950225173463
10g94iu,1,延安东路223弄,121.48363307291717,31.230652677790207
10g94iv,1,延安东路27号,121.49032838220982,31.23205583049589
10g94iw,1,延安东路385号,121.48048169356127,31.229602086902183
10g94ix,1,延安中路527号,121.46039714697726,31.22335157870048
10g94iy,1,延安中路529弄,121.46007960858124,31.22362596296521
10g94iz,1,延安中路531号,121.46012986123864,31.223600151677733
10g94j0,1,延安中路535弄,121.45985850660266,31.22350287224201
10g94j1,1,延安中路545弄,121.4592948477164,31.223413758432695
10g94j2,1,雁荡路10弄,121.47002221217326,31.22107749135416
10g94j3,1,雁荡路13号,121.47031344938287,31.220845312739414
10g94j4,1,雁荡路55弄,121.47035026216545,31.21969789369673
10g94j5,1,也是园弄32号,121.49339221542081,31.216521158233796
10g94j6,1,也是园弄42弄,121.49298698408553,31.217002385206804
10g94j7,1,迎勋北路131号,121.49083769968112,31.215529796733065
10g94j8,1,迎勋北路8弄,121.48949304873432,31.217011169281975
10g94j9,1,迎勋路100弄,121.49108282975018,31.21283890572441
10g94ja,1,迎勋路69号,121.4924134188524,31.213296203536157
10g94jb,1,迎勋路8弄,121.49153199369943,31.21392172606186
10g94jc,1,永安路13弄,121.49167499691525,31.230919000231346
10g94jd,1,永安路14号,121.49178537093829,31.230584430559695
10g94je,1,永嘉路21弄,121.46396587149691,31.210874168502418
