[{"SH_ID_36":"10gcigx","区36":"f","地址":"白萱路99弄","lng":121.59145839417384,"lat":31.329899754172473,"确诊日期36":"1d"},{"SH_ID_36":"10gcigy","区36":"f","地址":"白杨路1155弄","lng":121.56038116905553,"lat":31.1911306685736,"确诊日期36":"1d"},{"SH_ID_36":"10gcigz","区36":"f","地址":"白杨路199弄","lng":121.55603107437686,"lat":31.207948907944328,"确诊日期36":"1d"},{"SH_ID_36":"10gcih0","区36":"f","地址":"白杨路360弄","lng":121.55507265123826,"lat":31.205518266335222,"确诊日期36":"1d"},{"SH_ID_36":"10gcih1","区36":"f","地址":"板泉路1000弄","lng":121.50763239541946,"lat":31.161033187225012,"确诊日期36":"1d"},{"SH_ID_36":"10gcih2","区36":"f","地址":"板泉路1555弄","lng":121.51022523639455,"lat":31.163415395730965,"确诊日期36":"1d"},{"SH_ID_36":"10gcih3","区36":"f","地址":"板泉路2000弄","lng":121.53133493755303,"lat":31.165584145638864,"确诊日期36":"1d"},{"SH_ID_36":"10gcih4","区36":"f","地址":"板泉路2101弄","lng":121.53192973522233,"lat":31.168317110905516,"确诊日期36":"1d"},{"SH_ID_36":"10gcih5","区36":"f","地址":"板泉路50号","lng":121.49448342181726,"lat":31.158016614451455,"确诊日期36":"1d"},{"SH_ID_36":"10gcih6","区36":"f","地址":"北艾路1200弄","lng":121.53291312978227,"lat":31.18369466821967,"确诊日期36":"1d"},{"SH_ID_36":"10gcih7","区36":"f","地址":"北艾路155弄","lng":121.54280308732183,"lat":31.185907367332007,"确诊日期36":"1d"},{"SH_ID_36":"10gcih8","区36":"f","地址":"北艾路1643弄","lng":121.52460581869622,"lat":31.180071103730274,"确诊日期36":"1d"},{"SH_ID_36":"10gcih9","区36":"f","地址":"北艾路1660弄","lng":121.52366882715243,"lat":31.181198560841977,"确诊日期36":"1d"},{"SH_ID_36":"10gciha","区36":"f","地址":"北艾路1765弄","lng":121.52319277766729,"lat":31.177909489381417,"确诊日期36":"1d"},{"SH_ID_36":"10gcihb","区36":"f","地址":"北蔡大街31弄","lng":121.55441502165795,"lat":31.18742850869939,"确诊日期36":"1d"},{"SH_ID_36":"10gcihc","区36":"f","地址":"北蔡镇北蔡村丁家宅","lng":121.55636471026013,"lat":31.18243591063922,"确诊日期36":"1d"},{"SH_ID_36":"10gcihd","区36":"f","地址":"北蔡镇联勤村冯桥队冯家宅","lng":121.5512447427735,"lat":31.165083721535392,"确诊日期36":"1d"},{"SH_ID_36":"10gcihe","区36":"f","地址":"北蔡镇联勤村冯桥队张家宅","lng":121.55150061090333,"lat":31.168563346882404,"确诊日期36":"1d"},{"SH_ID_36":"10gcihf","区36":"f","地址":"北蔡镇联勤村李家队李家宅","lng":121.55119412500682,"lat":31.16179258174481,"确诊日期36":"1d"},{"SH_ID_36":"10gcihg","区36":"f","地址":"北蔡镇联勤村麦家宅","lng":121.54783716872538,"lat":31.16408639054935,"确诊日期36":"1d"},{"SH_ID_36":"10gcihh","区36":"f","地址":"北蔡镇联勤村张家队张家宅","lng":121.54772701402662,"lat":31.16784366402888,"确诊日期36":"1d"},{"SH_ID_36":"10gcihi","区36":"f","地址":"北蔡镇南新村东钟家宅","lng":121.54241446403256,"lat":31.166626361067582,"确诊日期36":"1d"},{"SH_ID_36":"10gcihj","区36":"f","地址":"北蔡镇南新村吴家宅","lng":121.54347334053924,"lat":31.166060394278556,"确诊日期36":"1d"},{"SH_ID_36":"10gcihk","区36":"f","地址":"北蔡镇南新村西钟家宅","lng":121.54131426069567,"lat":31.166437317855404,"确诊日期36":"1d"},{"SH_ID_36":"10gcihl","区36":"f","地址":"北蔡镇南新村徐家宅","lng":121.54340741408663,"lat":31.166114461558422,"确诊日期36":"1d"},{"SH_ID_36":"10gcihm","区36":"f","地址":"北蔡镇南新村杨家湾","lng":121.54642048260772,"lat":31.165489613648965,"确诊日期36":"1d"},{"SH_ID_36":"10gcihn","区36":"f","地址":"北蔡镇南新村赵家厍","lng":121.53819112179741,"lat":31.1699000749693,"确诊日期36":"1d"},{"SH_ID_36":"10gciho","区36":"f","地址":"北蔡镇潘姚村西刘队刘家宅","lng":121.57715287295656,"lat":31.182207906399192,"确诊日期36":"1d"},{"SH_ID_36":"10gcihp","区36":"f","地址":"北蔡镇卫行村顾家队张家宅","lng":121.58315163373852,"lat":31.166831409678565,"确诊日期36":"1d"},{"SH_ID_36":"10gcihq","区36":"f","地址":"北蔡镇卫行村沈家队沈家宅","lng":121.5800556843448,"lat":31.15868944811961,"确诊日期36":"1d"},{"SH_ID_36":"10gcihr","区36":"f","地址":"北蔡镇卫行村张浜队南顾家宅","lng":121.5818720876577,"lat":31.16580079728821,"确诊日期36":"1d"},{"SH_ID_36":"10gcihs","区36":"f","地址":"北蔡镇卫行村张浜队王家宅","lng":121.67877281591745,"lat":31.165547586711547,"确诊日期36":"1d"},{"SH_ID_36":"10gciht","区36":"f","地址":"北蔡镇卫行村张浜队杨家宅","lng":121.5799778009468,"lat":31.16591336724414,"确诊日期36":"1d"},{"SH_ID_36":"10gcihu","区36":"f","地址":"北蔡镇五星村陈家队陈家宅","lng":121.56748148316487,"lat":31.191953870626747,"确诊日期36":"1d"},{"SH_ID_36":"10gcihv","区36":"f","地址":"北蔡镇五星村家务队顾家宅","lng":121.56989945616273,"lat":31.169276771893852,"确诊日期36":"1d"},{"SH_ID_36":"10gcihw","区36":"f","地址":"北蔡镇五星村吴家队吴家宅","lng":121.57192050465474,"lat":31.173956854045844,"确诊日期36":"1d"},{"SH_ID_36":"10gcihx","区36":"f","地址":"北蔡镇杨桥村蒋家队北季家宅","lng":121.5731406586347,"lat":31.193526000880222,"确诊日期36":"1d"},{"SH_ID_36":"10gcihy","区36":"f","地址":"北蔡镇杨桥村西计队西计家宅","lng":121.57810817265944,"lat":31.190077751150756,"确诊日期36":"1d"},{"SH_ID_36":"10gcihz","区36":"f","地址":"北蔡镇一六村金桥队南赵家宅","lng":121.5892013672584,"lat":31.16008906686193,"确诊日期36":"1d"},{"SH_ID_36":"10gcii0","区36":"f","地址":"北蔡镇御桥村姚家队姚家宅","lng":121.55462344810854,"lat":31.167300186056558,"确诊日期36":"1d"},{"SH_ID_36":"10gcii1","区36":"f","地址":"北蔡镇中界村陈家队陈家宅","lng":121.56602135753657,"lat":31.192395116699014,"确诊日期36":"1d"},{"SH_ID_36":"10gcii2","区36":"f","地址":"北蔡镇中界村复兴队陈家宅","lng":121.57155011723059,"lat":31.1877701406199,"确诊日期36":"1d"},{"SH_ID_36":"10gcii3","区36":"f","地址":"北蔡镇中界村复兴队顾家宅","lng":121.57155565426336,"lat":31.187639751025838,"确诊日期36":"1d"},{"SH_ID_36":"10gcii4","区36":"f","地址":"北蔡镇中界村复兴队苏家宅","lng":121.57058892587106,"lat":31.184730321335948,"确诊日期36":"1d"},{"SH_ID_36":"10gcii5","区36":"f","地址":"北蔡镇中界村黄家队黄家宅","lng":121.57293296451034,"lat":31.18507031052915,"确诊日期36":"1d"},{"SH_ID_36":"10gcii6","区36":"f","地址":"北蔡镇中界村黄家队孔家圈","lng":121.57395896117129,"lat":31.183768460838223,"确诊日期36":"1d"},{"SH_ID_36":"10gcii7","区36":"f","地址":"北蔡镇中界村林家队苏家宅","lng":121.57054500155262,"lat":31.184706562750005,"确诊日期36":"1d"},{"SH_ID_36":"10gcii8","区36":"f","地址":"北蔡镇中界村林家队中界庙","lng":121.57118327656242,"lat":31.184835148140856,"确诊日期36":"1d"},{"SH_ID_36":"10gcii9","区36":"f","地址":"北蔡镇中界村陆家队陆家宅","lng":121.70831881360787,"lat":31.209241283007632,"确诊日期36":"1d"},{"SH_ID_36":"10gciia","区36":"f","地址":"北蔡镇中界村沈家队沈家宅","lng":121.52156731896952,"lat":31.18924380547078,"确诊日期36":"1d"},{"SH_ID_36":"10gciib","区36":"f","地址":"北蔡镇中界村沈家队姚家宅","lng":121.57658452025665,"lat":31.18424772784709,"确诊日期36":"1d"},{"SH_ID_36":"10gciic","区36":"f","地址":"北蔡镇中界村苏家队苏家宅","lng":121.57065715159754,"lat":31.1853668892229,"确诊日期36":"1d"},{"SH_ID_36":"10gciid","区36":"f","地址":"北蔡镇中界村庄家队蔡家宅","lng":121.56781997749991,"lat":31.189281415827566,"确诊日期36":"1d"},{"SH_ID_36":"10gciie","区36":"f","地址":"北城壕路111弄","lng":121.70121296267016,"lat":31.197688140213565,"确诊日期36":"1d"},{"SH_ID_36":"10gciif","区36":"f","地址":"北新园路350弄","lng":121.62508862063727,"lat":31.32209742666514,"确诊日期36":"1d"},{"SH_ID_36":"10gciig","区36":"f","地址":"北园路258弄","lng":121.52377049815368,"lat":31.202655713362585,"确诊日期36":"1d"},{"SH_ID_36":"10gciih","区36":"f","地址":"北张家浜路58号","lng":121.52058452075293,"lat":31.21576326010609,"确诊日期36":"1d"},{"SH_ID_36":"10gciii","区36":"f","地址":"北中路278弄","lng":121.55662512040502,"lat":31.183044902152282,"确诊日期36":"1d"},{"SH_ID_36":"10gciij","区36":"f","地址":"北中路280弄","lng":121.55758332529308,"lat":31.183643331584094,"确诊日期36":"1d"},{"SH_ID_36":"10gciik","区36":"f","地址":"北中路354弄","lng":121.55967245370682,"lat":31.183341145814104,"确诊日期36":"1d"},{"SH_ID_36":"10gciil","区36":"f","地址":"北中路383弄","lng":121.55960290493975,"lat":31.184888977668233,"确诊日期36":"1d"},{"SH_ID_36":"10gciim","区36":"f","地址":"滨江大道福山路交界口工地生活区","lng":121.52793641183814,"lat":31.24237697231468,"确诊日期36":"1d"},{"SH_ID_36":"10gciin","区36":"f","地址":"博华路1018弄","lng":121.55125652773557,"lat":31.170721671381845,"确诊日期36":"1d"},{"SH_ID_36":"10gciio","区36":"f","地址":"博华路930弄","lng":121.5506661761822,"lat":31.17406435596391,"确诊日期36":"1d"},{"SH_ID_36":"10gciip","区36":"f","地址":"博华路999弄","lng":121.54982974443055,"lat":31.170281503068246,"确诊日期36":"1d"},{"SH_ID_36":"10gciiq","区36":"f","地址":"博山东路112弄","lng":121.56328579983011,"lat":31.24909044062637,"确诊日期36":"1d"},{"SH_ID_36":"10gciir","区36":"f","地址":"博山东路173弄","lng":121.56442689630032,"lat":31.25130897835052,"确诊日期36":"1d"},{"SH_ID_36":"10gciis","区36":"f","地址":"博山东路20弄","lng":121.55978309966882,"lat":31.24548126896461,"确诊日期36":"1d"},{"SH_ID_36":"10gciit","区36":"f","地址":"博山东路553弄","lng":121.56885433501594,"lat":31.255268282956404,"确诊日期36":"1d"},{"SH_ID_36":"10gciiu","区36":"f","地址":"博山东路81弄","lng":121.56138862490786,"lat":31.248665884982973,"确诊日期36":"1d"},{"SH_ID_36":"10gciiv","区36":"f","地址":"博山路11弄","lng":121.55853668465193,"lat":31.245097797576832,"确诊日期36":"1d"},{"SH_ID_36":"10gciiw","区36":"f","地址":"博山路12弄","lng":121.55665217753163,"lat":31.2460873540221,"确诊日期36":"1d"},{"SH_ID_36":"10gciix","区36":"f","地址":"博山路200弄","lng":121.55270627664088,"lat":31.24476377699423,"确诊日期36":"1d"},{"SH_ID_36":"10gciiy","区36":"f","地址":"博山路50弄","lng":121.55579708372271,"lat":31.245926682992337,"确诊日期36":"1d"},{"SH_ID_36":"10gciiz","区36":"f","地址":"博山路51弄","lng":121.55705252589317,"lat":31.244521761488883,"确诊日期36":"1d"},{"SH_ID_36":"10gcij0","区36":"f","地址":"博兴路1676弄","lng":121.60214401499226,"lat":31.275453443081854,"确诊日期36":"1d"},{"SH_ID_36":"10gcij1","区36":"f","地址":"博兴路250弄","lng":121.57893389129971,"lat":31.269160348891994,"确诊日期36":"1d"},{"SH_ID_36":"10gcij2","区36":"f","地址":"博兴路462弄","lng":121.5816607720034,"lat":31.26541491662384,"确诊日期36":"1d"},{"SH_ID_36":"10gcij3","区36":"f","地址":"博兴路465弄","lng":121.58531368630345,"lat":31.26601402781565,"确诊日期36":"1d"},{"SH_ID_36":"10gcij4","区36":"f","地址":"博兴路616弄","lng":121.58497455619231,"lat":31.263419453360484,"确诊日期36":"1d"},{"SH_ID_36":"10gcij5","区36":"f","地址":"博兴路799弄","lng":121.5906576857692,"lat":31.265833876442898,"确诊日期36":"1d"},{"SH_ID_36":"10gcij6","区36":"f","地址":"博兴路916弄","lng":121.59155610513902,"lat":31.264800004229468,"确诊日期36":"1d"},{"SH_ID_36":"10gcij7","区36":"f","地址":"博兴路986弄","lng":121.59332513577792,"lat":31.265421460859883,"确诊日期36":"1d"},{"SH_ID_36":"10gcij8","区36":"f","地址":"彩云路568弄","lng":121.80731988032295,"lat":30.899476676245065,"确诊日期36":"1d"},{"SH_ID_36":"10gcij9","区36":"f","地址":"彩云路843弄","lng":121.80129457132358,"lat":30.89803567720949,"确诊日期36":"1d"},{"SH_ID_36":"10gcija","区36":"f","地址":"曹路镇安基村朱家宅","lng":121.64849585875356,"lat":31.28614726094647,"确诊日期36":"1d"},{"SH_ID_36":"10gcijb","区36":"f","地址":"曹路镇东海村胡家宅","lng":121.67141042314258,"lat":31.300617786321947,"确诊日期36":"1d"},{"SH_ID_36":"10gcijc","区36":"f","地址":"曹路镇东海村张家宅","lng":121.67393456902171,"lat":31.3018986744948,"确诊日期36":"1d"},{"SH_ID_36":"10gcijd","区36":"f","地址":"曹路镇顾东村苍龙桥","lng":121.66145196464747,"lat":31.29740964587453,"确诊日期36":"1d"},{"SH_ID_36":"10gcije","区36":"f","地址":"曹路镇顾东村船板桥","lng":121.66161073875915,"lat":31.295764982867876,"确诊日期36":"1d"},{"SH_ID_36":"10gcijf","区36":"f","地址":"曹路镇顾东村花厅","lng":121.66247155591383,"lat":31.292535998808358,"确诊日期36":"1d"},{"SH_ID_36":"10gcijg","区36":"f","地址":"曹路镇顾东村水洞港","lng":121.66682160048444,"lat":31.292998922852906,"确诊日期36":"1d"},{"SH_ID_36":"10gcijh","区36":"f","地址":"曹路镇顾东村太平","lng":121.6590979059679,"lat":31.301450793154782,"确诊日期36":"1d"},{"SH_ID_36":"10gciji","区36":"f","地址":"曹路镇顾东村田度宅","lng":121.65978187670454,"lat":31.297347792010832,"确诊日期36":"1d"},{"SH_ID_36":"10gcijj","区36":"f","地址":"曹路镇顾东村新屋宅","lng":121.66129542830937,"lat":31.293242449796704,"确诊日期36":"1d"},{"SH_ID_36":"10gcijk","区36":"f","地址":"曹路镇顾三村外金家宅","lng":121.68715834074864,"lat":31.294892465898233,"确诊日期36":"1d"},{"SH_ID_36":"10gcijl","区36":"f","地址":"曹路镇光明村沙桥宅","lng":121.6514955435676,"lat":31.28743679780477,"确诊日期36":"1d"},{"SH_ID_36":"10gcijm","区36":"f","地址":"曹路镇黎明村盛朱村","lng":121.69991538426366,"lat":31.268386228606634,"确诊日期36":"1d"},{"SH_ID_36":"10gcijn","区36":"f","地址":"曹路镇联合村路北宅","lng":121.66701376055941,"lat":31.278546901827863,"确诊日期36":"1d"},{"SH_ID_36":"10gcijo","区36":"f","地址":"曹路镇联合村南浜宅","lng":121.67539404045465,"lat":31.29699013438611,"确诊日期36":"1d"},{"SH_ID_36":"10gcijp","区36":"f","地址":"曹路镇联合村西浜宅","lng":121.67670517854236,"lat":31.298421478642148,"确诊日期36":"1d"},{"SH_ID_36":"10gcijq","区36":"f","地址":"曹路镇联合村西柴场","lng":121.67272476122402,"lat":31.296527049295037,"确诊日期36":"1d"},{"SH_ID_36":"10gcijr","区36":"f","地址":"曹路镇民建村北邵家宅","lng":121.64893601641856,"lat":31.27464396537026,"确诊日期36":"1d"},{"SH_ID_36":"10gcijs","区36":"f","地址":"曹路镇民建村金家宅","lng":121.64977251841334,"lat":31.272744077491435,"确诊日期36":"1d"},{"SH_ID_36":"10gcijt","区36":"f","地址":"曹路镇民建村南邵家宅","lng":121.64870114744407,"lat":31.274280251077094,"确诊日期36":"1d"},{"SH_ID_36":"10gciju","区36":"f","地址":"曹路镇民建村徐家宅","lng":121.65054260394828,"lat":31.27134238179316,"确诊日期36":"1d"},{"SH_ID_36":"10gcijv","区36":"f","地址":"曹路镇启明村龙王庙","lng":121.69651271266173,"lat":31.275357341607187,"确诊日期36":"1d"},{"SH_ID_36":"10gcijw","区36":"f","地址":"曹路镇前锋村夹路村宅","lng":121.69520526831349,"lat":31.27212487467136,"确诊日期36":"1d"},{"SH_ID_36":"10gcijx","区36":"f","地址":"曹路镇前锋村陆家宅","lng":121.65741590797202,"lat":31.25802821652421,"确诊日期36":"1d"},{"SH_ID_36":"10gcijy","区36":"f","地址":"曹路镇前锋村杨张村宅","lng":121.6950800981296,"lat":31.27163219132753,"确诊日期36":"1d"},{"SH_ID_36":"10gcijz","区36":"f","地址":"曹路镇日新村北万家宅","lng":121.66843317173056,"lat":31.262988414331083,"确诊日期36":"1d"},{"SH_ID_36":"10gcik0","区36":"f","地址":"曹路镇日新村南房宅","lng":121.67133382267828,"lat":31.264731409957342,"确诊日期36":"1d"},{"SH_ID_36":"10gcik1","区36":"f","地址":"曹路镇日新村南万家宅","lng":121.67268276742433,"lat":31.260040740564012,"确诊日期36":"1d"},{"SH_ID_36":"10gcik2","区36":"f","地址":"曹路镇日新村杨薛家宅","lng":121.66912921819306,"lat":31.259334933024313,"确诊日期36":"1d"},{"SH_ID_36":"10gcik3","区36":"f","地址":"曹路镇五四村沈孙家宅","lng":121.65172705288334,"lat":31.254424982813383,"确诊日期36":"1d"},{"SH_ID_36":"10gcik4","区36":"f","地址":"曹路镇五四村唐朱家宅","lng":121.6579148044833,"lat":31.251255414842863,"确诊日期36":"1d"},{"SH_ID_36":"10gcik5","区36":"f","地址":"曹路镇新华村强顾家宅","lng":121.66085531001049,"lat":31.264769984236136,"确诊日期36":"1d"},{"SH_ID_36":"10gcik6","区36":"f","地址":"曹路镇新星村胡家宅","lng":121.73078876099497,"lat":31.25068681124725,"确诊日期36":"1d"},{"SH_ID_36":"10gcik7","区36":"f","地址":"曹路镇星火村陆家村宅","lng":121.70172754617897,"lat":31.254226633921512,"确诊日期36":"1d"},{"SH_ID_36":"10gcik8","区36":"f","地址":"曹路镇迅建村蔡家宅","lng":121.69258762238134,"lat":31.281577099673186,"确诊日期36":"1d"},{"SH_ID_36":"10gcik9","区36":"f","地址":"曹路镇迅建村撑圩村","lng":121.69274353234087,"lat":31.28175645433789,"确诊日期36":"1d"},{"SH_ID_36":"10gcika","区36":"f","地址":"曹路镇迅建村黄家宅","lng":121.68944631569224,"lat":31.28028060979623,"确诊日期36":"1d"},{"SH_ID_36":"10gcikb","区36":"f","地址":"曹路镇迅建村季家宅","lng":121.6926947501865,"lat":31.281804450594862,"确诊日期36":"1d"},{"SH_ID_36":"10gcikc","区36":"f","地址":"曹路镇永丰村大徐家宅","lng":121.7018572942357,"lat":31.26350714959808,"确诊日期36":"1d"},{"SH_ID_36":"10gcikd","区36":"f","地址":"曹路镇永丰村孙家宅","lng":121.6918827161086,"lat":31.255705818052434,"确诊日期36":"1d"},{"SH_ID_36":"10gcike","区36":"f","地址":"曹路镇永和村陆万村","lng":121.69796756693111,"lat":31.264590868151608,"确诊日期36":"1d"},{"SH_ID_36":"10gcikf","区36":"f","地址":"曹路镇永乐村曹家油车","lng":121.64195576561896,"lat":31.27773332744011,"确诊日期36":"1d"},{"SH_ID_36":"10gcikg","区36":"f","地址":"曹路镇永乐村东邵家弄","lng":121.64068919674403,"lat":31.273065098578027,"确诊日期36":"1d"},{"SH_ID_36":"10gcikh","区36":"f","地址":"曹路镇永乐村钱家宅","lng":121.63922529359172,"lat":31.269192724125094,"确诊日期36":"1d"},{"SH_ID_36":"10gciki","区36":"f","地址":"曹路镇永利村冯家宅","lng":121.69554329200466,"lat":31.263935227223072,"确诊日期36":"1d"},{"SH_ID_36":"10gcikj","区36":"f","地址":"曹路镇永利村马家宅","lng":121.69578300419646,"lat":31.264106693943237,"确诊日期36":"1d"},{"SH_ID_36":"10gcikk","区36":"f","地址":"曹路镇永利村徐家宅","lng":121.68753384112571,"lat":31.251627331781258,"确诊日期36":"1d"},{"SH_ID_36":"10gcikl","区36":"f","地址":"曹路镇赵桥村大陆家宅","lng":121.64725262428351,"lat":31.289335279350826,"确诊日期36":"1d"},{"SH_ID_36":"10gcikm","区36":"f","地址":"曹路镇众三村顾家宅","lng":121.66877547277234,"lat":31.279462784837218,"确诊日期36":"1d"},{"SH_ID_36":"10gcikn","区36":"f","地址":"草高支路168弄","lng":121.58340899853339,"lat":31.352507274449096,"确诊日期36":"1d"},{"SH_ID_36":"10gciko","区36":"f","地址":"草高支路170弄","lng":121.58061045345518,"lat":31.352436353840556,"确诊日期36":"1d"},{"SH_ID_36":"10gcikp","区36":"f","地址":"长岛路1066弄","lng":121.59017246722652,"lat":31.259838540155638,"确诊日期36":"1d"},{"SH_ID_36":"10gcikq","区36":"f","地址":"长岛路1201弄","lng":121.59233884270851,"lat":31.261407039251036,"确诊日期36":"1d"},{"SH_ID_36":"10gcikr","区36":"f","地址":"长岛路1338弄","lng":121.59740045117208,"lat":31.26309213165895,"确诊日期36":"1d"},{"SH_ID_36":"10gciks","区36":"f","地址":"长岛路1477弄","lng":121.59813341333049,"lat":31.264162297151852,"确诊日期36":"1d"},{"SH_ID_36":"10gcikt","区36":"f","地址":"长岛路1560弄","lng":121.60117756689078,"lat":31.26429345565217,"确诊日期36":"1d"},{"SH_ID_36":"10gciku","区36":"f","地址":"长岛路800弄","lng":121.5867601399717,"lat":31.260137284723783,"确诊日期36":"1d"},{"SH_ID_36":"10gcikv","区36":"f","地址":"长岛路823弄","lng":121.58739381145206,"lat":31.262196117573918,"确诊日期36":"1d"},{"SH_ID_36":"10gcikw","区36":"f","地址":"长岛路99号","lng":121.57811418267354,"lat":31.267723082938854,"确诊日期36":"1d"},{"SH_ID_36":"10gcikx","区36":"f","地址":"长清路643弄","lng":121.49099615346333,"lat":31.159405788484566,"确诊日期36":"1d"},{"SH_ID_36":"10gciky","区36":"f","地址":"长清路693弄","lng":121.49221771893183,"lat":31.157348532125877,"确诊日期36":"1d"},{"SH_ID_36":"10gcikz","区36":"f","地址":"长清路75弄","lng":121.4891315691728,"lat":31.172308938950405,"确诊日期36":"1d"},{"SH_ID_36":"10gcil0","区36":"f","地址":"长清路773弄","lng":121.49214743490224,"lat":31.155891251305984,"确诊日期36":"1d"},{"SH_ID_36":"10gcil1","区36":"f","地址":"长清路807弄","lng":121.4938546587484,"lat":31.156213026109814,"确诊日期36":"1d"},{"SH_ID_36":"10gcil2","区36":"f","地址":"长清路937弄","lng":121.49233403837387,"lat":31.15293101347454,"确诊日期36":"1d"},{"SH_ID_36":"10gcil3","区36":"f","地址":"昌里东路395弄","lng":121.5115027586962,"lat":31.178789274174463,"确诊日期36":"1d"},{"SH_ID_36":"10gcil4","区36":"f","地址":"昌里东路411弄","lng":121.51257105252537,"lat":31.179606483170083,"确诊日期36":"1d"},{"SH_ID_36":"10gcil5","区36":"f","地址":"昌里东路500弄","lng":121.51379694880137,"lat":31.177995356127703,"确诊日期36":"1d"},{"SH_ID_36":"10gcil6","区36":"f","地址":"昌里东路550弄","lng":121.51571296114726,"lat":31.178954120015465,"确诊日期36":"1d"},{"SH_ID_36":"10gcil7","区36":"f","地址":"昌里东路650弄","lng":121.51781968804856,"lat":31.17912143222308,"确诊日期36":"1d"},{"SH_ID_36":"10gcil8","区36":"f","地址":"昌里东路71弄","lng":121.50607048038177,"lat":31.176225646331456,"确诊日期36":"1d"},{"SH_ID_36":"10gcil9","区36":"f","地址":"昌里东路80弄","lng":121.50626724633258,"lat":31.174382351162542,"确诊日期36":"1d"},{"SH_ID_36":"10gcila","区36":"f","地址":"昌里路167弄","lng":121.49763045790924,"lat":31.175166492811645,"确诊日期36":"1d"},{"SH_ID_36":"10gcilb","区36":"f","地址":"昌里路311弄","lng":121.49209076983736,"lat":31.173915023957885,"确诊日期36":"1d"},{"SH_ID_36":"10gcilc","区36":"f","地址":"昌里路340弄","lng":121.4916845183091,"lat":31.172033335706544,"确诊日期36":"1d"},{"SH_ID_36":"10gcild","区36":"f","地址":"昌里路93弄","lng":121.50191784985677,"lat":31.176744507918325,"确诊日期36":"1d"},{"SH_ID_36":"10gcile","区36":"f","地址":"昌邑路1500号","lng":121.53885883071155,"lat":31.244975109073298,"确诊日期36":"1d"},{"SH_ID_36":"10gcilf","区36":"f","地址":"昌邑路55弄","lng":121.5126689894192,"lat":31.240240358163025,"确诊日期36":"1d"},{"SH_ID_36":"10gcilg","区36":"f","地址":"潮乐路21弄","lng":121.85311314187264,"lat":30.871854387063713,"确诊日期36":"1d"},{"SH_ID_36":"10gcilh","区36":"f","地址":"陈春路221弄","lng":121.55298632959213,"lat":31.17235511109088,"确诊日期36":"1d"},{"SH_ID_36":"10gcili","区36":"f","地址":"陈春路620弄","lng":121.5458844606899,"lat":31.17292753668093,"确诊日期36":"1d"},{"SH_ID_36":"10gcilj","区36":"f","地址":"陈邵路103号工地生活区","lng":121.48397259027537,"lat":31.148177426657046,"确诊日期36":"1d"},{"SH_ID_36":"10gcilk","区36":"f","地址":"成山路1488弄","lng":121.5284646955466,"lat":31.17540427604011,"确诊日期36":"1d"},{"SH_ID_36":"10gcill","区36":"f","地址":"成山路1728弄","lng":121.53178294749004,"lat":31.17679899305435,"确诊日期36":"1d"},{"SH_ID_36":"10gcilm","区36":"f","地址":"成山路2008弄","lng":121.53820447492532,"lat":31.179046665730976,"确诊日期36":"1d"},{"SH_ID_36":"10gciln","区36":"f","地址":"成山路2222弄","lng":121.54127375726961,"lat":31.178964528312942,"确诊日期36":"1d"},{"SH_ID_36":"10gcilo","区36":"f","地址":"成山路226弄","lng":121.49728169323325,"lat":31.17118394314587,"确诊日期36":"1d"},{"SH_ID_36":"10gcilp","区36":"f","地址":"成山路2399弄","lng":121.54487209121203,"lat":31.181111903741915,"确诊日期36":"1d"},{"SH_ID_36":"10gcilq","区36":"f","地址":"成山路24弄","lng":121.48558894576202,"lat":31.168073214328327,"确诊日期36":"1d"},{"SH_ID_36":"10gcilr","区36":"f","地址":"成山路544弄","lng":121.50852336473443,"lat":31.169947749330316,"确诊日期36":"1d"},{"SH_ID_36":"10gcils","区36":"f","地址":"成山路608弄","lng":121.50825727004661,"lat":31.171713615151,"确诊日期36":"1d"},{"SH_ID_36":"10gcilt","区36":"f","地址":"成山路648弄","lng":121.51095948604721,"lat":31.171260480608723,"确诊日期36":"1d"},{"SH_ID_36":"10gcilu","区36":"f","地址":"成山路668弄","lng":121.51189740102684,"lat":31.170206327540978,"确诊日期36":"1d"},{"SH_ID_36":"10gcilv","区36":"f","地址":"成山路963弄","lng":121.51562063801771,"lat":31.175817183381817,"确诊日期36":"1d"},{"SH_ID_36":"10gcilw","区36":"f","地址":"诚礼路298弄","lng":121.66713452061154,"lat":31.22488306965398,"确诊日期36":"1d"},{"SH_ID_36":"10gcilx","区36":"f","地址":"城丰路212弄","lng":121.68748270721902,"lat":31.1905742773135,"确诊日期36":"1d"},{"SH_ID_36":"10gcily","区36":"f","地址":"城丰路245弄","lng":121.6860437215155,"lat":31.18917769679547,"确诊日期36":"1d"},{"SH_ID_36":"10gcilz","区36":"f","地址":"城南路550弄","lng":121.6967825716851,"lat":31.191720539049538,"确诊日期36":"1d"},{"SH_ID_36":"10gcim0","区36":"f","地址":"城南路918弄","lng":121.77003261535981,"lat":31.040425046247965,"确诊日期36":"1d"},{"SH_ID_36":"10gcim1","区36":"f","地址":"崇溪路111弄","lng":121.71098522424559,"lat":31.108667856305285,"确诊日期36":"1d"},{"SH_ID_36":"10gcim2","区36":"f","地址":"川北公路3046号","lng":121.61284792585332,"lat":31.205392212853933,"确诊日期36":"1d"},{"SH_ID_36":"10gcim3","区36":"f","地址":"川沙路1258号","lng":121.67817593141946,"lat":31.261403526845896,"确诊日期36":"1d"},{"SH_ID_36":"10gcim4","区36":"f","地址":"川沙路1666弄","lng":121.67925578908338,"lat":31.253927394764215,"确诊日期36":"1d"},{"SH_ID_36":"10gcim5","区36":"f","地址":"川沙路2016号生活区","lng":121.68341776155971,"lat":31.245163573488487,"确诊日期36":"1d"},{"SH_ID_36":"10gcim6","区36":"f","地址":"川沙路389弄","lng":121.66984095051664,"lat":31.278869621119778,"确诊日期36":"1d"},{"SH_ID_36":"10gcim7","区36":"f","地址":"川沙路4197号","lng":121.69400607716194,"lat":31.206327310791227,"确诊日期36":"1d"},{"SH_ID_36":"10gcim8","区36":"f","地址":"川沙路4625弄","lng":121.69842681995146,"lat":31.199088478336517,"确诊日期36":"1d"},{"SH_ID_36":"10gcim9","区36":"f","地址":"川沙路5122弄","lng":121.69762665914024,"lat":31.19016946916712,"确诊日期36":"1d"},{"SH_ID_36":"10gcima","区36":"f","地址":"川沙路5245弄","lng":121.69917801798846,"lat":31.1887586748634,"确诊日期36":"1d"},{"SH_ID_36":"10gcimb","区36":"f","地址":"川沙新镇八灶村郭家宅","lng":121.71576269986171,"lat":31.152983206171022,"确诊日期36":"1d"},{"SH_ID_36":"10gcimc","区36":"f","地址":"川沙新镇八灶村康家宅","lng":121.71644021702232,"lat":31.16001099686796,"确诊日期36":"1d"},{"SH_ID_36":"10gcimd","区36":"f","地址":"川沙新镇柴场村","lng":121.7261008795692,"lat":31.18112802654903,"确诊日期36":"1d"},{"SH_ID_36":"10gcime","区36":"f","地址":"川沙新镇陈桥村","lng":121.6909974139494,"lat":31.14464998191035,"确诊日期36":"1d"},{"SH_ID_36":"10gcimf","区36":"f","地址":"川沙新镇城南村朱家宅","lng":121.6996678785087,"lat":31.187880063372777,"确诊日期36":"1d"},{"SH_ID_36":"10gcimg","区36":"f","地址":"川沙新镇杜坊村","lng":121.69649131361139,"lat":31.17211058198963,"确诊日期36":"1d"},{"SH_ID_36":"10gcimh","区36":"f","地址":"川沙新镇果园村","lng":121.64884433894647,"lat":31.112965915805933,"确诊日期36":"1d"},{"SH_ID_36":"10gcimi","区36":"f","地址":"川沙新镇和平村朱家宅","lng":121.73165455256972,"lat":31.202845559324036,"确诊日期36":"1d"},{"SH_ID_36":"10gcimj","区36":"f","地址":"川沙新镇黄楼村张家宅","lng":121.67522339461597,"lat":31.162317781231412,"确诊日期36":"1d"},{"SH_ID_36":"10gcimk","区36":"f","地址":"川沙新镇会龙村新兴","lng":121.72723282581283,"lat":31.09228262037453,"确诊日期36":"1d"},{"SH_ID_36":"10gciml","区36":"f","地址":"川沙新镇界龙村大顾家宅","lng":121.65866472349526,"lat":31.16995238192814,"确诊日期36":"1d"},{"SH_ID_36":"10gcimm","区36":"f","地址":"川沙新镇界龙村戴家宅","lng":121.67834461483072,"lat":31.17418539558487,"确诊日期36":"1d"},{"SH_ID_36":"10gcimn","区36":"f","地址":"川沙新镇界龙村华家宅","lng":121.65924004273127,"lat":31.16194903371761,"确诊日期36":"1d"},{"SH_ID_36":"10gcimo","区36":"f","地址":"川沙新镇栏杆村周家宅","lng":121.6681846875596,"lat":31.168723910163806,"确诊日期36":"1d"},{"SH_ID_36":"10gcimp","区36":"f","地址":"川沙新镇鹿溪村","lng":121.7096045883279,"lat":31.118245686704054,"确诊日期36":"1d"},{"SH_ID_36":"10gcimq","区36":"f","地址":"川沙新镇民义村","lng":121.69896472933704,"lat":31.12780633502536,"确诊日期36":"1d"},{"SH_ID_36":"10gcimr","区36":"f","地址":"川沙新镇其成村","lng":121.68753595953389,"lat":31.11242068561668,"确诊日期36":"1d"},{"SH_ID_36":"10gcims","区36":"f","地址":"川沙新镇湾镇村王家宅","lng":121.73748099081392,"lat":31.15907176293759,"确诊日期36":"1d"},{"SH_ID_36":"10gcimt","区36":"f","地址":"川沙新镇新浜村陆家宅","lng":121.73969639815216,"lat":31.12468315276108,"确诊日期36":"1d"},{"SH_ID_36":"10gcimu","区36":"f","地址":"川沙新镇新春村赵孟家宅","lng":121.69355683467096,"lat":31.15892678839432,"确诊日期36":"1d"},{"SH_ID_36":"10gcimv","区36":"f","地址":"川沙新镇药师村周家宅","lng":121.6826914623116,"lat":31.202672594737425,"确诊日期36":"1d"},{"SH_ID_36":"10gcimw","区36":"f","地址":"川沙新镇长桥村龚家宅","lng":121.73311288674556,"lat":31.14724984702168,"确诊日期36":"1d"},{"SH_ID_36":"10gcimx","区36":"f","地址":"川周公路2828弄","lng":121.61753474756556,"lat":31.14338585236445,"确诊日期36":"1d"},{"SH_ID_36":"10gcimy","区36":"f","地址":"川周公路2880号","lng":121.6143479865482,"lat":31.144142277760107,"确诊日期36":"1d"},{"SH_ID_36":"10gcimz","区36":"f","地址":"川周公路4058弄","lng":121.58563267774178,"lat":31.125894731455453,"确诊日期36":"1d"},{"SH_ID_36":"10gcin0","区36":"f","地址":"川周公路4318弄","lng":121.57981726548131,"lat":31.122114580544068,"确诊日期36":"1d"},{"SH_ID_36":"10gcin1","区36":"f","地址":"川周公路凌空路交界口工地生活区","lng":121.72538774956129,"lat":31.18396468143198,"确诊日期36":"1d"},{"SH_ID_36":"10gcin2","区36":"f","地址":"川周路8682弄","lng":121.70862493588244,"lat":31.183290309088708,"确诊日期36":"1d"},{"SH_ID_36":"10gcin3","区36":"f","地址":"创新西路199弄","lng":121.65502056471426,"lat":31.200704779990264,"确诊日期36":"1d"},{"SH_ID_36":"10gcin4","区36":"f","地址":"创新西路75弄","lng":121.65588469189495,"lat":31.2027878004386,"确诊日期36":"1d"},{"SH_ID_36":"10gcin5","区36":"f","地址":"创新中路199弄","lng":121.66153022424432,"lat":31.20744665082232,"确诊日期36":"1d"},{"SH_ID_36":"10gcin6","区36":"f","地址":"创新中路380弄","lng":121.66609856929895,"lat":31.207465263761833,"确诊日期36":"1d"},{"SH_ID_36":"10gcin7","区36":"f","地址":"创新中路399弄","lng":121.66547859426598,"lat":31.211418126352996,"确诊日期36":"1d"},{"SH_ID_36":"10gcin8","区36":"f","地址":"创业路78弄","lng":121.61111865472182,"lat":31.144359405059912,"确诊日期36":"1d"},{"SH_ID_36":"10gcin9","区36":"f","地址":"创业路798号","lng":121.69663886657506,"lat":31.21497447490305,"确诊日期36":"1d"},{"SH_ID_36":"10gcina","区36":"f","地址":"春晖路25弄","lng":121.58849023419155,"lat":31.342790230310055,"确诊日期36":"1d"},{"SH_ID_36":"10gcinb","区36":"f","地址":"春晖路289弄","lng":121.58499103335095,"lat":31.338603504494166,"确诊日期36":"1d"},{"SH_ID_36":"10gcinc","区36":"f","地址":"春晖路368弄","lng":121.58258899579657,"lat":31.33957582189619,"确诊日期36":"1d"},{"SH_ID_36":"10gcind","区36":"f","地址":"春晖路446弄","lng":121.58238310285653,"lat":31.33690785844374,"确诊日期36":"1d"},{"SH_ID_36":"10gcine","区36":"f","地址":"达秀路151号","lng":121.65276292949781,"lat":31.237908347212276,"确诊日期36":"1d"},{"SH_ID_36":"10gcinf","区36":"f","地址":"大同路1010弄","lng":121.57272312444098,"lat":31.33575467901452,"确诊日期36":"1d"},{"SH_ID_36":"10gcing","区36":"f","地址":"大同路868弄","lng":121.57404261372234,"lat":31.336722501410065,"确诊日期36":"1d"},{"SH_ID_36":"10gcinh","区36":"f","地址":"大团镇扶栏村下塘","lng":121.74496390522435,"lat":30.9989194988456,"确诊日期36":"1d"},{"SH_ID_36":"10gcini","区36":"f","地址":"大团镇果园村银杏","lng":121.72702162237373,"lat":30.98013785505482,"确诊日期36":"1d"},{"SH_ID_36":"10gcinj","区36":"f","地址":"大团镇海潮村沙庙","lng":121.7654784698979,"lat":30.963352713179326,"确诊日期36":"1d"},{"SH_ID_36":"10gcink","区36":"f","地址":"大团镇团新村严楼","lng":121.75352150415506,"lat":31.015185714980156,"确诊日期36":"1d"},{"SH_ID_36":"10gcinl","区36":"f","地址":"大团镇园艺村农艺","lng":121.76680771273128,"lat":30.97393370499045,"确诊日期36":"1d"},{"SH_ID_36":"10gcinm","区36":"f","地址":"德恒路济阳路交界口工地生活区","lng":121.48059994324008,"lat":31.166063294719446,"确诊日期36":"1d"},{"SH_ID_36":"10gcinn","区36":"f","地址":"德平路100弄","lng":121.56181481261667,"lat":31.24810708726501,"确诊日期36":"1d"},{"SH_ID_36":"10gcino","区36":"f","地址":"德平路1065弄","lng":121.56761724056796,"lat":31.242697660024106,"确诊日期36":"1d"},{"SH_ID_36":"10gcinp","区36":"f","地址":"德平路1066弄","lng":121.56708622459645,"lat":31.242144948676493,"确诊日期36":"1d"},{"SH_ID_36":"10gcinq","区36":"f","地址":"德平路1134弄","lng":121.56978992104578,"lat":31.23937973646964,"确诊日期36":"1d"},{"SH_ID_36":"10gcinr","区36":"f","地址":"德平路1189弄","lng":121.57144782132987,"lat":31.240016969290373,"确诊日期36":"1d"},{"SH_ID_36":"10gcins","区36":"f","地址":"德平路143弄","lng":121.56132805851819,"lat":31.25065437291344,"确诊日期36":"1d"},{"SH_ID_36":"10gcint","区36":"f","地址":"德平路155弄","lng":121.56134221004363,"lat":31.25033760881288,"确诊日期36":"1d"},{"SH_ID_36":"10gcinu","区36":"f","地址":"德平路25弄","lng":121.55771005163089,"lat":31.253911246193468,"确诊日期36":"1d"},{"SH_ID_36":"10gcinv","区36":"f","地址":"德州路150弄","lng":121.49897682432162,"lat":31.167904471628077,"确诊日期36":"1d"},{"SH_ID_36":"10gcinw","区36":"f","地址":"德州路220弄","lng":121.49542196379973,"lat":31.168158898139794,"确诊日期36":"1d"},{"SH_ID_36":"10gcinx","区36":"f","地址":"德州路223弄","lng":121.49528670087092,"lat":31.168236524561465,"确诊日期36":"1d"},{"SH_ID_36":"10gciny","区36":"f","地址":"德州路246号","lng":121.49284462178406,"lat":31.167981007364823,"确诊日期36":"1d"},{"SH_ID_36":"10gcinz","区36":"f","地址":"德州路255弄","lng":121.49215906369058,"lat":31.168830760969875,"确诊日期36":"1d"},{"SH_ID_36":"10gcio0","区36":"f","地址":"德州路380弄","lng":121.48597704541858,"lat":31.164462656067784,"确诊日期36":"1d"},{"SH_ID_36":"10gcio1","区36":"f","地址":"德州路420弄","lng":121.48345896911576,"lat":31.164960855908554,"确诊日期36":"1d"},{"SH_ID_36":"10gcio2","区36":"f","地址":"德州路421弄","lng":121.48203345364544,"lat":31.168225077613826,"确诊日期36":"1d"},{"SH_ID_36":"10gcio3","区36":"f","地址":"丁香路1399弄","lng":121.56418663453965,"lat":31.229584246323263,"确诊日期36":"1d"},{"SH_ID_36":"10gcio4","区36":"f","地址":"丁香路1599弄","lng":121.56556494196886,"lat":31.228347309212953,"确诊日期36":"1d"},{"SH_ID_36":"10gcio5","区36":"f","地址":"东波路195弄","lng":121.57980105643912,"lat":31.28494701083904,"确诊日期36":"1d"},{"SH_ID_36":"10gcio6","区36":"f","地址":"东波路49弄","lng":121.57655580331618,"lat":31.285518333694306,"确诊日期36":"1d"},{"SH_ID_36":"10gcio7","区36":"f","地址":"东波路585弄","lng":121.58672999040984,"lat":31.285054851747645,"确诊日期36":"1d"},{"SH_ID_36":"10gcio8","区36":"f","地址":"东昌路490弄","lng":121.51205340456602,"lat":31.231186867939993,"确诊日期36":"1d"},{"SH_ID_36":"10gcio9","区36":"f","地址":"东昌新村","lng":121.51168217518496,"lat":31.23240069843298,"确诊日期36":"1d"},{"SH_ID_36":"10gcioa","区36":"f","地址":"东川公路7858号","lng":121.72792910596682,"lat":31.213106421513807,"确诊日期36":"1d"},{"SH_ID_36":"10gciob","区36":"f","地址":"东方路1800弄","lng":121.52258880750098,"lat":31.20274062024387,"确诊日期36":"1d"},{"SH_ID_36":"10gcioc","区36":"f","地址":"东方路1881弄","lng":121.52167432609409,"lat":31.199263279517435,"确诊日期36":"1d"},{"SH_ID_36":"10gciod","区36":"f","地址":"东方路268号","lng":121.5213439837806,"lat":31.236709179447473,"确诊日期36":"1d"},{"SH_ID_36":"10gcioe","区36":"f","地址":"东方路3344弄","lng":121.51363567863673,"lat":31.193177444513637,"确诊日期36":"1d"},{"SH_ID_36":"10gciof","区36":"f","地址":"东高路1111弄","lng":121.5941305035943,"lat":31.290867365345655,"确诊日期36":"1d"},{"SH_ID_36":"10gciog","区36":"f","地址":"东高路18号","lng":121.57445391880849,"lat":31.288091567429863,"确诊日期36":"1d"},{"SH_ID_36":"10gcioh","区36":"f","地址":"东环龙路181弄","lng":121.52762207939475,"lat":31.20129933831005,"确诊日期36":"1d"},{"SH_ID_36":"10gcioi","区36":"f","地址":"东建路228弄","lng":121.53212707982797,"lat":31.200829440001538,"确诊日期36":"1d"},{"SH_ID_36":"10gcioj","区36":"f","地址":"东建新村","lng":121.53315903135214,"lat":31.201678018857123,"确诊日期36":"1d"},{"SH_ID_36":"10gciok","区36":"f","地址":"东靖路2250弄","lng":121.61114421195727,"lat":31.289043159938476,"确诊日期36":"1d"},{"SH_ID_36":"10gciol","区36":"f","地址":"东靖路247弄","lng":121.57684434023294,"lat":31.29211547032254,"确诊日期36":"1d"},{"SH_ID_36":"10gciom","区36":"f","地址":"东靖路51弄","lng":121.57328857859838,"lat":31.292061599132666,"确诊日期36":"1d"},{"SH_ID_36":"10gcion","区36":"f","地址":"东靖路626弄","lng":121.58543060083875,"lat":31.29101078943505,"确诊日期36":"1d"},{"SH_ID_36":"10gcioo","区36":"f","地址":"东林街135弄","lng":121.50404587147058,"lat":31.13875381435215,"确诊日期36":"1d"},{"SH_ID_36":"10gciop","区36":"f","地址":"东陆路1018弄","lng":121.59264165119271,"lat":31.272749324161463,"确诊日期36":"1d"},{"SH_ID_36":"10gcioq","区36":"f","地址":"东陆路1182弄","lng":121.5959787544311,"lat":31.270555334160274,"确诊日期36":"1d"},{"SH_ID_36":"10gcior","区36":"f","地址":"东陆路1268弄","lng":121.59607949149935,"lat":31.26834386498825,"确诊日期36":"1d"},{"SH_ID_36":"10gcios","区36":"f","地址":"东陆路1350弄","lng":121.60157440470859,"lat":31.267039005126044,"确诊日期36":"1d"},{"SH_ID_36":"10gciot","区36":"f","地址":"东陆路1456弄","lng":121.60173736049738,"lat":31.266980310420216,"确诊日期36":"1d"},{"SH_ID_36":"10gciou","区36":"f","地址":"东陆路898弄","lng":121.5914424604197,"lat":31.273463445761017,"确诊日期36":"1d"},{"SH_ID_36":"10gciov","区36":"f","地址":"东三街102弄","lng":121.509788217195,"lat":31.201662598973616,"确诊日期36":"1d"},{"SH_ID_36":"10gciow","区36":"f","地址":"东三街15弄","lng":121.50729858455078,"lat":31.201374692945627,"确诊日期36":"1d"},{"SH_ID_36":"10gciox","区36":"f","地址":"东三里桥路160弄","lng":121.51040010917471,"lat":31.199213688788603,"确诊日期36":"1d"},{"SH_ID_36":"10gcioy","区36":"f","地址":"东三里桥路170弄","lng":121.51084829328663,"lat":31.200492425843525,"确诊日期36":"1d"},{"SH_ID_36":"10gcioz","区36":"f","地址":"东三里桥路211弄","lng":121.51371256223692,"lat":31.2004306287941,"确诊日期36":"1d"},{"SH_ID_36":"10gcip0","区36":"f","地址":"东三里桥路245弄","lng":121.51580669240927,"lat":31.199313539714456,"确诊日期36":"1d"},{"SH_ID_36":"10gcip1","区36":"f","地址":"东三里桥路79弄","lng":121.5087824093598,"lat":31.20043944542412,"确诊日期36":"1d"},{"SH_ID_36":"10gcip2","区36":"f","地址":"东书房路390弄","lng":121.53514668194647,"lat":31.16506602080299,"确诊日期36":"1d"},{"SH_ID_36":"10gcip3","区36":"f","地址":"东书房路560弄","lng":121.53487873971017,"lat":31.161152359985785,"确诊日期36":"1d"},{"SH_ID_36":"10gcip4","区36":"f","地址":"东绣路1086弄","lng":121.53630713925007,"lat":31.199401770443266,"确诊日期36":"1d"},{"SH_ID_36":"10gcip5","区36":"f","地址":"东绣路1389弄","lng":121.53203378773279,"lat":31.19956357540424,"确诊日期36":"1d"},{"SH_ID_36":"10gcip6","区36":"f","地址":"东园四村","lng":121.51292247343093,"lat":31.23023768155299,"确诊日期36":"1d"},{"SH_ID_36":"10gcip7","区36":"f","地址":"渡桥路78弄","lng":121.5469899741448,"lat":31.117889340725643,"确诊日期36":"1d"},{"SH_ID_36":"10gcip8","区36":"f","地址":"峨山路180弄","lng":121.52820539530592,"lat":31.21422832116379,"确诊日期36":"1d"},{"SH_ID_36":"10gcip9","区36":"f","地址":"峨山路187弄","lng":121.52763168916316,"lat":31.214670699325,"确诊日期36":"1d"},{"SH_ID_36":"10gcipa","区36":"f","地址":"峨山路280弄","lng":121.52637219060615,"lat":31.213955475137496,"确诊日期36":"1d"},{"SH_ID_36":"10gcipb","区36":"f","地址":"峨山路605弄","lng":121.52182787705726,"lat":31.214822906289292,"确诊日期36":"1d"},{"SH_ID_36":"10gcipc","区36":"f","地址":"峨山路679弄","lng":121.52028264331095,"lat":31.213890669074186,"确诊日期36":"1d"},{"SH_ID_36":"10gcipd","区36":"f","地址":"繁荣东路150弄","lng":121.587672896517,"lat":31.105903346766375,"确诊日期36":"1d"},{"SH_ID_36":"10gcipe","区36":"f","地址":"繁荣东路159弄","lng":121.58582387054642,"lat":31.10772417038334,"确诊日期36":"1d"},{"SH_ID_36":"10gcipf","区36":"f","地址":"方竹路222弄","lng":121.91011798591894,"lat":30.894620994929628,"确诊日期36":"1d"},{"SH_ID_36":"10gcipg","区36":"f","地址":"方竹路333弄","lng":121.90860616714552,"lat":30.892109509083358,"确诊日期36":"1d"},{"SH_ID_36":"10gciph","区36":"f","地址":"方竹路423弄","lng":121.90456393405734,"lat":30.89396609046673,"确诊日期36":"1d"},{"SH_ID_36":"10gcipi","区36":"f","地址":"芳草路253弄","lng":121.55642185784527,"lat":31.19364197056412,"确诊日期36":"1d"},{"SH_ID_36":"10gcipj","区36":"f","地址":"芳草路258号","lng":121.5565009315961,"lat":31.19327654693765,"确诊日期36":"1d"},{"SH_ID_36":"10gcipk","区36":"f","地址":"芳草路352弄","lng":121.55777136874786,"lat":31.192847594942844,"确诊日期36":"1d"},{"SH_ID_36":"10gcipl","区36":"f","地址":"芳草路363弄","lng":121.55624291426312,"lat":31.193862703127696,"确诊日期36":"1d"},{"SH_ID_36":"10gcipm","区36":"f","地址":"芳甸路333弄","lng":121.56062586771277,"lat":31.22573426879635,"确诊日期36":"1d"},{"SH_ID_36":"10gcipn","区36":"f","地址":"芳华路310弄","lng":121.55778254952779,"lat":31.19491643659483,"确诊日期36":"1d"},{"SH_ID_36":"10gcipo","区36":"f","地址":"芳华路329弄","lng":121.55720561056232,"lat":31.196216170738232,"确诊日期36":"1d"},{"SH_ID_36":"10gcipp","区36":"f","地址":"芳华路411弄","lng":121.558595089478,"lat":31.195962856195706,"确诊日期36":"1d"},{"SH_ID_36":"10gcipq","区36":"f","地址":"芳华路455弄","lng":121.55943297834008,"lat":31.196428517103932,"确诊日期36":"1d"},{"SH_ID_36":"10gcipr","区36":"f","地址":"芳华路478弄","lng":121.56002445771698,"lat":31.194771155752505,"确诊日期36":"1d"},{"SH_ID_36":"10gcips","区36":"f","地址":"芳华路573弄","lng":121.56200470221894,"lat":31.19685469805188,"确诊日期36":"1d"},{"SH_ID_36":"10gcipt","区36":"f","地址":"芳华路580弄","lng":121.56227749239979,"lat":31.196104326918537,"确诊日期36":"1d"},{"SH_ID_36":"10gcipu","区36":"f","地址":"芳华路630弄","lng":121.5640191678741,"lat":31.196353388570053,"确诊日期36":"1d"},{"SH_ID_36":"10gcipv","区36":"f","地址":"芳华路63号工地生活区","lng":121.55178393295228,"lat":31.194220715999975,"确诊日期36":"1d"},{"SH_ID_36":"10gcipw","区36":"f","地址":"芳华路673弄","lng":121.55976057012398,"lat":31.19627765219839,"确诊日期36":"1d"},{"SH_ID_36":"10gcipx","区36":"f","地址":"芳华路713弄","lng":121.56369594079801,"lat":31.19715029353592,"确诊日期36":"1d"},{"SH_ID_36":"10gcipy","区36":"f","地址":"芳华路739弄","lng":121.56892951926736,"lat":31.1970353353743,"确诊日期36":"1d"},{"SH_ID_36":"10gcipz","区36":"f","地址":"芳华路916弄","lng":121.56781565974153,"lat":31.196131751167886,"确诊日期36":"1d"},{"SH_ID_36":"10gciq0","区36":"f","地址":"芳华路933弄","lng":121.56881358403952,"lat":31.197852576368753,"确诊日期36":"1d"},{"SH_ID_36":"10gciq1","区36":"f","地址":"芳芯路210弄","lng":121.55745024720444,"lat":31.19081640596934,"确诊日期36":"1d"},{"SH_ID_36":"10gciq2","区36":"f","地址":"芳芯路251弄","lng":121.5563816399723,"lat":31.192050588606318,"确诊日期36":"1d"},{"SH_ID_36":"10gciq3","区36":"f","地址":"芳芯路312弄","lng":121.5575133559845,"lat":31.19093954667683,"确诊日期36":"1d"},{"SH_ID_36":"10gciq4","区36":"f","地址":"芳芯路363弄","lng":121.55837317758909,"lat":31.192183794942135,"确诊日期36":"1d"},{"SH_ID_36":"10gciq5","区36":"f","地址":"福山路102弄","lng":121.52658982087473,"lat":31.23105960862063,"确诊日期36":"1d"},{"SH_ID_36":"10gciq6","区36":"f","地址":"高宝路229弄","lng":121.61895434661474,"lat":31.29210655881219,"确诊日期36":"1d"},{"SH_ID_36":"10gciq7","区36":"f","地址":"高宝路379弄","lng":121.6243310815034,"lat":31.291650149200663,"确诊日期36":"1d"},{"SH_ID_36":"10gciq8","区36":"f","地址":"高宝路528弄","lng":121.62820978227049,"lat":31.292851574692857,"确诊日期36":"1d"},{"SH_ID_36":"10gciq9","区36":"f","地址":"高东二路118弄","lng":121.62721685075505,"lat":31.322860958415003,"确诊日期36":"1d"},{"SH_ID_36":"10gciqa","区36":"f","地址":"高东新路500弄","lng":121.62122193363642,"lat":31.33618747265718,"确诊日期36":"1d"},{"SH_ID_36":"10gciqb","区36":"f","地址":"高东镇灯塔村王家宅","lng":121.66100815611975,"lat":31.314752167302004,"确诊日期36":"1d"},{"SH_ID_36":"10gciqc","区36":"f","地址":"高东镇竞赛村龙稍宅","lng":121.65280380681658,"lat":31.300555185989733,"确诊日期36":"1d"},{"SH_ID_36":"10gciqd","区36":"f","地址":"高东镇竞赛村沈家宅","lng":121.6507077803138,"lat":31.302387786255828,"确诊日期36":"1d"},{"SH_ID_36":"10gciqe","区36":"f","地址":"高东镇踊跃村东孙家沟","lng":121.65692175606716,"lat":31.306133919924054,"确诊日期36":"1d"},{"SH_ID_36":"10gciqf","区36":"f","地址":"高荷路428号","lng":121.57663164252452,"lat":31.33682244002113,"确诊日期36":"1d"},{"SH_ID_36":"10gciqg","区36":"f","地址":"高科西路1655弄","lng":121.527168606744,"lat":31.189721751334925,"确诊日期36":"1d"},{"SH_ID_36":"10gciqh","区36":"f","地址":"高科西路2111弄","lng":121.53566540624676,"lat":31.188068385483607,"确诊日期36":"1d"},{"SH_ID_36":"10gciqi","区36":"f","地址":"高科西路2757弄","lng":121.55432765730147,"lat":31.18940899137539,"确诊日期36":"1d"},{"SH_ID_36":"10gciqj","区36":"f","地址":"高科西路2763弄","lng":121.55310720913144,"lat":31.190798708110346,"确诊日期36":"1d"},{"SH_ID_36":"10gciqk","区36":"f","地址":"高科西路3000弄","lng":121.56175733020125,"lat":31.189267225830267,"确诊日期36":"1d"},{"SH_ID_36":"10gciql","区36":"f","地址":"高科西路3030弄","lng":121.56298563243318,"lat":31.189545261996894,"确诊日期36":"1d"},{"SH_ID_36":"10gciqm","区36":"f","地址":"高科西路3050弄","lng":121.56359211660391,"lat":31.189549039286664,"确诊日期36":"1d"},{"SH_ID_36":"10gciqn","区36":"f","地址":"高科西路3060弄","lng":121.5643882275712,"lat":31.18970603328571,"确诊日期36":"1d"},{"SH_ID_36":"10gciqo","区36":"f","地址":"高桥镇仓房村仓房港","lng":121.51596620703191,"lat":31.363497230590685,"确诊日期36":"1d"},{"SH_ID_36":"10gciqp","区36":"f","地址":"高桥镇仓房村南沟头","lng":121.50949024647723,"lat":31.36551259659374,"确诊日期36":"1d"},{"SH_ID_36":"10gciqq","区36":"f","地址":"高桥镇仓房村平房基","lng":121.5113972660882,"lat":31.361349357210994,"确诊日期36":"1d"},{"SH_ID_36":"10gciqr","区36":"f","地址":"高桥镇高桥村陈家宅","lng":121.77001788397402,"lat":31.19203110152036,"确诊日期36":"1d"},{"SH_ID_36":"10gciqs","区36":"f","地址":"高桥镇凌桥村仓房浜","lng":121.53357661150743,"lat":31.365010347534184,"确诊日期36":"1d"},{"SH_ID_36":"10gciqt","区36":"f","地址":"高桥镇龙叶村叶家角","lng":121.52292504299959,"lat":31.366954581726315,"确诊日期36":"1d"},{"SH_ID_36":"10gciqu","区36":"f","地址":"高桥镇陆凌村西凌家宅","lng":121.56302577302057,"lat":31.34571704971989,"确诊日期36":"1d"},{"SH_ID_36":"10gciqv","区36":"f","地址":"高桥镇南塘村龚家宅","lng":121.56834609776243,"lat":31.337910552943185,"确诊日期36":"1d"},{"SH_ID_36":"10gciqw","区36":"f","地址":"高桥镇南塘村顾家宅","lng":121.56839354073054,"lat":31.3390352246164,"确诊日期36":"1d"},{"SH_ID_36":"10gciqx","区36":"f","地址":"高桥镇南塘村姚家宅","lng":121.56816784312267,"lat":31.339174179900596,"确诊日期36":"1d"},{"SH_ID_36":"10gciqy","区36":"f","地址":"高桥镇三岔港村三岔港","lng":121.50828861670882,"lat":31.370664338419115,"确诊日期36":"1d"},{"SH_ID_36":"10gciqz","区36":"f","地址":"高桥镇西新村草镇","lng":121.52972048882262,"lat":31.349147555253317,"确诊日期36":"1d"},{"SH_ID_36":"10gcir0","区36":"f","地址":"高桥镇新建村钟家弄","lng":121.5770232057928,"lat":31.357838519107908,"确诊日期36":"1d"},{"SH_ID_36":"10gcir1","区36":"f","地址":"高桥镇新农村北凌家宅","lng":121.55884729023981,"lat":31.357108350520633,"确诊日期36":"1d"},{"SH_ID_36":"10gcir2","区36":"f","地址":"高桥镇新农村北项湾","lng":121.55468543670315,"lat":31.360502853543434,"确诊日期36":"1d"},{"SH_ID_36":"10gcir3","区36":"f","地址":"高桥镇新农村南项湾","lng":121.55501417822886,"lat":31.359158788443416,"确诊日期36":"1d"},{"SH_ID_36":"10gcir4","区36":"f","地址":"高青路2861弄","lng":121.52866916086761,"lat":31.16160389688715,"确诊日期36":"1d"},{"SH_ID_36":"10gcir5","区36":"f","地址":"高青路4567弄","lng":121.56177534576484,"lat":31.171253947496176,"确诊日期36":"1d"},{"SH_ID_36":"10gcir6","区36":"f","地址":"龚华路35弄","lng":121.68610482582649,"lat":31.270598696981764,"确诊日期36":"1d"},{"SH_ID_36":"10gcir7","区36":"f","地址":"龚华路479弄","lng":121.68828988644795,"lat":31.258933489686218,"确诊日期36":"1d"},{"SH_ID_36":"10gcir8","区36":"f","地址":"龚华路50弄","lng":121.68366519658923,"lat":31.266951176892753,"确诊日期36":"1d"},{"SH_ID_36":"10gcir9","区36":"f","地址":"龚新路549弄","lng":121.68370685338611,"lat":31.257448099467354,"确诊日期36":"1d"},{"SH_ID_36":"10gcira","区36":"f","地址":"拱川路561弄","lng":121.74721634488667,"lat":31.064582849915553,"确诊日期36":"1d"},{"SH_ID_36":"10gcirb","区36":"f","地址":"拱海路79弄","lng":121.73661845352956,"lat":31.06961515836124,"确诊日期36":"1d"},{"SH_ID_36":"10gcirc","区36":"f","地址":"拱乐路2400弄","lng":121.76852052511573,"lat":31.063303905337072,"确诊日期36":"1d"},{"SH_ID_36":"10gcird","区36":"f","地址":"拱鸣路60弄","lng":121.74451197273974,"lat":31.0597306269663,"确诊日期36":"1d"},{"SH_ID_36":"10gcire","区36":"f","地址":"古桐南路117弄","lng":121.61620267638978,"lat":31.201015366051088,"确诊日期36":"1d"},{"SH_ID_36":"10gcirf","区36":"f","地址":"崮山路157号","lng":121.55231789369097,"lat":31.246879642508418,"确诊日期36":"1d"},{"SH_ID_36":"10gcirg","区36":"f","地址":"崮山路322弄","lng":121.55475574269673,"lat":31.24437457401358,"确诊日期36":"1d"},{"SH_ID_36":"10gcirh","区36":"f","地址":"崮山路717号","lng":121.56069978448835,"lat":31.239027979229657,"确诊日期36":"1d"},{"SH_ID_36":"10gciri","区36":"f","地址":"崮山路95号","lng":121.55057919347344,"lat":31.24727305179048,"确诊日期36":"1d"},{"SH_ID_36":"10gcirj","区36":"f","地址":"崮山路968号","lng":121.56159618180051,"lat":31.235204431456708,"确诊日期36":"1d"},{"SH_ID_36":"10gcirk","区36":"f","地址":"关岳路229弄","lng":121.58830420853499,"lat":31.12098608191525,"确诊日期36":"1d"},{"SH_ID_36":"10gcirl","区36":"f","地址":"光明路222弄","lng":121.61607540548464,"lat":31.332168267282427,"确诊日期36":"1d"},{"SH_ID_36":"10gcirm","区36":"f","地址":"光泽路428弄","lng":121.6184278088058,"lat":31.328093023511663,"确诊日期36":"1d"},{"SH_ID_36":"10gcirn","区36":"f","地址":"广衍路18弄","lng":121.75141561502154,"lat":31.039915882668694,"确诊日期36":"1d"},{"SH_ID_36":"10gciro","区36":"f","地址":"广益路15弄","lng":121.76456640284457,"lat":31.109310346825062,"确诊日期36":"1d"},{"SH_ID_36":"10gcirp","区36":"f","地址":"归昌路351弄","lng":121.60014827507369,"lat":31.277894453866132,"确诊日期36":"1d"},{"SH_ID_36":"10gcirq","区36":"f","地址":"国展路767号工地生活区","lng":121.52768672346133,"lat":31.180281626018512,"确诊日期36":"1d"},{"SH_ID_36":"10gcirr","区36":"f","地址":"海基三路海洋四路交界口工地生活区","lng":121.54866417814351,"lat":31.20464670503637,"确诊日期36":"1d"},{"SH_ID_36":"10gcirs","区36":"f","地址":"海鸣路98弄","lng":121.67236716138594,"lat":31.28280123411052,"确诊日期36":"1d"},{"SH_ID_36":"10gcirt","区36":"f","地址":"海纳路129弄","lng":121.67106830908499,"lat":31.2925894321839,"确诊日期36":"1d"},{"SH_ID_36":"10gciru","区36":"f","地址":"海鹏路301弄","lng":121.67437278190825,"lat":31.28965857252618,"确诊日期36":"1d"},{"SH_ID_36":"10gcirv","区36":"f","地址":"海容路99弄","lng":121.67392903895308,"lat":31.2798221678248,"确诊日期36":"1d"},{"SH_ID_36":"10gcirw","区36":"f","地址":"海顺路359弄","lng":121.68231902693626,"lat":31.27647767649027,"确诊日期36":"1d"},{"SH_ID_36":"10gcirx","区36":"f","地址":"海松路398弄","lng":121.68017976264684,"lat":31.27671195579396,"确诊日期36":"1d"},{"SH_ID_36":"10gciry","区36":"f","地址":"海阳路1065弄","lng":121.50532604319537,"lat":31.15932629310962,"确诊日期36":"1d"},{"SH_ID_36":"10gcirz","区36":"f","地址":"海阳路1080弄","lng":121.50655993912866,"lat":31.157176961228686,"确诊日期36":"1d"},{"SH_ID_36":"10gcis0","区36":"f","地址":"海阳路860弄","lng":121.50178175537935,"lat":31.157211741848112,"确诊日期36":"1d"},{"SH_ID_36":"10gcis1","区36":"f","地址":"海阳路905弄","lng":121.50366914143503,"lat":31.15888146603774,"确诊日期36":"1d"},{"SH_ID_36":"10gcis2","区36":"f","地址":"航昌路199弄","lng":121.60917778428902,"lat":31.078447026223685,"确诊日期36":"1d"},{"SH_ID_36":"10gcis3","区36":"f","地址":"航昌路376弄","lng":121.60934989640167,"lat":31.075047195293397,"确诊日期36":"1d"},{"SH_ID_36":"10gcis4","区36":"f","地址":"航昌路489弄","lng":121.60973482049116,"lat":31.075282907552698,"确诊日期36":"1d"},{"SH_ID_36":"10gcis5","区36":"f","地址":"航城五路401弄","lng":121.75157819457735,"lat":31.144120252739704,"确诊日期36":"1d"},{"SH_ID_36":"10gcis6","区36":"f","地址":"航鹤路1858弄","lng":121.58458323783272,"lat":31.050008430457265,"确诊日期36":"1d"},{"SH_ID_36":"10gcis7","区36":"f","地址":"航鹤路78弄","lng":121.58844330989021,"lat":31.025282392933764,"确诊日期36":"1d"},{"SH_ID_36":"10gcis8","区36":"f","地址":"航梅路525弄","lng":121.57406725996299,"lat":31.02459455542,"确诊日期36":"1d"},{"SH_ID_36":"10gcis9","区36":"f","地址":"航梅路526弄","lng":121.58229586683278,"lat":31.024089128595435,"确诊日期36":"1d"},{"SH_ID_36":"10gcisa","区36":"f","地址":"航瑞路388弄","lng":121.59485720114503,"lat":31.073638111498273,"确诊日期36":"1d"},{"SH_ID_36":"10gcisb","区36":"f","地址":"航三路航吉路交界口工地生活区","lng":121.60767881481931,"lat":31.04232467299838,"确诊日期36":"1d"},{"SH_ID_36":"10gcisc","区36":"f","地址":"航头镇丰桥村檀香","lng":121.60524016234169,"lat":31.008919738901234,"确诊日期36":"1d"},{"SH_ID_36":"10gcisd","区36":"f","地址":"航头镇果园村","lng":121.6357400262877,"lat":31.019522605115736,"确诊日期36":"1d"},{"SH_ID_36":"10gcise","区36":"f","地址":"航头镇航东村航头","lng":121.59318742555409,"lat":31.033719101062303,"确诊日期36":"1d"},{"SH_ID_36":"10gcisf","区36":"f","地址":"航头镇鹤东村沙东","lng":121.61865384895083,"lat":31.051977616792602,"确诊日期36":"1d"},{"SH_ID_36":"10gcisg","区36":"f","地址":"航头镇鹤东村沿江","lng":121.60208397674933,"lat":31.054175870983567,"确诊日期36":"1d"},{"SH_ID_36":"10gcish","区36":"f","地址":"航头镇梅园村沙北","lng":121.58635363836959,"lat":31.059739332921254,"确诊日期36":"1d"},{"SH_ID_36":"10gcisi","区36":"f","地址":"航头镇牌楼村谈弄","lng":121.5571218567188,"lat":31.055272994058715,"确诊日期36":"1d"},{"SH_ID_36":"10gcisj","区36":"f","地址":"航头镇沈庄村大桥","lng":121.568452055671,"lat":31.063545331586326,"确诊日期36":"1d"},{"SH_ID_36":"10gcisk","区36":"f","地址":"航头镇王楼村储楼","lng":121.617433054048,"lat":31.06841674589047,"确诊日期36":"1d"},{"SH_ID_36":"10gcisl","区36":"f","地址":"合庆镇蔡路村包家宅","lng":121.75810427450502,"lat":31.19964204091902,"确诊日期36":"1d"},{"SH_ID_36":"10gcism","区36":"f","地址":"合庆镇蔡路村东蔡家宅","lng":121.72894326346456,"lat":31.213029857774902,"确诊日期36":"1d"},{"SH_ID_36":"10gcisn","区36":"f","地址":"合庆镇蔡路村杨家宅","lng":121.73041314479389,"lat":31.21420616978148,"确诊日期36":"1d"},{"SH_ID_36":"10gciso","区36":"f","地址":"合庆镇东风村潘家宅","lng":121.69875685084374,"lat":31.227775859894944,"确诊日期36":"1d"},{"SH_ID_36":"10gcisp","区36":"f","地址":"合庆镇前哨村包家宅","lng":121.73372379227105,"lat":31.240935510097625,"确诊日期36":"1d"},{"SH_ID_36":"10gcisq","区36":"f","地址":"合庆镇勤奋村九队新村","lng":121.72303239516577,"lat":31.26143400822647,"确诊日期36":"1d"},{"SH_ID_36":"10gcisr","区36":"f","地址":"合庆镇勤奋村徐家宅","lng":121.70710388866947,"lat":31.208430215148727,"确诊日期36":"1d"},{"SH_ID_36":"10gciss","区36":"f","地址":"合庆镇勤奋村张家宅","lng":121.72201242995743,"lat":31.255166879525596,"确诊日期36":"1d"},{"SH_ID_36":"10gcist","区36":"f","地址":"合庆镇勤益村徐家宅","lng":121.70704909443599,"lat":31.20885396389296,"确诊日期36":"1d"},{"SH_ID_36":"10gcisu","区36":"f","地址":"合庆镇青四村龚家宅","lng":121.71648130335028,"lat":31.225966700240324,"确诊日期36":"1d"},{"SH_ID_36":"10gcisv","区36":"f","地址":"合庆镇庆丰村东新宅","lng":121.72049880525503,"lat":31.240984512007582,"确诊日期36":"1d"},{"SH_ID_36":"10gcisw","区36":"f","地址":"合庆镇庆星村凤家码头","lng":121.71845883633547,"lat":31.235322062235355,"确诊日期36":"1d"},{"SH_ID_36":"10gcisx","区36":"f","地址":"合庆镇庆星村顾家宅","lng":121.71527503817376,"lat":31.204400405412933,"确诊日期36":"1d"},{"SH_ID_36":"10gcisy","区36":"f","地址":"合庆镇庆星村张家宅","lng":121.68640675742928,"lat":31.21778983521324,"确诊日期36":"1d"},{"SH_ID_36":"10gcisz","区36":"f","地址":"合庆镇奚家村","lng":121.71152655962987,"lat":31.247892604092055,"确诊日期36":"1d"},{"SH_ID_36":"10gcit0","区36":"f","地址":"合庆镇向东村顾家宅","lng":121.74382450770203,"lat":31.233367792729545,"确诊日期36":"1d"},{"SH_ID_36":"10gcit1","区36":"f","地址":"合庆镇营房村高路二宅","lng":121.7353113421724,"lat":31.210488898764638,"确诊日期36":"1d"},{"SH_ID_36":"10gcit2","区36":"f","地址":"合庆镇营房村青晏二宅","lng":121.73432681572864,"lat":31.208526446007628,"确诊日期36":"1d"},{"SH_ID_36":"10gcit3","区36":"f","地址":"合庆镇营房村云镇宅","lng":121.73072838611151,"lat":31.207585825384445,"确诊日期36":"1d"},{"SH_ID_36":"10gcit4","区36":"f","地址":"合庆镇永红村丁家宅","lng":121.70570021012567,"lat":31.234177117257524,"确诊日期36":"1d"},{"SH_ID_36":"10gcit5","区36":"f","地址":"合庆镇永红村薛家宅","lng":121.70557275973215,"lat":31.234446212860533,"确诊日期36":"1d"},{"SH_ID_36":"10gcit6","区36":"f","地址":"合庆镇跃丰村","lng":121.70866746773409,"lat":31.224670711281867,"确诊日期36":"1d"},{"SH_ID_36":"10gcit7","区36":"f","地址":"合庆镇跃进村凤家宅","lng":121.70606885644938,"lat":31.215173815922352,"确诊日期36":"1d"},{"SH_ID_36":"10gcit8","区36":"f","地址":"合庆镇跃进村新宅","lng":121.70560428277065,"lat":31.20885416045952,"确诊日期36":"1d"},{"SH_ID_36":"10gcit9","区36":"f","地址":"和佳路105弄","lng":121.51314378275568,"lat":31.128405699051676,"确诊日期36":"1d"},{"SH_ID_36":"10gcita","区36":"f","地址":"和炯路501弄","lng":121.50800502716575,"lat":31.12343941657985,"确诊日期36":"1d"},{"SH_ID_36":"10gcitb","区36":"f","地址":"和炯路601弄","lng":121.50915721213619,"lat":31.125242684778414,"确诊日期36":"1d"},{"SH_ID_36":"10gcitc","区36":"f","地址":"和炯路77弄","lng":121.50177102250699,"lat":31.12078592224648,"确诊日期36":"1d"},{"SH_ID_36":"10gcitd","区36":"f","地址":"和龙路55弄","lng":121.57089174536398,"lat":31.337483663953822,"确诊日期36":"1d"},{"SH_ID_36":"10gcite","区36":"f","地址":"和龙路619弄","lng":121.56714359722308,"lat":31.34944621213428,"确诊日期36":"1d"},{"SH_ID_36":"10gcitf","区36":"f","地址":"和融路55弄","lng":121.49992889338453,"lat":31.125459523603645,"确诊日期36":"1d"},{"SH_ID_36":"10gcitg","区36":"f","地址":"菏泽路25弄","lng":121.59051462382023,"lat":31.274139073363397,"确诊日期36":"1d"},{"SH_ID_36":"10gcith","区36":"f","地址":"菏泽路58弄","lng":121.58937029290526,"lat":31.272858354484082,"确诊日期36":"1d"},{"SH_ID_36":"10gciti","区36":"f","地址":"鹤波路航昌路交界口工地生活区","lng":121.60953359718633,"lat":31.075108953425055,"确诊日期36":"1d"},{"SH_ID_36":"10gcitj","区36":"f","地址":"鹤驰路88弄","lng":121.59431449657248,"lat":31.080516430737042,"确诊日期36":"1d"},{"SH_ID_36":"10gcitk","区36":"f","地址":"鹤洁路625弄","lng":121.60563198014256,"lat":31.070186891239917,"确诊日期36":"1d"},{"SH_ID_36":"10gcitl","区36":"f","地址":"鹤沙路588弄","lng":121.59351478826373,"lat":31.081954538735918,"确诊日期36":"1d"},{"SH_ID_36":"10gcitm","区36":"f","地址":"鹤永路599弄","lng":121.6047306689163,"lat":31.07469073834041,"确诊日期36":"1d"},{"SH_ID_36":"10gcitn","区36":"f","地址":"恒庆路曹卫家路交界口工地生活区","lng":121.54839710328866,"lat":31.204740249842718,"确诊日期36":"1d"},{"SH_ID_36":"10gcito","区36":"f","地址":"横桥路69弄","lng":121.57960204904836,"lat":31.10805447419674,"确诊日期36":"1d"},{"SH_ID_36":"10gcitp","区36":"f","地址":"虹盛路250弄","lng":121.68122779339672,"lat":31.24132517873192,"确诊日期36":"1d"},{"SH_ID_36":"10gcitq","区36":"f","地址":"洪山路121弄","lng":121.49910217339514,"lat":31.178891919800748,"确诊日期36":"1d"},{"SH_ID_36":"10gcitr","区36":"f","地址":"洪山路1889弄","lng":121.5111741915715,"lat":31.151290453792093,"确诊日期36":"1d"},{"SH_ID_36":"10gcits","区36":"f","地址":"洪山路237弄","lng":121.50157710640268,"lat":31.17301436618309,"确诊日期36":"1d"},{"SH_ID_36":"10gcitt","区36":"f","地址":"洪山路851弄","lng":121.50513093313744,"lat":31.160809974399395,"确诊日期36":"1d"},{"SH_ID_36":"10gcitu","区36":"f","地址":"沪南公路5192号","lng":121.58880526599621,"lat":31.052236835473185,"确诊日期36":"1d"},{"SH_ID_36":"10gcitv","区36":"f","地址":"沪南路1168弄","lng":121.55505837728396,"lat":31.178367617875097,"确诊日期36":"1d"},{"SH_ID_36":"10gcitw","区36":"f","地址":"沪南路2727弄","lng":121.57647833924432,"lat":31.141759438676868,"确诊日期36":"1d"},{"SH_ID_36":"10gcitx","区36":"f","地址":"沪南路3150弄","lng":121.56518443018882,"lat":31.122276300250068,"确诊日期36":"1d"},{"SH_ID_36":"10gcity","区36":"f","地址":"沪南路3219弄","lng":121.56842197005304,"lat":31.12373799851964,"确诊日期36":"1d"},{"SH_ID_36":"10gcitz","区36":"f","地址":"花木街道龙王庙村南杨家堂","lng":121.55001343509217,"lat":31.194576499386468,"确诊日期36":"1d"},{"SH_ID_36":"10gciu0","区36":"f","地址":"花木路500弄","lng":121.5436009274662,"lat":31.210918092910507,"确诊日期36":"1d"},{"SH_ID_36":"10gciu1","区36":"f","地址":"花山路300弄","lng":121.5745927271115,"lat":31.346595056910022,"确诊日期36":"1d"},{"SH_ID_36":"10gciu2","区36":"f","地址":"华安路24弄","lng":121.51594466931301,"lat":31.212079922667066,"确诊日期36":"1d"},{"SH_ID_36":"10gciu3","区36":"f","地址":"华春路100弄","lng":121.52714604531843,"lat":31.179160867156487,"确诊日期36":"1d"},{"SH_ID_36":"10gciu4","区36":"f","地址":"华春路成山路交界口工地生活区","lng":121.52752987610592,"lat":31.18061120814811,"确诊日期36":"1d"},{"SH_ID_36":"10gciu5","区36":"f","地址":"华东路齐友路交界口工地生活区","lng":121.68080848991035,"lat":31.203912755200633,"确诊日期36":"1d"},{"SH_ID_36":"10gciu6","区36":"f","地址":"华丰路50弄","lng":121.50818999860827,"lat":31.19071025514015,"确诊日期36":"1d"},{"SH_ID_36":"10gciu7","区36":"f","地址":"华夏东路1801弄","lng":121.68562849187718,"lat":31.199649937371376,"确诊日期36":"1d"},{"SH_ID_36":"10gciu8","区36":"f","地址":"华夏东路2110弄","lng":121.69295349800122,"lat":31.198504441548984,"确诊日期36":"1d"},{"SH_ID_36":"10gciu9","区36":"f","地址":"华夏东路2170弄","lng":121.69402233879053,"lat":31.199212437317115,"确诊日期36":"1d"},{"SH_ID_36":"10gciua","区36":"f","地址":"华夏东路860弄","lng":121.66564532916631,"lat":31.194703320238997,"确诊日期36":"1d"},{"SH_ID_36":"10gciub","区36":"f","地址":"华夏二路1255弄","lng":121.69118161837349,"lat":31.1758869172949,"确诊日期36":"1d"},{"SH_ID_36":"10gciuc","区36":"f","地址":"华夏二路1278弄","lng":121.68968117747575,"lat":31.174893318368518,"确诊日期36":"1d"},{"SH_ID_36":"10gciud","区36":"f","地址":"华夏二路200弄","lng":121.68404973585834,"lat":31.194051639213754,"确诊日期36":"1d"},{"SH_ID_36":"10gciue","区36":"f","地址":"华绣路255弄","lng":121.52915775929206,"lat":31.185236956547428,"确诊日期36":"1d"},{"SH_ID_36":"10gciuf","区36":"f","地址":"环林东路270弄","lng":121.52448838272645,"lat":31.148019183521686,"确诊日期36":"1d"},{"SH_ID_36":"10gciug","区36":"f","地址":"环林东路271弄","lng":121.52642209624155,"lat":31.149283828870825,"确诊日期36":"1d"},{"SH_ID_36":"10gciuh","区36":"f","地址":"环林东路799弄","lng":121.53220810133921,"lat":31.14106808531034,"确诊日期36":"1d"},{"SH_ID_36":"10gciui","区36":"f","地址":"环林东路875弄","lng":121.53042203967573,"lat":31.140368617952525,"确诊日期36":"1d"},{"SH_ID_36":"10gciuj","区36":"f","地址":"环林东路879弄","lng":121.52969846709723,"lat":31.139557272391148,"确诊日期36":"1d"},{"SH_ID_36":"10gciuk","区36":"f","地址":"环林东路906弄","lng":121.52872676865631,"lat":31.14120629919154,"确诊日期36":"1d"},{"SH_ID_36":"10gciul","区36":"f","地址":"环林西路608弄","lng":121.52168822934604,"lat":31.13984705331705,"确诊日期36":"1d"},{"SH_ID_36":"10gcium","区36":"f","地址":"环林西路848弄","lng":121.52656834936985,"lat":31.13926922000987,"确诊日期36":"1d"},{"SH_ID_36":"10gciun","区36":"f","地址":"环桥路1136弄","lng":121.60483541207037,"lat":31.136071818916182,"确诊日期36":"1d"},{"SH_ID_36":"10gciuo","区36":"f","地址":"环桥路1481弄","lng":121.60088030088849,"lat":31.14075948592634,"确诊日期36":"1d"},{"SH_ID_36":"10gciup","区36":"f","地址":"环桥路1488弄","lng":121.60338880940162,"lat":31.141969898011844,"确诊日期36":"1d"},{"SH_ID_36":"10gciuq","区36":"f","地址":"环庆南路336弄","lng":121.72816304318943,"lat":31.22715814592305,"确诊日期36":"1d"},{"SH_ID_36":"10gciur","区36":"f","地址":"环庆中路168弄","lng":121.72144942539329,"lat":31.233191923398362,"确诊日期36":"1d"},{"SH_ID_36":"10gcius","区36":"f","地址":"惠南镇城北村","lng":121.76911795645992,"lat":31.06320825636665,"确诊日期36":"1d"},{"SH_ID_36":"10gciut","区36":"f","地址":"惠南镇城南村","lng":121.73514457781575,"lat":31.027737326948483,"确诊日期36":"1d"},{"SH_ID_36":"10gciuu","区36":"f","地址":"惠南镇红光村","lng":121.77495037850704,"lat":31.06362023754156,"确诊日期36":"1d"},{"SH_ID_36":"10gciuv","区36":"f","地址":"惠南镇黄路村富强","lng":121.71033736382579,"lat":31.030383331947654,"确诊日期36":"1d"},{"SH_ID_36":"10gciuw","区36":"f","地址":"惠南镇惠东村","lng":121.77652878425866,"lat":31.04028780840294,"确诊日期36":"1d"},{"SH_ID_36":"10gciux","区36":"f","地址":"惠南镇陆楼村长路","lng":121.77909817710871,"lat":31.071051008376465,"确诊日期36":"1d"},{"SH_ID_36":"10gciuy","区36":"f","地址":"惠南镇勤丰村","lng":121.7757753296816,"lat":31.04423843798582,"确诊日期36":"1d"},{"SH_ID_36":"10gciuz","区36":"f","地址":"惠南镇团结村","lng":121.77824422049757,"lat":31.021666824258734,"确诊日期36":"1d"},{"SH_ID_36":"10gciv0","区36":"f","地址":"惠南镇西门村","lng":121.74160061443106,"lat":31.05477372617836,"确诊日期36":"1d"},{"SH_ID_36":"10gciv1","区36":"f","地址":"惠南镇徐庙村","lng":121.71470343602904,"lat":31.030488843703584,"确诊日期36":"1d"},{"SH_ID_36":"10gciv2","区36":"f","地址":"季景北路180弄","lng":121.58411449137277,"lat":31.34078051621022,"确诊日期36":"1d"},{"SH_ID_36":"10gciv3","区36":"f","地址":"济阳路333弄","lng":121.48332744864481,"lat":31.161653392334756,"确诊日期36":"1d"},{"SH_ID_36":"10gciv4","区36":"f","地址":"济阳路65弄","lng":121.48223203720977,"lat":31.167306995648133,"确诊日期36":"1d"},{"SH_ID_36":"10gciv5","区36":"f","地址":"建中路171弄","lng":121.61448803333465,"lat":31.202670606818703,"确诊日期36":"1d"},{"SH_ID_36":"10gciv6","区36":"f","地址":"江东路238号","lng":121.61601462628838,"lat":31.20615009565034,"确诊日期36":"1d"},{"SH_ID_36":"10gciv7","区36":"f","地址":"江东路25号","lng":121.61568439351085,"lat":31.20612505432982,"确诊日期36":"1d"},{"SH_ID_36":"10gciv8","区36":"f","地址":"交通新村","lng":121.76302041360368,"lat":31.03631303854146,"确诊日期36":"1d"},{"SH_ID_36":"10gciv9","区36":"f","地址":"界浜路55弄","lng":121.58397515512205,"lat":31.34434601553481,"确诊日期36":"1d"},{"SH_ID_36":"10gciva","区36":"f","地址":"金高路2131弄","lng":121.60963598893052,"lat":31.261348784602145,"确诊日期36":"1d"},{"SH_ID_36":"10gcivb","区36":"f","地址":"金高路988弄","lng":121.60836624832592,"lat":31.28595372380033,"确诊日期36":"1d"},{"SH_ID_36":"10gcivc","区36":"f","地址":"金沪路1218弄","lng":121.60209249279839,"lat":31.240912687393223,"确诊日期36":"1d"},{"SH_ID_36":"10gcivd","区36":"f","地址":"金槐路金粤路交界口工地生活区","lng":121.5486587863907,"lat":31.2045372394956,"确诊日期36":"1d"},{"SH_ID_36":"10gcive","区36":"f","地址":"金吉路33弄","lng":121.63255576069558,"lat":31.27328697962174,"确诊日期36":"1d"},{"SH_ID_36":"10gcivf","区36":"f","地址":"金口路155弄","lng":121.57809767159556,"lat":31.24874970106328,"确诊日期36":"1d"},{"SH_ID_36":"10gcivg","区36":"f","地址":"金口路411弄","lng":121.57966314665336,"lat":31.24755807206224,"确诊日期36":"1d"},{"SH_ID_36":"10gcivh","区36":"f","地址":"金口路44弄","lng":121.57598688845312,"lat":31.24899473178983,"确诊日期36":"1d"},{"SH_ID_36":"10gcivi","区36":"f","地址":"金葵路1115弄","lng":121.63077275703326,"lat":31.24025066630084,"确诊日期36":"1d"},{"SH_ID_36":"10gcivj","区36":"f","地址":"金葵路1315弄","lng":121.63509918604791,"lat":31.24031954131801,"确诊日期36":"1d"},{"SH_ID_36":"10gcivk","区36":"f","地址":"金葵路560弄","lng":121.61835341029429,"lat":31.2375598586889,"确诊日期36":"1d"},{"SH_ID_36":"10gcivl","区36":"f","地址":"金睦路353弄","lng":121.67462971196376,"lat":31.286845163890266,"确诊日期36":"1d"},{"SH_ID_36":"10gcivm","区36":"f","地址":"金桥路1498弄","lng":121.58909368191404,"lat":31.250804794029182,"确诊日期36":"1d"},{"SH_ID_36":"10gcivn","区36":"f","地址":"金桥路1502弄","lng":121.58788265993849,"lat":31.24846458920505,"确诊日期36":"1d"},{"SH_ID_36":"10gcivo","区36":"f","地址":"金桥路1504弄","lng":121.58981895292699,"lat":31.24977924814861,"确诊日期36":"1d"},{"SH_ID_36":"10gcivp","区36":"f","地址":"金桥路1506弄","lng":121.58952349477707,"lat":31.249197616257284,"确诊日期36":"1d"},{"SH_ID_36":"10gcivq","区36":"f","地址":"金桥路226弄","lng":121.56969829528418,"lat":31.26601976922919,"确诊日期36":"1d"},{"SH_ID_36":"10gcivr","区36":"f","地址":"金桥路2552弄","lng":121.60228085338083,"lat":31.234311321310404,"确诊日期36":"1d"},{"SH_ID_36":"10gcivs","区36":"f","地址":"金桥路2618号","lng":121.60358524244691,"lat":31.233164356888828,"确诊日期36":"1d"},{"SH_ID_36":"10gcivt","区36":"f","地址":"金桥路301弄","lng":121.5725796628196,"lat":31.2662135790515,"确诊日期36":"1d"},{"SH_ID_36":"10gcivu","区36":"f","地址":"金桥路825号","lng":121.5794888197559,"lat":31.25988542273488,"确诊日期36":"1d"},{"SH_ID_36":"10gcivv","区36":"f","地址":"金桥路899弄","lng":121.57982744671139,"lat":31.25899727198805,"确诊日期36":"1d"},{"SH_ID_36":"10gcivw","区36":"f","地址":"金桥路989弄","lng":121.57763061145444,"lat":31.25930815359341,"确诊日期36":"1d"},{"SH_ID_36":"10gcivx","区36":"f","地址":"金台路181弄","lng":121.58676358382985,"lat":31.25179889464974,"确诊日期36":"1d"},{"SH_ID_36":"10gcivy","区36":"f","地址":"金皖路55号工地生活区","lng":121.61402135242557,"lat":31.259278242368364,"确诊日期36":"1d"},{"SH_ID_36":"10gcivz","区36":"f","地址":"金湘路201弄","lng":121.61262118867937,"lat":31.255758743129437,"确诊日期36":"1d"},{"SH_ID_36":"10gciw0","区36":"f","地址":"金湘路225弄","lng":121.61335391796509,"lat":31.256296728184154,"确诊日期36":"1d"},{"SH_ID_36":"10gciw1","区36":"f","地址":"金晓路289弄","lng":121.68010889079599,"lat":31.275345926431,"确诊日期36":"1d"},{"SH_ID_36":"10gciw2","区36":"f","地址":"金杨路220弄","lng":121.57493766943935,"lat":31.24690207266585,"确诊日期36":"1d"},{"SH_ID_36":"10gciw3","区36":"f","地址":"金杨路308弄","lng":121.57730352149012,"lat":31.246070204066516,"确诊日期36":"1d"},{"SH_ID_36":"10gciw4","区36":"f","地址":"金杨路660弄","lng":121.58187108730682,"lat":31.251198613906222,"确诊日期36":"1d"},{"SH_ID_36":"10gciw5","区36":"f","地址":"金杨路685弄","lng":121.58142624077041,"lat":31.25357923292112,"确诊日期36":"1d"},{"SH_ID_36":"10gciw6","区36":"f","地址":"金杨路757弄","lng":121.58121139429655,"lat":31.252919258360365,"确诊日期36":"1d"},{"SH_ID_36":"10gciw7","区36":"f","地址":"金杨路785弄","lng":121.5826303179092,"lat":31.254126000880667,"确诊日期36":"1d"},{"SH_ID_36":"10gciw8","区36":"f","地址":"金钻路398弄","lng":121.67043180598307,"lat":31.285500325712942,"确诊日期36":"1d"},{"SH_ID_36":"10gciw9","区36":"f","地址":"金钻路669弄","lng":121.67655940715586,"lat":31.283921143273684,"确诊日期36":"1d"},{"SH_ID_36":"10gciwa","区36":"f","地址":"锦安东路280弄","lng":121.54292323751216,"lat":31.200585812481556,"确诊日期36":"1d"},{"SH_ID_36":"10gciwb","区36":"f","地址":"锦安东路567弄","lng":121.53996879453673,"lat":31.198572023362257,"确诊日期36":"1d"},{"SH_ID_36":"10gciwc","区36":"f","地址":"锦和路289弄","lng":121.53731667894158,"lat":31.204527591571733,"确诊日期36":"1d"},{"SH_ID_36":"10gciwd","区36":"f","地址":"锦和路99弄","lng":121.53268438391825,"lat":31.205408035524876,"确诊日期36":"1d"},{"SH_ID_36":"10gciwe","区36":"f","地址":"锦康路389弄","lng":121.53642432756506,"lat":31.2093204883602,"确诊日期36":"1d"},{"SH_ID_36":"10gciwf","区36":"f","地址":"锦绣路1650弄","lng":121.53950197441553,"lat":31.211220047091317,"确诊日期36":"1d"},{"SH_ID_36":"10gciwg","区36":"f","地址":"锦绣路3088弄","lng":121.53893669785553,"lat":31.18133279219211,"确诊日期36":"1d"},{"SH_ID_36":"10gciwh","区36":"f","地址":"锦绣路3336弄","lng":121.53958482294688,"lat":31.17795300039275,"确诊日期36":"1d"},{"SH_ID_36":"10gciwi","区36":"f","地址":"锦绣路3338弄","lng":121.53985252312162,"lat":31.175715368860672,"确诊日期36":"1d"},{"SH_ID_36":"10gciwj","区36":"f","地址":"京浦路298弄","lng":121.57097929147797,"lat":31.153486604587226,"确诊日期36":"1d"},{"SH_ID_36":"10gciwk","区36":"f","地址":"京浦路82弄","lng":121.56532192869399,"lat":31.152622511455913,"确诊日期36":"1d"},{"SH_ID_36":"10gciwl","区36":"f","地址":"泾东一村","lng":121.5568563202073,"lat":31.244071685783677,"确诊日期36":"1d"},{"SH_ID_36":"10gciwm","区36":"f","地址":"靖海路239弄","lng":121.76747325839881,"lat":31.04761425011858,"确诊日期36":"1d"},{"SH_ID_36":"10gciwn","区36":"f","地址":"靖海南路666弄","lng":121.76584234965755,"lat":31.033732003991666,"确诊日期36":"1d"},{"SH_ID_36":"10gciwo","区36":"f","地址":"居家桥路151弄","lng":121.56197574780421,"lat":31.260863903500542,"确诊日期36":"1d"},{"SH_ID_36":"10gciwp","区36":"f","地址":"居家桥路520弄","lng":121.56356760521449,"lat":31.254684201510635,"确诊日期36":"1d"},{"SH_ID_36":"10gciwq","区36":"f","地址":"巨峰路176弄","lng":121.59736875786815,"lat":31.27927297453041,"确诊日期36":"1d"},{"SH_ID_36":"10gciwr","区36":"f","地址":"巨峰路90弄","lng":121.59474982993729,"lat":31.27781304761798,"确诊日期36":"1d"},{"SH_ID_36":"10gciws","区36":"f","地址":"巨峰路997弄","lng":121.61219260530294,"lat":31.282668846651287,"确诊日期36":"1d"},{"SH_ID_36":"10gciwt","区36":"f","地址":"康桥东路1244号","lng":121.63121431152966,"lat":31.155904144760658,"确诊日期36":"1d"},{"SH_ID_36":"10gciwu","区36":"f","地址":"康桥路90弄","lng":121.58201364342968,"lat":31.15096106943428,"确诊日期36":"1d"},{"SH_ID_36":"10gciwv","区36":"f","地址":"康桥镇百曲村","lng":121.53953138365736,"lat":31.11714306207576,"确诊日期36":"1d"},{"SH_ID_36":"10gciww","区36":"f","地址":"康桥镇叠桥村","lng":121.61634256516251,"lat":31.128222164427054,"确诊日期36":"1d"},{"SH_ID_36":"10gciwx","区36":"f","地址":"康桥镇花墙村","lng":121.54916851775263,"lat":31.148342459393806,"确诊日期36":"1d"},{"SH_ID_36":"10gciwy","区36":"f","地址":"康桥镇火箭村","lng":121.60869098945143,"lat":31.139370189060482,"确诊日期36":"1d"},{"SH_ID_36":"10gciwz","区36":"f","地址":"康桥镇人南村","lng":121.62444634076401,"lat":31.138362583774345,"确诊日期36":"1d"},{"SH_ID_36":"10gcix0","区36":"f","地址":"康桥镇太平村","lng":121.55332665692607,"lat":31.12181530158779,"确诊日期36":"1d"},{"SH_ID_36":"10gcix1","区36":"f","地址":"康桥镇汤巷村","lng":121.60370832802516,"lat":31.147039845751074,"确诊日期36":"1d"},{"SH_ID_36":"10gcix2","区36":"f","地址":"康桥镇新苗村","lng":121.63765500369036,"lat":31.121959822227776,"确诊日期36":"1d"},{"SH_ID_36":"10gcix3","区36":"f","地址":"康桥镇秀龙村","lng":121.56290757923823,"lat":31.126260827590688,"确诊日期36":"1d"},{"SH_ID_36":"10gcix4","区36":"f","地址":"康桥镇沿北村","lng":121.58982431071979,"lat":31.144348289981703,"确诊日期36":"1d"},{"SH_ID_36":"10gcix5","区36":"f","地址":"康杉路118号","lng":121.5585600533027,"lat":31.15644733117224,"确诊日期36":"1d"},{"SH_ID_36":"10gcix6","区36":"f","地址":"康沈路1199弄","lng":121.57513414420497,"lat":31.125181798937,"确诊日期36":"1d"},{"SH_ID_36":"10gcix7","区36":"f","地址":"康沈路2262弄","lng":121.58074077189377,"lat":31.1010340431445,"确诊日期36":"1d"},{"SH_ID_36":"10gcix8","区36":"f","地址":"康沈路250弄","lng":121.57040773798816,"lat":31.140411710402454,"确诊日期36":"1d"},{"SH_ID_36":"10gcix9","区36":"f","地址":"康沈路400弄","lng":121.57073043560196,"lat":31.139944885416185,"确诊日期36":"1d"},{"SH_ID_36":"10gcixa","区36":"f","地址":"康沈路465弄","lng":121.57134850666203,"lat":31.139532504678932,"确诊日期36":"1d"},{"SH_ID_36":"10gcixb","区36":"f","地址":"康新公路秀浦路交界口工地生活区","lng":121.54861163653193,"lat":31.204696645744406,"确诊日期36":"1d"},{"SH_ID_36":"10gcixc","区36":"f","地址":"康意路御桥路交界口工地生活区","lng":121.56728676982333,"lat":31.156922470162726,"确诊日期36":"1d"},{"SH_ID_36":"10gcixd","区36":"f","地址":"莱阳路201弄","lng":121.57925600311836,"lat":31.273794594467297,"确诊日期36":"1d"},{"SH_ID_36":"10gcixe","区36":"f","地址":"莱阳路218号","lng":121.57945911796226,"lat":31.272444884677792,"确诊日期36":"1d"},{"SH_ID_36":"10gcixf","区36":"f","地址":"莱阳路301弄","lng":121.57984546363406,"lat":31.27484170888895,"确诊日期36":"1d"},{"SH_ID_36":"10gcixg","区36":"f","地址":"莱阳路350弄","lng":121.58306309940642,"lat":31.273859259679135,"确诊日期36":"1d"},{"SH_ID_36":"10gcixh","区36":"f","地址":"莱阳路451弄","lng":121.58257071101794,"lat":31.27559071263166,"确诊日期36":"1d"},{"SH_ID_36":"10gcixi","区36":"f","地址":"兰城路115弄","lng":121.57973557734924,"lat":31.266418641426338,"确诊日期36":"1d"},{"SH_ID_36":"10gcixj","区36":"f","地址":"兰嵩路360弄","lng":121.59195179982753,"lat":31.32304568490914,"确诊日期36":"1d"},{"SH_ID_36":"10gcixk","区36":"f","地址":"蓝村路30弄","lng":121.53010675226032,"lat":31.210830680270025,"确诊日期36":"1d"},{"SH_ID_36":"10gcixl","区36":"f","地址":"蓝村路31弄","lng":121.53229049654875,"lat":31.21230142812798,"确诊日期36":"1d"},{"SH_ID_36":"10gcixm","区36":"f","地址":"蓝村路471弄","lng":121.52725961181027,"lat":31.212471383681596,"确诊日期36":"1d"},{"SH_ID_36":"10gcixn","区36":"f","地址":"蓝村路501弄","lng":121.52491157784678,"lat":31.212307360371035,"确诊日期36":"1d"},{"SH_ID_36":"10gcixo","区36":"f","地址":"蓝村路60弄","lng":121.52948679066901,"lat":31.210326103956877,"确诊日期36":"1d"},{"SH_ID_36":"10gcixp","区36":"f","地址":"崂山路551弄","lng":121.52211824349676,"lat":31.226578992681,"确诊日期36":"1d"},{"SH_ID_36":"10gcixq","区36":"f","地址":"崂山路571弄","lng":121.52302382926715,"lat":31.226462912057674,"确诊日期36":"1d"},{"SH_ID_36":"10gcixr","区36":"f","地址":"崂山路644弄","lng":121.52590041704444,"lat":31.221999648763152,"确诊日期36":"1d"},{"SH_ID_36":"10gcixs","区36":"f","地址":"崂山路645弄","lng":121.52365116895483,"lat":31.22318230776486,"确诊日期36":"1d"},{"SH_ID_36":"10gcixt","区36":"f","地址":"崂山路80弄","lng":121.51580436496532,"lat":31.238928021851137,"确诊日期36":"1d"},{"SH_ID_36":"10gcixu","区36":"f","地址":"崂山三村","lng":121.51878378291008,"lat":31.23483748070701,"确诊日期36":"1d"},{"SH_ID_36":"10gcixv","区36":"f","地址":"崂山四村","lng":121.51838188498319,"lat":31.235020632661275,"确诊日期36":"1d"},{"SH_ID_36":"10gcixw","区36":"f","地址":"老港镇建港村港北","lng":121.84776995674567,"lat":31.027208961834095,"确诊日期36":"1d"},{"SH_ID_36":"10gcixx","区36":"f","地址":"历城路100弄","lng":121.49221392734546,"lat":31.174592393055693,"确诊日期36":"1d"},{"SH_ID_36":"10gcixy","区36":"f","地址":"历城路22弄","lng":121.492408199024,"lat":31.174454129674288,"确诊日期36":"1d"},{"SH_ID_36":"10gcixz","区36":"f","地址":"历城路81弄","lng":121.49278462318301,"lat":31.17529410770603,"确诊日期36":"1d"},{"SH_ID_36":"10gciy0","区36":"f","地址":"丽雅路122号","lng":121.68318383921238,"lat":31.23511544534298,"确诊日期36":"1d"},{"SH_ID_36":"10gciy1","区36":"f","地址":"利川路421弄","lng":121.6834788431407,"lat":31.204211290199126,"确诊日期36":"1d"},{"SH_ID_36":"10gciy2","区36":"f","地址":"利川路王桥路交界口工地生活区","lng":121.54868364965441,"lat":31.20486308736103,"确诊日期36":"1d"},{"SH_ID_36":"10gciy3","区36":"f","地址":"利津路185弄","lng":121.58035643242357,"lat":31.27968558007173,"确诊日期36":"1d"},{"SH_ID_36":"10gciy4","区36":"f","地址":"利津路385弄","lng":121.5859575741746,"lat":31.277604342328317,"确诊日期36":"1d"},{"SH_ID_36":"10gciy5","区36":"f","地址":"利津路53弄","lng":121.57863738559848,"lat":31.27922272589448,"确诊日期36":"1d"},{"SH_ID_36":"10gciy6","区36":"f","地址":"利津路729弄","lng":121.59031815070279,"lat":31.275234397015964,"确诊日期36":"1d"},{"SH_ID_36":"10gciy7","区36":"f","地址":"连波路228弄","lng":121.55314784202916,"lat":31.192048237461783,"确诊日期36":"1d"},{"SH_ID_36":"10gciy8","区36":"f","地址":"连波路26弄","lng":121.55055465737041,"lat":31.195091058177056,"确诊日期36":"1d"},{"SH_ID_36":"10gciy9","区36":"f","地址":"莲溪路1099弄","lng":121.56605719745359,"lat":31.173416667617786,"确诊日期36":"1d"},{"SH_ID_36":"10gciya","区36":"f","地址":"莲溪路126弄","lng":121.55979389129266,"lat":31.18685940106484,"确诊日期36":"1d"},{"SH_ID_36":"10gciyb","区36":"f","地址":"莲溪路430弄","lng":121.56042662666643,"lat":31.182306323379148,"确诊日期36":"1d"},{"SH_ID_36":"10gciyc","区36":"f","地址":"莲溪路780弄","lng":121.56156331799755,"lat":31.176698335386455,"确诊日期36":"1d"},{"SH_ID_36":"10gciyd","区36":"f","地址":"莲园路180弄","lng":121.55125303167145,"lat":31.184775781008593,"确诊日期36":"1d"},{"SH_ID_36":"10gciye","区36":"f","地址":"莲园路498弄","lng":121.55411571838385,"lat":31.185442718964577,"确诊日期36":"1d"},{"SH_ID_36":"10gciyf","区36":"f","地址":"莲园路77弄","lng":121.54574400383987,"lat":31.186064564960066,"确诊日期36":"1d"},{"SH_ID_36":"10gciyg","区36":"f","地址":"莲中路255弄","lng":121.55881237606451,"lat":31.18159337886536,"确诊日期36":"1d"},{"SH_ID_36":"10gciyh","区36":"f","地址":"林德路718弄","lng":121.50990320670257,"lat":31.129528169052488,"确诊日期36":"1d"},{"SH_ID_36":"10gciyi","区36":"f","地址":"林鸣路326弄","lng":121.52605889926826,"lat":31.13179846092305,"确诊日期36":"1d"},{"SH_ID_36":"10gciyj","区36":"f","地址":"林浦路1240弄","lng":121.47646768852272,"lat":31.126414583312695,"确诊日期36":"1d"},{"SH_ID_36":"10gciyk","区36":"f","地址":"林展路267弄","lng":121.5081910509804,"lat":31.127918691579847,"确诊日期36":"1d"},{"SH_ID_36":"10gciyl","区36":"f","地址":"林展路278弄","lng":121.5056946314685,"lat":31.127481140505502,"确诊日期36":"1d"},{"SH_ID_36":"10gciym","区36":"f","地址":"林展路411弄","lng":121.51021086524554,"lat":31.12293139484289,"确诊日期36":"1d"},{"SH_ID_36":"10gciyn","区36":"f","地址":"临沂北路100弄","lng":121.52040720507563,"lat":31.207718549735755,"确诊日期36":"1d"},{"SH_ID_36":"10gciyo","区36":"f","地址":"临沂北路150弄","lng":121.5169997829724,"lat":31.205850320368782,"确诊日期36":"1d"},{"SH_ID_36":"10gciyp","区36":"f","地址":"临沂路151弄","lng":121.51227273587777,"lat":31.19418383826159,"确诊日期36":"1d"},{"SH_ID_36":"10gciyq","区36":"f","地址":"临沂路181弄","lng":121.51311241079105,"lat":31.193231277891854,"确诊日期36":"1d"},{"SH_ID_36":"10gciyr","区36":"f","地址":"临沂路280弄","lng":121.50876012093438,"lat":31.19299539837345,"确诊日期36":"1d"},{"SH_ID_36":"10gciys","区36":"f","地址":"临沂路301弄","lng":121.51042909884018,"lat":31.190908086326584,"确诊日期36":"1d"},{"SH_ID_36":"10gciyt","区36":"f","地址":"临沂路81弄","lng":121.5175256192906,"lat":31.196922937002565,"确诊日期36":"1d"},{"SH_ID_36":"10gciyu","区36":"f","地址":"临沂路8弄","lng":121.51676232450765,"lat":31.200717237256253,"确诊日期36":"1d"},{"SH_ID_36":"10gciyv","区36":"f","地址":"灵山路1415弄","lng":121.56247352116235,"lat":31.23888528236608,"确诊日期36":"1d"},{"SH_ID_36":"10gciyw","区36":"f","地址":"灵山路1671弄","lng":121.56697070721953,"lat":31.239999731146405,"确诊日期36":"1d"},{"SH_ID_36":"10gciyx","区36":"f","地址":"灵山路1724弄","lng":121.56813310563687,"lat":31.23983676509969,"确诊日期36":"1d"},{"SH_ID_36":"10gciyy","区36":"f","地址":"灵山路1726弄","lng":121.5686636478777,"lat":31.240259114849597,"确诊日期36":"1d"},{"SH_ID_36":"10gciyz","区36":"f","地址":"灵山路730弄","lng":121.55040559627838,"lat":31.231249085743013,"确诊日期36":"1d"},{"SH_ID_36":"10gciz0","区36":"f","地址":"灵岩路56弄","lng":121.49363133776697,"lat":31.166682303257943,"确诊日期36":"1d"},{"SH_ID_36":"10gciz1","区36":"f","地址":"灵岩南路1180弄","lng":121.4996095875675,"lat":31.140067426570305,"确诊日期36":"1d"},{"SH_ID_36":"10gciz2","区36":"f","地址":"灵岩南路144号","lng":121.49395663413152,"lat":31.160249384086427,"确诊日期36":"1d"},{"SH_ID_36":"10gciz3","区36":"f","地址":"灵岩南路156弄","lng":121.49440013302292,"lat":31.159428430172973,"确诊日期36":"1d"},{"SH_ID_36":"10gciz4","区36":"f","地址":"灵岩南路380弄","lng":121.49646855696177,"lat":31.15411179974009,"确诊日期36":"1d"},{"SH_ID_36":"10gciz5","区36":"f","地址":"灵岩南路499弄","lng":121.49842294111934,"lat":31.15128995190189,"确诊日期36":"1d"},{"SH_ID_36":"10gciz6","区36":"f","地址":"灵岩南路769弄","lng":121.4988250388854,"lat":31.149593413538796,"确诊日期36":"1d"},{"SH_ID_36":"10gciz7","区36":"f","地址":"凌河路188弄","lng":121.59676808483673,"lat":31.275128925109364,"确诊日期36":"1d"},{"SH_ID_36":"10gciz8","区36":"f","地址":"凌河路354弄","lng":121.59923420877328,"lat":31.273718828276415,"确诊日期36":"1d"},{"SH_ID_36":"10gciz9","区36":"f","地址":"凌河路38弄","lng":121.59409660367139,"lat":31.27701458748192,"确诊日期36":"1d"},{"SH_ID_36":"10gciza","区36":"f","地址":"凌河路420弄","lng":121.5995062530393,"lat":31.27295572126111,"确诊日期36":"1d"},{"SH_ID_36":"10gcizb","区36":"f","地址":"凌河路618弄","lng":121.60307851916481,"lat":31.271915854202476,"确诊日期36":"1d"},{"SH_ID_36":"10gcizc","区36":"f","地址":"凌兆路127弄","lng":121.4926125809822,"lat":31.14239536328387,"确诊日期36":"1d"},{"SH_ID_36":"10gcizd","区36":"f","地址":"凌兆路256弄","lng":121.49625444710227,"lat":31.140831073377875,"确诊日期36":"1d"},{"SH_ID_36":"10gcize","区36":"f","地址":"凌兆路285弄","lng":121.49530802426077,"lat":31.14299637561726,"确诊日期36":"1d"},{"SH_ID_36":"10gcizf","区36":"f","地址":"凌兆路334弄","lng":121.49780380077759,"lat":31.141934800082375,"确诊日期36":"1d"},{"SH_ID_36":"10gcizg","区36":"f","地址":"凌兆路379弄","lng":121.49733857100468,"lat":31.14381847426636,"确诊日期36":"1d"},{"SH_ID_36":"10gcizh","区36":"f","地址":"凌兆路396弄","lng":121.49927908678139,"lat":31.142480777007655,"确诊日期36":"1d"},{"SH_ID_36":"10gcizi","区36":"f","地址":"凌兆路500弄","lng":121.50006649567182,"lat":31.143514125165797,"确诊日期36":"1d"},{"SH_ID_36":"10gcizj","区36":"f","地址":"凌兆路530弄","lng":121.5075720675136,"lat":31.146400749275063,"确诊日期36":"1d"},{"SH_ID_36":"10gcizk","区36":"f","地址":"凌兆路586弄","lng":121.50228459811444,"lat":31.14316214487505,"确诊日期36":"1d"},{"SH_ID_36":"10gcizl","区36":"f","地址":"凌兆路711弄","lng":121.50491187620464,"lat":31.145868864668177,"确诊日期36":"1d"},{"SH_ID_36":"10gcizm","区36":"f","地址":"凌兆路88弄","lng":121.49232437744674,"lat":31.140044621416774,"确诊日期36":"1d"},{"SH_ID_36":"10gcizn","区36":"f","地址":"柳埠路135弄","lng":121.58398094280652,"lat":31.261742951435597,"确诊日期36":"1d"},{"SH_ID_36":"10gcizo","区36":"f","地址":"龙东大道5401弄","lng":121.68091448140046,"lat":31.234373494126338,"确诊日期36":"1d"},{"SH_ID_36":"10gcizp","区36":"f","地址":"龙东大道6459号","lng":121.70513304325708,"lat":31.238772040497476,"确诊日期36":"1d"},{"SH_ID_36":"10gcizq","区36":"f","地址":"龙东大道云山路交界口工地生活区","lng":121.45763097131257,"lat":31.15782791775506,"确诊日期36":"1d"},{"SH_ID_36":"10gcizr","区36":"f","地址":"龙汇路168号工地生活区","lng":121.55148223148946,"lat":31.198829901914483,"确诊日期36":"1d"},{"SH_ID_36":"10gcizs","区36":"f","地址":"龙居路147号","lng":121.56285973852138,"lat":31.252465272466353,"确诊日期36":"1d"},{"SH_ID_36":"10gcizt","区36":"f","地址":"龙居路150弄","lng":121.56112713070628,"lat":31.252248655343266,"确诊日期36":"1d"},{"SH_ID_36":"10gcizu","区36":"f","地址":"龙居路180弄","lng":121.56250994962548,"lat":31.25135227707495,"确诊日期36":"1d"},{"SH_ID_36":"10gcizv","区36":"f","地址":"龙居路191弄","lng":121.56432231781422,"lat":31.25208702808443,"确诊日期36":"1d"},{"SH_ID_36":"10gcizw","区36":"f","地址":"龙居路30弄","lng":121.55900169501777,"lat":31.255184572817317,"确诊日期36":"1d"},{"SH_ID_36":"10gcizx","区36":"f","地址":"龙阳路1188号","lng":121.53047472845152,"lat":31.198360985642214,"确诊日期36":"1d"},{"SH_ID_36":"10gcizy","区36":"f","地址":"龙阳路158号工地生活区","lng":121.51165735813366,"lat":31.20293366008359,"确诊日期36":"1d"},{"SH_ID_36":"10gcizz","区36":"f","地址":"芦潮路333弄","lng":121.85906034012847,"lat":30.863932696418228,"确诊日期36":"1d"},{"SH_ID_36":"10gcj00","区36":"f","地址":"罗山路108弄","lng":121.5521827087012,"lat":31.24849015453741,"确诊日期36":"1d"},{"SH_ID_36":"10gcj01","区36":"f","地址":"罗山路1502弄","lng":121.56908090903063,"lat":31.2285714897216,"确诊日期36":"1d"},{"SH_ID_36":"10gcj02","区36":"f","地址":"绿林路320弄","lng":121.54750198273362,"lat":31.170055504373487,"确诊日期36":"1d"},{"SH_ID_36":"10gcj03","区36":"f","地址":"绿林路50弄","lng":121.54675805612925,"lat":31.174165353875964,"确诊日期36":"1d"},{"SH_ID_36":"10gcj04","区36":"f","地址":"绿林路51弄","lng":121.54878210944304,"lat":31.17456163519429,"确诊日期36":"1d"},{"SH_ID_36":"10gcj05","区36":"f","地址":"绿林路52弄","lng":121.54770696977685,"lat":31.173300534410387,"确诊日期36":"1d"},{"SH_ID_36":"10gcj06","区36":"f","地址":"茂兴路98号","lng":121.51358412868171,"lat":31.20918496532003,"确诊日期36":"1d"},{"SH_ID_36":"10gcj07","区36":"f","地址":"梅花路168弄","lng":121.76067064381444,"lat":31.05175589454359,"确诊日期36":"1d"},{"SH_ID_36":"10gcj08","区36":"f","地址":"苗圃路463弄","lng":121.54990433474936,"lat":31.23674363797318,"确诊日期36":"1d"},{"SH_ID_36":"10gcj09","区36":"f","地址":"苗桥路455号生活区","lng":121.62885498214509,"lat":31.1270885237134,"确诊日期36":"1d"},{"SH_ID_36":"10gcj0a","区36":"f","地址":"妙川路1000弄","lng":121.71477832798806,"lat":31.179878843449824,"确诊日期36":"1d"},{"SH_ID_36":"10gcj0b","区36":"f","地址":"民春路501弄","lng":121.66679069277797,"lat":31.277145420447862,"确诊日期36":"1d"},{"SH_ID_36":"10gcj0c","区36":"f","地址":"民冬路169号生活区","lng":121.65422230059339,"lat":31.286439294368876,"确诊日期36":"1d"},{"SH_ID_36":"10gcj0d","区36":"f","地址":"民民路8号","lng":121.65115147188259,"lat":31.271134185661595,"确诊日期36":"1d"},{"SH_ID_36":"10gcj0e","区36":"f","地址":"民区路260弄","lng":121.65606626984317,"lat":31.27345355678182,"确诊日期36":"1d"},{"SH_ID_36":"10gcj0f","区36":"f","地址":"民生路423号","lng":121.54318947958235,"lat":31.240047030006814,"确诊日期36":"1d"},{"SH_ID_36":"10gcj0g","区36":"f","地址":"民唐路秦家港路交界口工地生活区","lng":121.66566554222894,"lat":31.26121429501971,"确诊日期36":"1d"},{"SH_ID_36":"10gcj0h","区36":"f","地址":"民同路293弄","lng":121.65317392837241,"lat":31.27078256510748,"确诊日期36":"1d"},{"SH_ID_36":"10gcj0i","区36":"f","地址":"民雪路108弄","lng":121.65835207057329,"lat":31.27491403092217,"确诊日期36":"1d"},{"SH_ID_36":"10gcj0j","区36":"f","地址":"民雪路918弄","lng":121.65882368215428,"lat":31.271958949759785,"确诊日期36":"1d"},{"SH_ID_36":"10gcj0k","区36":"f","地址":"民耀路268弄","lng":121.65282734179029,"lat":31.27241262051967,"确诊日期36":"1d"},{"SH_ID_36":"10gcj0l","区36":"f","地址":"民耀路391弄","lng":121.65515642361588,"lat":31.271348603009,"确诊日期36":"1d"},{"SH_ID_36":"10gcj0m","区36":"f","地址":"民耀路97弄","lng":121.6532043532829,"lat":31.274407604127415,"确诊日期36":"1d"},{"SH_ID_36":"10gcj0n","区36":"f","地址":"牟平路56弄","lng":121.59661218170118,"lat":31.26707875966724,"确诊日期36":"1d"},{"SH_ID_36":"10gcj0o","区36":"f","地址":"牡丹路165弄","lng":121.54579560935001,"lat":31.207659634366593,"确诊日期36":"1d"},{"SH_ID_36":"10gcj0p","区36":"f","地址":"牡丹路186弄","lng":121.54644824032034,"lat":31.205934575162065,"确诊日期36":"1d"},{"SH_ID_36":"10gcj0q","区36":"f","地址":"南曹路901弄","lng":121.6623815676837,"lat":31.204576594215418,"确诊日期36":"1d"},{"SH_ID_36":"10gcj0r","区36":"f","地址":"南汇新城镇庙港村","lng":121.86340121366878,"lat":30.873169118943775,"确诊日期36":"1d"},{"SH_ID_36":"10gcj0s","区36":"f","地址":"南林路584弄","lng":121.52183033531558,"lat":31.137391623889904,"确诊日期36":"1d"},{"SH_ID_36":"10gcj0t","区36":"f","地址":"南六公路399弄","lng":121.71278860636919,"lat":31.06136718668593,"确诊日期36":"1d"},{"SH_ID_36":"10gcj0u","区36":"f","地址":"南码头路1120弄","lng":121.51412184969456,"lat":31.185812600856885,"确诊日期36":"1d"},{"SH_ID_36":"10gcj0v","区36":"f","地址":"南码头路1136弄","lng":121.51442343996446,"lat":31.183526797527602,"确诊日期36":"1d"},{"SH_ID_36":"10gcj0w","区36":"f","地址":"南码头路1186弄","lng":121.51284565522218,"lat":31.183165213032645,"确诊日期36":"1d"},{"SH_ID_36":"10gcj0x","区36":"f","地址":"南码头路1288弄","lng":121.51390838234164,"lat":31.182099375174875,"确诊日期36":"1d"},{"SH_ID_36":"10gcj0y","区36":"f","地址":"南码头路1351弄","lng":121.51628196735935,"lat":31.18046918362313,"确诊日期36":"1d"},{"SH_ID_36":"10gcj0z","区36":"f","地址":"南码头路144弄","lng":121.50755524581628,"lat":31.19939258575194,"确诊日期36":"1d"},{"SH_ID_36":"10gcj10","区36":"f","地址":"南码头路1621弄","lng":121.51794455651402,"lat":31.175281501216233,"确诊日期36":"1d"},{"SH_ID_36":"10gcj11","区36":"f","地址":"南码头路1675弄","lng":121.51423218179275,"lat":31.174735544695892,"确诊日期36":"1d"},{"SH_ID_36":"10gcj12","区36":"f","地址":"南码头路193弄","lng":121.50920305665272,"lat":31.19945619841896,"确诊日期36":"1d"},{"SH_ID_36":"10gcj13","区36":"f","地址":"南码头路450弄","lng":121.50938513954769,"lat":31.19348659589,"确诊日期36":"1d"},{"SH_ID_36":"10gcj14","区36":"f","地址":"南码头路451弄","lng":121.51083088468062,"lat":31.195339986213636,"确诊日期36":"1d"},{"SH_ID_36":"10gcj15","区36":"f","地址":"南码头路56号","lng":121.50637615940225,"lat":31.199841609239574,"确诊日期36":"1d"},{"SH_ID_36":"10gcj16","区36":"f","地址":"南桥路237弄","lng":121.70860406586661,"lat":31.191700637104397,"确诊日期36":"1d"},{"SH_ID_36":"10gcj17","区36":"f","地址":"南桥路297弄","lng":121.70730524940267,"lat":31.191432902304527,"确诊日期36":"1d"},{"SH_ID_36":"10gcj18","区36":"f","地址":"南桥路707弄","lng":121.69636343076117,"lat":31.18885252239463,"确诊日期36":"1d"},{"SH_ID_36":"10gcj19","区36":"f","地址":"南泉北路101弄","lng":121.51509895872442,"lat":31.237629856905826,"确诊日期36":"1d"},{"SH_ID_36":"10gcj1a","区36":"f","地址":"南泉北路1040弄","lng":121.52024314265388,"lat":31.22605095612636,"确诊日期36":"1d"},{"SH_ID_36":"10gcj1b","区36":"f","地址":"南泉北路301弄","lng":121.51682551796824,"lat":31.23437760253008,"确诊日期36":"1d"},{"SH_ID_36":"10gcj1c","区36":"f","地址":"南泉路1200弄","lng":121.52270363254168,"lat":31.213679066796583,"确诊日期36":"1d"},{"SH_ID_36":"10gcj1d","区36":"f","地址":"南泉路1211弄","lng":121.52353030031246,"lat":31.21336896688192,"确诊日期36":"1d"},{"SH_ID_36":"10gcj1e","区36":"f","地址":"南泉路1317号","lng":121.52208335540497,"lat":31.21011123975321,"确诊日期36":"1d"},{"SH_ID_36":"10gcj1f","区36":"f","地址":"南泉路1320弄","lng":121.52053236544154,"lat":31.210218978108568,"确诊日期36":"1d"},{"SH_ID_36":"10gcj1g","区36":"f","地址":"南泉路50号","lng":121.51986978931598,"lat":31.222894226246243,"确诊日期36":"1d"},{"SH_ID_36":"10gcj1h","区36":"f","地址":"南团公路858弄","lng":121.76243400327544,"lat":31.02665840088357,"确诊日期36":"1d"},{"SH_ID_36":"10gcj1i","区36":"f","地址":"南祝路258弄","lng":121.75582868742539,"lat":31.117730118389844,"确诊日期36":"1d"},{"SH_ID_36":"10gcj1j","区36":"f","地址":"泥城镇彭庙村学士","lng":121.78717812689185,"lat":30.894784619416534,"确诊日期36":"1d"},{"SH_ID_36":"10gcj1k","区36":"f","地址":"泥城镇人民村高桥","lng":121.82348147998333,"lat":30.904845994613744,"确诊日期36":"1d"},{"SH_ID_36":"10gcj1l","区36":"f","地址":"泥城镇新泐村彭六","lng":121.79625822411141,"lat":30.906731503016317,"确诊日期36":"1d"},{"SH_ID_36":"10gcj1m","区36":"f","地址":"泥城镇中泐村北泐","lng":121.79029687389205,"lat":30.91833674506612,"确诊日期36":"1d"},{"SH_ID_36":"10gcj1n","区36":"f","地址":"年家浜路339弄","lng":121.57657738044136,"lat":31.11386984213672,"确诊日期36":"1d"},{"SH_ID_36":"10gcj1o","区36":"f","地址":"年家浜路425弄","lng":121.57236741207574,"lat":31.112676155156624,"确诊日期36":"1d"},{"SH_ID_36":"10gcj1p","区36":"f","地址":"年家浜路470号","lng":121.57271941242836,"lat":31.114526520637117,"确诊日期36":"1d"},{"SH_ID_36":"10gcj1q","区36":"f","地址":"年家浜路501弄","lng":121.56889643817125,"lat":31.113198779114157,"确诊日期36":"1d"},{"SH_ID_36":"10gcj1r","区36":"f","地址":"宁桥路825号","lng":121.62028805533716,"lat":31.253740618513152,"确诊日期36":"1d"},{"SH_ID_36":"10gcj1s","区36":"f","地址":"宁阳路14弄","lng":121.5173471827127,"lat":31.21184681093153,"确诊日期36":"1d"},{"SH_ID_36":"10gcj1t","区36":"f","地址":"鹏飞路333弄","lng":121.55731091290164,"lat":31.171475678527955,"确诊日期36":"1d"},{"SH_ID_36":"10gcj1u","区36":"f","地址":"鹏飞路426弄","lng":121.55523607820564,"lat":31.171650810698303,"确诊日期36":"1d"},{"SH_ID_36":"10gcj1v","区36":"f","地址":"浦城路366弄","lng":121.5127903376294,"lat":31.227962994639686,"确诊日期36":"1d"},{"SH_ID_36":"10gcj1w","区36":"f","地址":"浦城路377弄","lng":121.5128962462959,"lat":31.22677827022317,"确诊日期36":"1d"},{"SH_ID_36":"10gcj1x","区36":"f","地址":"浦城路580弄","lng":121.51479494416364,"lat":31.22435782388336,"确诊日期36":"1d"},{"SH_ID_36":"10gcj1y","区36":"f","地址":"浦电路108弄","lng":121.52025694300823,"lat":31.218856074195788,"确诊日期36":"1d"},{"SH_ID_36":"10gcj1z","区36":"f","地址":"浦电路149弄","lng":121.52117013453754,"lat":31.21784740202459,"确诊日期36":"1d"},{"SH_ID_36":"10gcj20","区36":"f","地址":"浦电路218号","lng":121.52319938576045,"lat":31.220115560238316,"确诊日期36":"1d"},{"SH_ID_36":"10gcj21","区36":"f","地址":"浦电路221号","lng":121.52380534364978,"lat":31.218565000078346,"确诊日期36":"1d"},{"SH_ID_36":"10gcj22","区36":"f","地址":"浦电路29弄","lng":121.5148656830988,"lat":31.216403823343995,"确诊日期36":"1d"},{"SH_ID_36":"10gcj23","区36":"f","地址":"浦电路305弄","lng":121.52657282860557,"lat":31.218498295547853,"确诊日期36":"1d"},{"SH_ID_36":"10gcj24","区36":"f","地址":"浦电路330弄","lng":121.52654922473685,"lat":31.2211829874434,"确诊日期36":"1d"},{"SH_ID_36":"10gcj25","区36":"f","地址":"浦电路331弄","lng":121.52807201652504,"lat":31.219304523037938,"确诊日期36":"1d"},{"SH_ID_36":"10gcj26","区36":"f","地址":"浦电路48弄","lng":121.51706627739952,"lat":31.218255592886457,"确诊日期36":"1d"},{"SH_ID_36":"10gcj27","区36":"f","地址":"浦东大道1139弄","lng":121.53624966328545,"lat":31.24271910484698,"确诊日期36":"1d"},{"SH_ID_36":"10gcj28","区36":"f","地址":"浦东大道136弄","lng":121.51376595011845,"lat":31.237736663377625,"确诊日期36":"1d"},{"SH_ID_36":"10gcj29","区36":"f","地址":"浦东大道140弄","lng":121.5144893924774,"lat":31.238745918292622,"确诊日期36":"1d"},{"SH_ID_36":"10gcj2a","区36":"f","地址":"浦东大道1460弄","lng":121.53629328492121,"lat":31.242123069176063,"确诊日期36":"1d"},{"SH_ID_36":"10gcj2b","区36":"f","地址":"浦东大道1476号","lng":121.53625640349746,"lat":31.242473058584935,"确诊日期36":"1d"},{"SH_ID_36":"10gcj2c","区36":"f","地址":"浦东大道1585弄","lng":121.54084195749812,"lat":31.244681658796388,"确诊日期36":"1d"},{"SH_ID_36":"10gcj2d","区36":"f","地址":"浦东大道1615弄","lng":121.54163495417183,"lat":31.245845061922473,"确诊日期36":"1d"},{"SH_ID_36":"10gcj2e","区36":"f","地址":"浦东大道1623弄","lng":121.54214550824621,"lat":31.24587396101727,"确诊日期36":"1d"},{"SH_ID_36":"10gcj2f","区36":"f","地址":"浦东大道1695弄","lng":121.54394931705016,"lat":31.2462861756937,"确诊日期36":"1d"},{"SH_ID_36":"10gcj2g","区36":"f","地址":"浦东大道1700弄","lng":121.54414915500308,"lat":31.244829839947954,"确诊日期36":"1d"},{"SH_ID_36":"10gcj2h","区36":"f","地址":"浦东大道1851弄","lng":121.54469732044672,"lat":31.247363749226906,"确诊日期36":"1d"},{"SH_ID_36":"10gcj2i","区36":"f","地址":"浦东大道2511弄","lng":121.55912622958587,"lat":31.259374568396687,"确诊日期36":"1d"},{"SH_ID_36":"10gcj2j","区36":"f","地址":"浦东大道2515号","lng":121.56092933535672,"lat":31.25867283417695,"确诊日期36":"1d"},{"SH_ID_36":"10gcj2k","区36":"f","地址":"浦东大道2639弄","lng":121.5674086031792,"lat":31.263640739260254,"确诊日期36":"1d"},{"SH_ID_36":"10gcj2l","区36":"f","地址":"浦东大道2641弄","lng":121.56648285086224,"lat":31.263659437982817,"确诊日期36":"1d"},{"SH_ID_36":"10gcj2m","区36":"f","地址":"浦东大道2742弄","lng":121.56829288371382,"lat":31.26449195273145,"确诊日期36":"1d"},{"SH_ID_36":"10gcj2n","区36":"f","地址":"浦东大道2746弄","lng":121.57218471057149,"lat":31.267380828076067,"确诊日期36":"1d"},{"SH_ID_36":"10gcj2o","区36":"f","地址":"浦东大道2778弄","lng":121.57545101315723,"lat":31.26952896379104,"确诊日期36":"1d"},{"SH_ID_36":"10gcj2p","区36":"f","地址":"浦东大道2894号","lng":121.57651302812424,"lat":31.272577704334378,"确诊日期36":"1d"},{"SH_ID_36":"10gcj2q","区36":"f","地址":"浦东大道290弄","lng":121.51726485339506,"lat":31.239383311029115,"确诊日期36":"1d"},{"SH_ID_36":"10gcj2r","区36":"f","地址":"浦东大道2970弄","lng":121.5813009684384,"lat":31.27671395705588,"确诊日期36":"1d"},{"SH_ID_36":"10gcj2s","区36":"f","地址":"浦东大道3036弄","lng":121.57739492335638,"lat":31.279322325394162,"确诊日期36":"1d"},{"SH_ID_36":"10gcj2t","区36":"f","地址":"浦东大道691弄","lng":121.52415379740403,"lat":31.24161025730985,"确诊日期36":"1d"},{"SH_ID_36":"10gcj2u","区36":"f","地址":"浦东南路1288号","lng":121.51643464951287,"lat":31.225179951127075,"确诊日期36":"1d"},{"SH_ID_36":"10gcj2v","区36":"f","地址":"浦东南路1341弄","lng":121.5181385203994,"lat":31.22409797974864,"确诊日期36":"1d"},{"SH_ID_36":"10gcj2w","区36":"f","地址":"浦东南路1349号","lng":121.51756100358642,"lat":31.224915928736397,"确诊日期36":"1d"},{"SH_ID_36":"10gcj2x","区36":"f","地址":"浦东南路1475弄","lng":121.51848687900834,"lat":31.22207752852469,"确诊日期36":"1d"},{"SH_ID_36":"10gcj2y","区36":"f","地址":"浦东南路1533号","lng":121.52088933204863,"lat":31.220717518003884,"确诊日期36":"1d"},{"SH_ID_36":"10gcj2z","区36":"f","地址":"浦东南路1700弄","lng":121.5180166518665,"lat":31.217698455145378,"确诊日期36":"1d"},{"SH_ID_36":"10gcj30","区36":"f","地址":"浦东南路1862弄","lng":121.5177522317603,"lat":31.215987573605165,"确诊日期36":"1d"},{"SH_ID_36":"10gcj31","区36":"f","地址":"浦东南路2141弄","lng":121.51652953217143,"lat":31.20867571350988,"确诊日期36":"1d"},{"SH_ID_36":"10gcj32","区36":"f","地址":"浦东南路2192弄","lng":121.51319398761494,"lat":31.206650043997005,"确诊日期36":"1d"},{"SH_ID_36":"10gcj33","区36":"f","地址":"浦东南路2351弄","lng":121.51229807864031,"lat":31.197149825686886,"确诊日期36":"1d"},{"SH_ID_36":"10gcj34","区36":"f","地址":"浦东南路2362号","lng":121.51076360894332,"lat":31.199699921389143,"确诊日期36":"1d"},{"SH_ID_36":"10gcj35","区36":"f","地址":"浦东南路2366号","lng":121.51129830573178,"lat":31.199796306887894,"确诊日期36":"1d"},{"SH_ID_36":"10gcj36","区36":"f","地址":"浦东南路3405弄","lng":121.50865322456521,"lat":31.193604886265632,"确诊日期36":"1d"},{"SH_ID_36":"10gcj37","区36":"f","地址":"浦东南路4815号","lng":121.4983438046765,"lat":31.179867114673723,"确诊日期36":"1d"},{"SH_ID_36":"10gcj38","区36":"f","地址":"浦东南路575弄","lng":121.51237559891788,"lat":31.2365463189637,"确诊日期36":"1d"},{"SH_ID_36":"10gcj39","区36":"f","地址":"浦东南路595弄","lng":121.51278002972114,"lat":31.23628639227214,"确诊日期36":"1d"},{"SH_ID_36":"10gcj3a","区36":"f","地址":"浦东南路978号","lng":121.51465769293877,"lat":31.23032361207873,"确诊日期36":"1d"},{"SH_ID_36":"10gcj3b","区36":"f","地址":"浦建路47号","lng":121.5191392744734,"lat":31.210754363512056,"确诊日期36":"1d"},{"SH_ID_36":"10gcj3c","区36":"f","地址":"浦建路725弄","lng":121.53081237204262,"lat":31.209427371360434,"确诊日期36":"1d"},{"SH_ID_36":"10gcj3d","区36":"f","地址":"浦建路83弄","lng":121.5202349006715,"lat":31.210653750231135,"确诊日期36":"1d"},{"SH_ID_36":"10gcj3e","区36":"f","地址":"浦明路258弄","lng":121.50894454997761,"lat":31.22568424546462,"确诊日期36":"1d"},{"SH_ID_36":"10gcj3f","区36":"f","地址":"浦明路99弄","lng":121.50842833411593,"lat":31.230019225377088,"确诊日期36":"1d"},{"SH_ID_36":"10gcj3g","区36":"f","地址":"浦三路12弄","lng":121.51057126944667,"lat":31.196581563895975,"确诊日期36":"1d"},{"SH_ID_36":"10gcj3h","区36":"f","地址":"浦三路2801弄","lng":121.53809653227198,"lat":31.15510396258047,"确诊日期36":"1d"},{"SH_ID_36":"10gcj3i","区36":"f","地址":"浦三路288弄","lng":121.51367036001812,"lat":31.19282489237873,"确诊日期36":"1d"},{"SH_ID_36":"10gcj3j","区36":"f","地址":"浦三路5127弄","lng":121.53309651033109,"lat":31.160415821360772,"确诊日期36":"1d"},{"SH_ID_36":"10gcj3k","区36":"f","地址":"浦三路603号","lng":121.51636775116808,"lat":31.18899422607347,"确诊日期36":"1d"},{"SH_ID_36":"10gcj3l","区36":"f","地址":"浦三路775弄","lng":121.51952298383614,"lat":31.184200888714745,"确诊日期36":"1d"},{"SH_ID_36":"10gcj3m","区36":"f","地址":"浦三路年家浜路交界口工地生活区","lng":121.56748810001656,"lat":31.113330173951514,"确诊日期36":"1d"},{"SH_ID_36":"10gcj3n","区36":"f","地址":"浦三路秀浦路交界口工地生活区","lng":121.6030502887276,"lat":31.129437758805953,"确诊日期36":"1d"},{"SH_ID_36":"10gcj3o","区36":"f","地址":"栖山路100弄","lng":121.54379257924384,"lat":31.241912742182524,"确诊日期36":"1d"},{"SH_ID_36":"10gcj3p","区36":"f","地址":"栖山路1088弄","lng":121.55867567918574,"lat":31.25283680413031,"确诊日期36":"1d"},{"SH_ID_36":"10gcj3q","区36":"f","地址":"栖山路1489弄","lng":121.56454593271846,"lat":31.2572554606202,"确诊日期36":"1d"},{"SH_ID_36":"10gcj3r","区36":"f","地址":"栖山路1555弄","lng":121.56504106918676,"lat":31.257697047468785,"确诊日期36":"1d"},{"SH_ID_36":"10gcj3s","区36":"f","地址":"栖山路1636弄","lng":121.56801363387247,"lat":31.257807994929095,"确诊日期36":"1d"},{"SH_ID_36":"10gcj3t","区36":"f","地址":"栖山路400弄","lng":121.55096829890054,"lat":31.246119901485592,"确诊日期36":"1d"},{"SH_ID_36":"10gcj3u","区36":"f","地址":"栖山路401弄","lng":121.54965805379308,"lat":31.246692052379327,"确诊日期36":"1d"},{"SH_ID_36":"10gcj3v","区36":"f","地址":"栖山路470弄","lng":121.56452390954372,"lat":31.25725009529622,"确诊日期36":"1d"},{"SH_ID_36":"10gcj3w","区36":"f","地址":"栖霞路190弄","lng":121.51851565298597,"lat":31.2369456940482,"确诊日期36":"1d"},{"SH_ID_36":"10gcj3x","区36":"f","地址":"栖霞路286号","lng":121.52188837428994,"lat":31.23815537116527,"确诊日期36":"1d"},{"SH_ID_36":"10gcj3y","区36":"f","地址":"齐河路10弄","lng":121.49947354944167,"lat":31.177306197568832,"确诊日期36":"1d"},{"SH_ID_36":"10gcj3z","区36":"f","地址":"齐河路28弄","lng":121.5020670190063,"lat":31.17842602133075,"确诊日期36":"1d"},{"SH_ID_36":"10gcj40","区36":"f","地址":"齐恒路118弄","lng":121.52020849603711,"lat":31.187190801019415,"确诊日期36":"1d"},{"SH_ID_36":"10gcj41","区36":"f","地址":"齐恒路177弄","lng":121.52217063896576,"lat":31.18638164157707,"确诊日期36":"1d"},{"SH_ID_36":"10gcj42","区36":"f","地址":"齐恒路95弄","lng":121.52142187867949,"lat":31.18911423465779,"确诊日期36":"1d"},{"SH_ID_36":"10gcj43","区36":"f","地址":"千汇路1000弄","lng":121.557582006511,"lat":31.20301372012228,"确诊日期36":"1d"},{"SH_ID_36":"10gcj44","区36":"f","地址":"千汇路1280弄","lng":121.76222128022927,"lat":31.127408082898725,"确诊日期36":"1d"},{"SH_ID_36":"10gcj45","区36":"f","地址":"千汇路198弄","lng":121.76947625003072,"lat":31.105552063064586,"确诊日期36":"1d"},{"SH_ID_36":"10gcj46","区36":"f","地址":"千汇路581弄","lng":121.76512021067141,"lat":31.113580893202627,"确诊日期36":"1d"},{"SH_ID_36":"10gcj47","区36":"f","地址":"千汇路750弄","lng":121.76329726751146,"lat":31.117502227456175,"确诊日期36":"1d"},{"SH_ID_36":"10gcj48","区36":"f","地址":"钱仓路313弄","lng":121.52140585101243,"lat":31.23981948264333,"确诊日期36":"1d"},{"SH_ID_36":"10gcj49","区36":"f","地址":"青桐路358弄","lng":121.62223414875182,"lat":31.21683755661049,"确诊日期36":"1d"},{"SH_ID_36":"10gcj4a","区36":"f","地址":"青艺路181弄","lng":121.68004091689183,"lat":31.196471013947072,"确诊日期36":"1d"},{"SH_ID_36":"10gcj4b","区36":"f","地址":"清溪路400弄","lng":121.57098797613558,"lat":31.34076147456642,"确诊日期36":"1d"},{"SH_ID_36":"10gcj4c","区36":"f","地址":"人民东路580号","lng":121.77919268338576,"lat":31.049272274229793,"确诊日期36":"1d"},{"SH_ID_36":"10gcj4d","区36":"f","地址":"乳山路130弄","lng":121.52308383166671,"lat":31.23534763525516,"确诊日期36":"1d"},{"SH_ID_36":"10gcj4e","区36":"f","地址":"乳山路161弄","lng":121.52085668809404,"lat":31.23632555105689,"确诊日期36":"1d"},{"SH_ID_36":"10gcj4f","区36":"f","地址":"瑞安路80弄","lng":121.58789885503283,"lat":31.08922586904811,"确诊日期36":"1d"},{"SH_ID_36":"10gcj4g","区36":"f","地址":"瑞福路52弄","lng":121.60124051047549,"lat":31.09599217985802,"确诊日期36":"1d"},{"SH_ID_36":"10gcj4h","区36":"f","地址":"瑞和路101弄","lng":121.58625268599685,"lat":31.086935570832534,"确诊日期36":"1d"},{"SH_ID_36":"10gcj4i","区36":"f","地址":"瑞浦路611弄","lng":121.58662294704855,"lat":31.09144900236624,"确诊日期36":"1d"},{"SH_ID_36":"10gcj4j","区36":"f","地址":"瑞浦路77弄","lng":121.5876436389628,"lat":31.098018662263254,"确诊日期36":"1d"},{"SH_ID_36":"10gcj4k","区36":"f","地址":"瑞浦路8弄","lng":121.58553583327812,"lat":31.098680078852347,"确诊日期36":"1d"},{"SH_ID_36":"10gcj4l","区36":"f","地址":"瑞意路399弄","lng":121.58748099008402,"lat":31.095720270011725,"确诊日期36":"1d"},{"SH_ID_36":"10gcj4m","区36":"f","地址":"三彩路166弄","lng":121.49749609091323,"lat":31.123625349044385,"确诊日期36":"1d"},{"SH_ID_36":"10gcj4n","区36":"f","地址":"三彩路52弄","lng":121.49745594179576,"lat":31.126321453261326,"确诊日期36":"1d"},{"SH_ID_36":"10gcj4o","区36":"f","地址":"三彩路59弄","lng":121.49905204775428,"lat":31.12656304425729,"确诊日期36":"1d"},{"SH_ID_36":"10gcj4p","区36":"f","地址":"三林路1466弄","lng":121.52332616371488,"lat":31.14501221841578,"确诊日期36":"1d"},{"SH_ID_36":"10gcj4q","区36":"f","地址":"三林路1662弄","lng":121.52647513979714,"lat":31.147079754095188,"确诊日期36":"1d"},{"SH_ID_36":"10gcj4r","区36":"f","地址":"三林路184号","lng":121.49596516725839,"lat":31.1363690441051,"确诊日期36":"1d"},{"SH_ID_36":"10gcj4s","区36":"f","地址":"三林路235号","lng":121.49612495158743,"lat":31.137813258747045,"确诊日期36":"1d"},{"SH_ID_36":"10gcj4t","区36":"f","地址":"三林路429弄","lng":121.4987854434493,"lat":31.141188744340855,"确诊日期36":"1d"},{"SH_ID_36":"10gcj4u","区36":"f","地址":"三林路519弄","lng":121.50134425851128,"lat":31.141179064308783,"确诊日期36":"1d"},{"SH_ID_36":"10gcj4v","区36":"f","地址":"三林路675弄","lng":121.5044324551095,"lat":31.141405472727886,"确诊日期36":"1d"},{"SH_ID_36":"10gcj4w","区36":"f","地址":"三林路706弄","lng":121.50547506461417,"lat":31.140988730842135,"确诊日期36":"1d"},{"SH_ID_36":"10gcj4x","区36":"f","地址":"三林路88弄","lng":121.49438860007072,"lat":31.134790174291503,"确诊日期36":"1d"},{"SH_ID_36":"10gcj4y","区36":"f","地址":"三林镇东明村池河队养鸭滩","lng":121.52059244863565,"lat":31.164354403717372,"确诊日期36":"1d"},{"SH_ID_36":"10gcj4z","区36":"f","地址":"三林镇红旗村姜胡宅队江湖宅","lng":121.49386928164995,"lat":31.121400874699823,"确诊日期36":"1d"},{"SH_ID_36":"10gcj50","区36":"f","地址":"三林镇胡巷村陈家宅","lng":121.51841213535006,"lat":31.153183964601162,"确诊日期36":"1d"},{"SH_ID_36":"10gcj51","区36":"f","地址":"三林镇胡巷村东朱家宅","lng":121.51610282120335,"lat":31.16029218045537,"确诊日期36":"1d"},{"SH_ID_36":"10gcj52","区36":"f","地址":"三林镇胡巷村金家宅","lng":121.51837295718549,"lat":31.15284592208854,"确诊日期36":"1d"},{"SH_ID_36":"10gcj53","区36":"f","地址":"三林镇胡巷村张家宅","lng":121.51495897542874,"lat":31.163305868760105,"确诊日期36":"1d"},{"SH_ID_36":"10gcj54","区36":"f","地址":"三林镇金光村陆家湾队陆家宅","lng":121.5095949529411,"lat":31.139386412379793,"确诊日期36":"1d"},{"SH_ID_36":"10gcj55","区36":"f","地址":"三林镇联丰村八字队东八字桥","lng":121.51297705444125,"lat":31.152456729780326,"确诊日期36":"1d"},{"SH_ID_36":"10gcj56","区36":"f","地址":"三林镇联丰村顾家队顾家宅","lng":121.58268670041666,"lat":31.16709500763473,"确诊日期36":"1d"},{"SH_ID_36":"10gcj57","区36":"f","地址":"三林镇临江村丁家队丁家宅","lng":121.47892436687032,"lat":31.124387646767676,"确诊日期36":"1d"},{"SH_ID_36":"10gcj58","区36":"f","地址":"三林镇临江村临江队王家渡","lng":121.47569786784942,"lat":31.127140310130894,"确诊日期36":"1d"},{"SH_ID_36":"10gcj59","区36":"f","地址":"三林镇临江村庞家队庞家宅","lng":121.47537053104928,"lat":31.11587840685836,"确诊日期36":"1d"},{"SH_ID_36":"10gcj5a","区36":"f","地址":"三林镇临江村唐家宅","lng":121.47903754909957,"lat":31.124285509206334,"确诊日期36":"1d"},{"SH_ID_36":"10gcj5b","区36":"f","地址":"三林镇临江村王家宅队王家宅","lng":121.4791674111438,"lat":31.124313089735207,"确诊日期36":"1d"},{"SH_ID_36":"10gcj5c","区36":"f","地址":"三林镇临江村西新队石河圈","lng":121.47907060250772,"lat":31.123804894473967,"确诊日期36":"1d"},{"SH_ID_36":"10gcj5d","区36":"f","地址":"三林镇临江村益民队罗汉松","lng":121.48175555516693,"lat":31.12603420975452,"确诊日期36":"1d"},{"SH_ID_36":"10gcj5e","区36":"f","地址":"三林镇临江村筠西队庞家宅","lng":121.47565513170967,"lat":31.116066383904815,"确诊日期36":"1d"},{"SH_ID_36":"10gcj5f","区36":"f","地址":"三林镇临江村张塘队塘湾宅","lng":121.48772568391965,"lat":31.12517015814518,"确诊日期36":"1d"},{"SH_ID_36":"10gcj5g","区36":"f","地址":"三林镇临江村张塘队张家宅","lng":121.48717647632328,"lat":31.12621668715255,"确诊日期36":"1d"},{"SH_ID_36":"10gcj5h","区36":"f","地址":"三林镇临江村周北队周家宅","lng":121.47359688213083,"lat":31.117928599632954,"确诊日期36":"1d"},{"SH_ID_36":"10gcj5i","区36":"f","地址":"三林镇南阜村曹家队蚌壳滩","lng":121.52723424424052,"lat":31.135827018260322,"确诊日期36":"1d"},{"SH_ID_36":"10gcj5j","区36":"f","地址":"三林镇南阜村东汤队东汤家宅","lng":121.51149935657352,"lat":31.142948399882155,"确诊日期36":"1d"},{"SH_ID_36":"10gcj5k","区36":"f","地址":"三林镇南阜村东汤队周家宅","lng":121.69834862902228,"lat":31.226063097783154,"确诊日期36":"1d"},{"SH_ID_36":"10gcj5l","区36":"f","地址":"三林镇南阜村高树队北孙家宅","lng":121.52047279989728,"lat":31.13336120910291,"确诊日期36":"1d"},