[{"SH_ID_36":"10fn7zi","区36":"d","地址":"宝林一村","lng":121.48337552660315,"lat":31.40053858207188,"确诊日期36":"0"},{"SH_ID_36":"10fn7zd","区36":"d","地址":"大康路1079弄","lng":121.4215751806279,"lat":31.333817381792322,"确诊日期36":"0"},{"SH_ID_36":"10fn7zm","区36":"d","地址":"聚丰园路188弄","lng":121.3826409186913,"lat":31.314539310387378,"确诊日期36":"0"},{"SH_ID_36":"10fn7zj","区36":"d","地址":"沈巷杨家宅","lng":121.36505983534634,"lat":31.332353039213913,"确诊日期36":"0"},{"SH_ID_36":"10fn806","区36":"d","地址":"泗塘一村","lng":121.45179209807768,"lat":31.338014538051894,"确诊日期36":"0"},{"SH_ID_36":"10fn7zy","区36":"d","地址":"淞兴西路268号","lng":121.48621459823313,"lat":31.36700479297746,"确诊日期36":"0"},{"SH_ID_36":"10fn7zk","区36":"k","地址":"吴房村","lng":121.53504987252524,"lat":30.892560970815026,"确诊日期36":"0"},{"SH_ID_36":"10fn7zl","区36":"k","地址":"吴房村","lng":121.53497907511967,"lat":30.89241374485936,"确诊日期36":"0"},{"SH_ID_36":"10fn7z5","区36":"1","地址":"瑞金二路33号","lng":121.46425148936791,"lat":31.218324169844276,"确诊日期36":"0"},{"SH_ID_36":"10fn807","区36":"e","地址":"宝安公路3705弄","lng":121.26861760325914,"lat":31.325394825116348,"确诊日期36":"0"},{"SH_ID_36":"10fn808","区36":"e","地址":"宝安公路3705弄","lng":121.26853892140986,"lat":31.32550399766124,"确诊日期36":"0"},{"SH_ID_36":"10fn809","区36":"e","地址":"宝安公路3705弄","lng":121.26852410204893,"lat":31.3257010321965,"确诊日期36":"0"},{"SH_ID_36":"10fn80a","区36":"e","地址":"宝安公路3705弄","lng":121.26846279157537,"lat":31.325484427713878,"确诊日期36":"0"},{"SH_ID_36":"10fn80b","区36":"e","地址":"宝安公路3705弄","lng":121.26842932026639,"lat":31.325710388829012,"确诊日期36":"0"},{"SH_ID_36":"10fn80d","区36":"e","地址":"宝安公路3705弄","lng":121.26838267007889,"lat":31.325371938834884,"确诊日期36":"0"},{"SH_ID_36":"10fn804","区36":"e","地址":"海蓝路98弄","lng":121.34969035716917,"lat":31.26108910683742,"确诊日期36":"0"},{"SH_ID_36":"10fn805","区36":"e","地址":"海蓝路98弄","lng":121.34952963834434,"lat":31.26097434357855,"确诊日期36":"0"},{"SH_ID_36":"10fn803","区36":"e","地址":"红卫村","lng":121.26762391176091,"lat":31.265968786886642,"确诊日期36":"0"},{"SH_ID_36":"10fn7zn","区36":"e","地址":"嘉唐公路169弄","lng":121.24076475767929,"lat":31.399588302320343,"确诊日期36":"0"},{"SH_ID_36":"10fn802","区36":"e","地址":"嘉绣路955弄","lng":121.27004070049702,"lat":31.309033771914834,"确诊日期36":"0"},{"SH_ID_36":"10fn80c","区36":"e","地址":"龙湖郦城1509弄","lng":121.25239004887865,"lat":31.32656713943396,"确诊日期36":"0"},{"SH_ID_36":"10fn801","区36":"e","地址":"曲江路100弄","lng":121.34535141297327,"lat":31.255008060644183,"确诊日期36":"0"},{"SH_ID_36":"10fn7z6","区36":"6","地址":"永兴路595弄","lng":121.46672715496861,"lat":31.25126326157919,"确诊日期36":"0"},{"SH_ID_36":"10fn7zp","区36":"c","地址":"虹梅南路1781弄","lng":121.42837079211084,"lat":31.106773406839967,"确诊日期36":"0"},{"SH_ID_36":"10fn7zs","区36":"c","地址":"虹梅南路1781弄","lng":121.42816594517815,"lat":31.10694294921581,"确诊日期36":"0"},{"SH_ID_36":"10fn7z8","区36":"c","地址":"龙吴路4221号","lng":121.45709346414459,"lat":31.087084183513774,"确诊日期36":"0"},{"SH_ID_36":"10fn7zo","区36":"c","地址":"普乐路333弄","lng":121.42482127933508,"lat":31.11397461885787,"确诊日期36":"0"},{"SH_ID_36":"10fn7zq","区36":"c","地址":"普乐路333弄","lng":121.42449820214739,"lat":31.113744915826963,"确诊日期36":"0"},{"SH_ID_36":"10fn7zr","区36":"c","地址":"普乐路333弄","lng":121.42458895594098,"lat":31.11392095428862,"确诊日期36":"0"},{"SH_ID_36":"10fn7z7","区36":"c","地址":"莘浜路155号","lng":121.37802753442108,"lat":31.10539661795316,"确诊日期36":"0"},{"SH_ID_36":"10fn7z7","区36":"f","地址":"南芦公路19弄","lng":121.71512192965162,"lat":31.033593787858518,"确诊日期36":"0"},{"SH_ID_36":"10fn7zx","区36":"f","地址":"听达路325弄","lng":121.7554549320109,"lat":31.06767208371049,"确诊日期36":"0"},{"SH_ID_36":"10fn7zb","区36":"f","地址":"祝桥镇邓一村","lng":121.75106884553082,"lat":31.135985378913695,"确诊日期36":"0"},{"SH_ID_36":"10fn7zc","区36":"7","地址":"光新路256弄","lng":121.43178764391148,"lat":31.253854633027885,"确诊日期36":"0"},{"SH_ID_36":"10fn7zg","区36":"7","地址":"岚皋西路342弄","lng":121.41957349281891,"lat":31.245921466206614,"确诊日期36":"0"},{"SH_ID_36":"10fn7zf","区36":"7","地址":"石泉东路168弄","lng":121.43527732670918,"lat":31.25574115064144,"确诊日期36":"0"},{"SH_ID_36":"10fn7zh","区36":"7","地址":"石泉东路240弄","lng":121.43592278347201,"lat":31.25535419825413,"确诊日期36":"0"},{"SH_ID_36":"10fn7ze","区36":"7","地址":"宜君路80弄","lng":121.42551293001947,"lat":31.264283813026815,"确诊日期36":"0"},{"SH_ID_36":"10fn7zw","区36":"h","地址":"沪松公路2517弄","lng":121.28529938406352,"lat":31.113973820274918,"确诊日期36":"0"},{"SH_ID_36":"10fn7zv","区36":"h","地址":"沪亭北路618弄","lng":121.31793214911308,"lat":31.148903754595793,"确诊日期36":"0"},{"SH_ID_36":"10fn7zu","区36":"h","地址":"九亭中心路503弄","lng":121.32828514899055,"lat":31.11476305819285,"确诊日期36":"0"},{"SH_ID_36":"10fn7zt","区36":"h","地址":"泽悦路326弄","lng":121.24877543966504,"lat":31.104743185570218,"确诊日期36":"0"},{"SH_ID_36":"10fn7zz","区36":"h","地址":"泽悦路326弄","lng":121.24898545877691,"lat":31.10500604254262,"确诊日期36":"0"},{"SH_ID_36":"10fn800","区36":"h","地址":"泽悦路326弄","lng":121.24877054403967,"lat":31.10476743991163,"确诊日期36":"0"},{"SH_ID_36":"10fn7z5","区36":"4","地址":"漕溪北路1200号","lng":121.43555172017444,"lat":31.18141594549977,"确诊日期36":"0"},{"SH_ID_36":"10fn7z9","区36":"4","地址":"华发路406弄","lng":121.4470642699133,"lat":31.128497571343487,"确诊日期36":"0"},{"SH_ID_36":"10fn7za","区36":"4","地址":"宛平南路485弄","lng":121.448769462724,"lat":31.189676015990845,"确诊日期36":"0"},{"SH_ID_36":"10fn7z6","区36":"4","地址":"宜山路829号","lng":121.40672515858209,"lat":31.171786371774935,"确诊日期36":"0"}]