SH_ID_36,区36,地址,lng,lat
10g8y68,d,爱辉路213号,121.4545960573188,31.33290271295219
10g8y69,d,白杨村,121.39621880838429,31.342103979576326
10g8y6a,d,宝安公路251弄,121.38152082065797,31.359418463125074
10g8y6b,d,宝钢八村,121.47905648473144,31.408011532739238
10g8y6d,d,宝林六村,121.4989706607212,31.402747071791048
10g8y6c,d,宝林三村,121.49365501106716,31.40200999941557
10g8y6e,d,宝泉路32号,121.42976564058027,31.415072773559995
10g8y6f,d,宝杨路1850号,121.47606046906931,31.392079405650048
10g8y6g,d,宝杨路2000号,121.47106201318195,31.39123802553686
10g8y6j,d,陈家行村,121.35078494291105,31.327562865800065
10g8y6k,d,陈巷村,121.47380741259404,31.376684973792642
10g8y6l,d,城银路655弄,121.34915238094275,31.31588921570631
10g8y6m,d,川念路58号,121.37658568624663,31.482080705716758
10g8y6n,d,川念路888号,121.37686455972622,31.481728738243227
10g8y6o,d,德都路165弄,121.4266322502273,31.408900615116465
10g8y6p,d,东街村,121.43769670238173,31.38226854354049
10g8y6r,d,东太路219弄,121.36365932086663,31.385940822404923
10g8y6q,d,东太路80弄,121.36725658280047,31.386306349328457
10g8y6s,d,鄂尔多斯路67弄,121.39062167072044,31.29492944756753
10g8y6t,d,鄂尔多斯路98弄,121.39133284750952,31.295782734901714
10g8y6u,d,繁荣村,121.36155270564542,31.40811369637473
10g8y6v,d,范家园新村,121.34273650530977,31.410034079464037
10g8y6w,d,丰皓路658弄,121.38906600649409,31.30647565396121
10g8y6x,d,丰明村,121.38025431564843,31.303824942002375
10g8y6y,d,抚远路1872号,121.35817966919984,31.418021642878802
10g8y6z,d,富锦路5278弄,121.36152949530093,31.382537099187463
10g8y70,d,富南路199弄,121.36589454254113,31.389839667900624
10g8y71,d,富南路256弄,121.36325518617109,31.38908589615794
10g8y72,d,富强村,121.35009004419838,31.39523531444787
10g8y73,d,高境二村,121.47890509192798,31.322553860790382
10g8y74,d,高境路477弄,121.47197400164498,31.323632467185398
10g8y75,d,共富路99弄,121.43301118118006,31.35135449016085
10g8y76,d,共和二村,121.46139565788594,31.321653607348576
10g8y77,d,共和三村,121.45860933055643,31.32217131729572
10g8y78,d,共和五村,121.46415970864443,31.32406275195221
10g8y79,d,共和新路4703弄,121.44881278750165,31.318877540949522
10g8y7a,d,共和新路4719弄,121.44925875880473,31.31938380253696
10g8y7b,d,顾太路7号,121.40073043841512,31.341581105823586
10g8y7c,d,广福村,121.3394662544289,31.348451948573132
10g8y7d,d,国权北路290弄,121.49430889701219,31.317030026677816
10g8y7e,d,国权北路351弄,121.4965060335852,31.315225565458512
10g8y7f,d,国权北路460弄,121.49386853460602,31.318451381201825
10g8y7g,d,国权北路828弄,121.49194224390762,31.329360728252766
10g8y7h,d,海笛路333弄,121.41995683002563,31.391489554036834
10g8y7k,d,合建村,121.3360761083413,31.466536610652085
10g8y7m,d,鹤林路298弄,121.39961177293021,31.453691956329006
10g8y7l,d,鹤林路58弄,121.4041740989798,31.446957559372855
10g8y7o,d,恒高路127弄,121.46891914449628,31.326156079045774
10g8y7p,d,恒高路128弄,121.47049842245768,31.32374093908257
10g8y7n,d,恒高路83弄,121.47126640243259,31.325870171522574
10g8y7q,d,红林路99弄,121.43219491285707,31.36689225153163
10g8y7r,d,呼兰路455弄,121.43971180652582,31.34079342346685
10g8y7s,d,呼兰路515弄,121.45011592179642,31.346916963485814
10g8y7u,d,呼玛四村,121.44546886044739,31.34405038972935
10g8y7t,d,呼玛一村,121.45184012359616,31.341683425639733
10g8y7v,d,沪太路2611号,121.41280987413244,31.308435732493102
10g8y7w,d,沪太路2899弄,121.4075168455412,31.31614386711776
10g8y7x,d,沪太路6369号,121.35999811866698,31.38266771581848
10g8y7y,d,沪太路6387号,121.35943976650691,31.38306073697727
10g8y7z,d,华浜新村,121.49352876236746,31.348843782897493
10g8y80,d,华灵路1900弄,121.40456309123596,31.277413074651314
10g8y81,d,集贤路500弄,121.34993406678313,31.420826995286514
10g8y82,d,江杨南路1098号,121.4655207470475,31.32639826723637
10g8y83,d,江杨南路2550弄,121.46073439340081,31.350984743506928
10g8y84,d,蒋巷街54弄,121.3481828975678,31.412676586076362
10g8y85,d,解放村,121.33375363047858,31.444697880979064
10g8y86,d,锦秋路1188弄,121.38390432953267,31.319389150038397
10g8y87,d,锦秋路1384号,121.37788659103722,31.31843784553005
10g8y88,d,菊联路233弄,121.36386542665834,31.346275061716614
10g8y89,d,菊泉街1969弄,121.37177019842245,31.364080898687245
10g8y8a,d,菊盛路851弄,121.36847891381417,31.359114242886715
10g8y8b,d,菊太路1399弄,121.35265077344818,31.346080432022163
10g8y8c,d,聚丰园路188弄,121.38279362452393,31.314677023920417
10g8y8d,d,聚丰园路628弄,121.37399764626045,31.31108254566383
10g8y8e,d,聚源桥村,121.38519357168066,31.43953848718556
10g8y8f,d,兰岗路689号,121.46126799075054,31.37862666315563
10g8y8g,d,老安村,121.37320353051305,31.36578101786328
10g8y8h,d,联谊路649弄,121.41853534612058,31.34324954277403
10g8y8i,d,联长路69号,121.46489554844901,31.337344870123285
10g8y8j,d,陆翔路3489弄,121.33755856916093,31.400655146857087
10g8y8k,d,罗店路840弄,121.34847224873087,31.397334444371467
10g8y8l,d,罗东路50弄,121.37779354250438,31.417671377143133
10g8y8m,d,罗东路51弄,121.37855403985117,31.418469157344344
10g8y8n,d,罗东路52弄,121.37629258360509,31.418913486289387
10g8y8o,d,罗东路600弄,121.3706929713967,31.43557966432288
10g8y8p,d,罗芬路1199弄,121.34900974848667,31.405127324841636
10g8y8q,d,罗芬路98弄,121.35803896729955,31.39210368660466
10g8y8r,d,罗和路118弄,121.34166868669963,31.381740981590028
10g8y8s,d,罗南二村,121.3662733348007,31.387718412689424
10g8y8t,d,罗太路234弄,121.3432594569761,31.407744340469822
10g8y8u,d,罗太路258号,121.34287906568373,31.408835183337327
10g8y8v,d,罗太路449弄,121.33921489800521,31.413729659490524
10g8y8w,d,罗太路869弄,121.33922617097055,31.427406022482955
10g8y8z,d,罗溪路1001弄,121.34335843601552,31.424762071878522
10g8y90,d,罗溪路1079弄,121.34209260456412,31.42783617889916
10g8y8x,d,罗溪路121号,121.3504484725201,31.412934340765634
10g8y8y,d,罗溪路671弄,121.34706887169972,31.418926826727382
10g8y91,d,罗真路188弄,121.34231059586634,31.395852763300663
10g8y92,d,马泾桥二村,121.41508782719231,31.418022626551014
10g8y93,d,毛家路212弄,121.38719610822163,31.426797823144383
10g8y94,d,毛家路400弄,121.38600662818482,31.42853645596943
10g8y95,d,湄浦村,121.42572968462927,31.387630941203057
10g8y96,d,美安路217号,121.34944102680625,31.388299434831406
10g8y97,d,美安路398弄,121.34620564794942,31.387945025190074
10g8y98,d,美安路628弄,121.34272919007945,31.387152926499105
10g8y9b,d,美丹路1033弄,121.33744487215834,31.392109855960797
10g8y9a,d,美丹路188弄,121.35179505371914,31.40368778780279
10g8y99,d,美丹路18弄,121.35465251154282,31.405417811706148
10g8y9c,d,美平路428弄,121.3454898055646,31.38973328624737
10g8y9d,d,美平路500弄,121.34249788010091,31.3898980033779
10g8y9e,d,美平路696弄,121.33873782035285,31.388565282599867
10g8y9f,d,美平路745弄,121.33928097900983,31.3875765110766
10g8y9g,d,美秀路558弄,121.34389377320052,31.382113633444227
10g8y9h,d,牡丹江路1211号,121.48753331984133,31.39404541461613
10g8y9i,d,南大路146弄,121.40213688970664,31.30079370038365
10g8y9j,d,南大路363号,121.38923980050518,31.299964316298226
10g8y9k,d,南东路108弄,121.36069051931203,31.386887449851418
10g8y9l,d,南长路111弄,121.36684691018958,31.384692012694202
10g8y9m,d,南周村,121.34039494256878,31.377694557810443
10g8y9n,d,年吉路100弄,121.34452553988434,31.402148984650676
10g8y9o,d,年吉路220弄,121.34330981336544,31.40162024461736
10g8y9p,d,年吉路650弄,121.334152015602,31.39923605714404
10g8y9q,d,盘古路689弄,121.47222237090118,31.40671444224215
10g8y9s,d,祁北东路209号,121.3501785257726,31.42265983553249
10g8y9t,d,祁北东路211弄,121.34942727440945,31.42295857999678
10g8y9u,d,祁北东路361弄,121.34655764612529,31.421084513115282
10g8y9r,d,祁北东路85弄,121.35331086062357,31.42463646133003
10g8y9w,d,祁连三村,121.3827544952941,31.31171506334177
10g8y9v,d,祁连一村,121.38044173602877,31.31340166517556
10g8y9x,d,钱潘村,121.39995413639879,31.432017924882775
10g8y9y,d,勤丰村,121.39263526853391,31.414548931111486
10g8y9z,d,三门路485弄,121.4943744935706,31.314038527866188
10g8ya0,d,三门路497弄,121.49315389933652,31.31180737445403
10g8ya1,d,三门路559弄,121.48868080778851,31.311824560929253
10g8ya2,d,韶山路418弄,121.36578498590103,31.365292494710477
10g8ya3,d,沈巷村,121.41117222914511,31.41980698783869
10g8ya4,d,沈宅村,121.3500194032914,31.364544346894323
10g8ya5,d,盛桥东四村,121.40461851681542,31.449168810621426
10g8ya7,d,盛桥二村,121.40188217082755,31.45173272537517
10g8ya8,d,盛桥三村,121.40092139588059,31.45027661087621
10g8ya6,d,盛桥一村,121.40412635876987,31.4532191243981
10g8ya9,d,石驳岸路28弄,121.34465965687833,31.415199236862723
10g8yaa,d,石太路2888号,121.35012896087333,31.432141012323644
10g8yab,d,拾年村,121.37174787961675,31.39184264424968
10g8yac,d,市一东路18号,121.3651555370796,31.42107011620472
10g8yad,d,市一路153弄,121.34910265433429,31.414265665837302
10g8yae,d,市一路221号,121.34550735167356,31.414777906760296
10g8yaf,d,双城路803弄,121.48526934766372,31.38902749738129
10g8yag,d,水产路2399号,121.44513447040424,31.36699494635875
10g8yah,d,水产路2859号,121.43518636137532,31.36436205949735
10g8yai,d,四方村,121.33909193234037,31.429271623145674
10g8yak,d,泗塘八村,121.45728325144043,31.329886993333073
10g8yaj,d,泗塘一村,121.45190390870002,31.337943912282505
10g8yal,d,松兰路1166弄,121.44371203278125,31.38508198935322
10g8yam,d,淞宝路155弄,121.50091611467117,31.380288968237426
10g8yan,d,淞滨路110弄,121.4945868973235,31.372601389087897
10g8yao,d,淞南一村,121.4846745010713,31.34258703449231
10g8yap,d,淞兴西路121弄,121.49061499440236,31.369793148629523
10g8yaq,d,淞兴西路248号,121.48868315830636,31.36758597312029
10g8yas,d,塔源路150弄,121.3981958228982,31.446075415916937
10g8yat,d,塔源路258弄,121.39980144932404,31.449206598862478
10g8yau,d,塔源路302弄,121.39787771773304,31.451445760166663
10g8yar,d,塔源路58弄,121.40264954927923,31.448503970195997
10g8yav,d,泰和路1700号,121.44850031897022,31.35472632187147
10g8yaw,d,泰和路1810号,121.44900928822773,31.350770066076056
10g8yax,d,泰和西路3463弄,121.40602352860729,31.349457734841835
10g8yay,d,塘南街57号,121.43093233433962,31.419406898744317
10g8yaz,d,塘祁路679弄,121.37377572770079,31.32496297824644
10g8yb0,d,塘西街398弄,121.33942918259812,31.42090192169946
10g8yb1,d,铁城路1555号,121.45175315391175,31.356301362646835
10g8yb3,d,铁峰路2001弄,121.45633060449076,31.397201770415933
10g8yb2,d,铁峰路477号,121.46994881587838,31.37179008666089
10g8yb4,d,铁力路388号,121.46941026301636,31.381251645346047
10g8yb5,d,铁山路69号,121.46961553099585,31.36417534524596
10g8yb6,d,亭前街15号,121.3464804958547,31.4129349220308
10g8yb7,d,亭前街20弄,121.3422416095479,31.41265104422398
10g8yb8,d,亭前街27弄,121.34570962804959,31.412838524324386
10g8yb9,d,亭前街300弄,121.34038526645313,31.4119827639805
10g8yba,d,通河路438号,121.4458463989785,31.33370227122527
10g8ybb,d,通河七村,121.45173659601016,31.329185297020448
10g8ybc,d,同济路333号,121.48764069608029,31.384042817209778
10g8ybd,d,王家村,121.3885569670075,31.38585381757403
10g8yc5,d,蕰川路1498弄,121.42519298171777,31.361039186016104
10g8yc6,d,蕰川路1623弄,121.43499665015332,31.368419029213335
10g8yc7,d,蕰川路2222号,121.4263278862891,31.386652453628965
10g8yc4,d,蕰川路516号,121.43317282631162,31.35290084949933
10g8ybe,d,五星村,121.34700693116255,31.30473034240799
10g8ybf,d,西浜村,121.44145801481812,31.358754555135228
10g8ybg,d,西街村,121.43240897630017,31.37225715989803
10g8ybh,d,西埝村,121.36479337132718,31.383988301917203
10g8ybi,d,向阳新村,121.34227103188066,31.41429047121142
10g8ybl,d,新二路1295号,121.47510443204796,31.33474611492959
10g8ybj,d,新二路183弄,121.47503759558927,31.32559564803543
10g8ybk,d,新二路999弄,121.47714678595993,31.326900838516224
10g8ybm,d,星星村,121.41206637530637,31.37370001470779
10g8y7i,d,行知路572弄,121.41236583968242,31.28448372619766
10g8y7j,d,行知路760弄,121.4078354976462,31.283722962424548
10g8ybn,d,阳曲路1053号,121.45955613608356,31.323439879952918
10g8ybo,d,阳曲路1388弄,121.46099428958445,31.326185044060775
10g8ybq,d,杨泰路328弄,121.44115969818212,31.371371778242807
10g8ybp,d,杨泰路55弄,121.45063291650395,31.36347674619414
10g8ybr,d,杨泰三村,121.44912078907528,31.362862716904957
10g8ybs,d,逸仙路1258弄,121.48446100830355,31.315326065778134
10g8ybt,d,逸仙路1321弄,121.48743320647574,31.315540818110925
10g8ybu,d,殷高路21弄,121.49052231394852,31.32230378960885
10g8ybv,d,殷高路36号,121.49008396491826,31.32219055850734
10g8ybw,d,永顺路28弄,121.35156698089244,31.41480283131692
10g8ybx,d,永顺路81弄,121.34883983236833,31.412051293672402
10g8yby,d,月川路48号,121.40637066926978,31.445850172457575
10g8ybz,d,月富路55弄,121.41218775812328,31.429504307520634
10g8yc0,d,月罗路1116号,121.38134954869582,31.415958370569445
10g8yc1,d,月罗路1201弄,121.38877923071088,31.41676666316904
10g8yc2,d,月罗路2425弄,121.34849781968255,31.4085928439806
10g8yc3,d,月狮村,121.40727780577478,31.44911012753669
10g8yc8,d,张桥街5弄,121.34749641598789,31.40866246879357
10g8y6h,d,长春村,121.38848413735178,31.40741965302412
10g8y6i,d,长江路68弄,121.49797085312174,31.35123018438485
10g8yc9,d,真北路4333弄,121.40490615497376,31.292867340458123
10g8yca,d,真华路1988弄,121.4114334241297,31.292875663177554
10g8ycc,d,镇东新村,121.34611913895891,31.413960229444562
10g8ycb,d,镇泰路111弄,121.44590146550186,31.379933062705142
10g8ycd,d,朱家弄村,121.38744441572965,31.340816824848584
10g8ycf,d,竹韵路258弄,121.44272505253201,31.367671903688297
10g8yce,d,竹韵路58弄,121.44522325605826,31.364078506239032
10g8z7m,u,八滧村,121.76342834259394,31.484700715997867
10g8z7j,u,北沿公路1388号,121.59777911318535,31.643969750770243
10g8z7k,u,惠中村,121.67215936204467,31.61020323177254
10g8z7f,u,江南大道,121.73761930793435,31.368356328726232
10g8z7d,u,骏马村,121.64306387162056,31.589081458384452
10g8z7l,u,六滧村,121.71824410863447,31.513285553320298
10g8z7e,u,前卫支路171号,121.72399869395193,31.389523841380573
10g8z7h,u,新港村,121.44330799267401,31.737247225514707
10g8z7i,u,圆展路120弄,121.7776089867063,31.3589438825535
10g8z7g,u,长凯路277号,121.73500568422693,31.375226441283214
10g8z67,k,陈桥路299号,121.45808870065545,30.927968678082497
10g8z68,k,大桥村,121.71187611811555,30.955908072596536
10g8z69,k,大叶公路2058弄,121.38676592207263,30.95152739691331
10g8z6a,k,大叶公路6288弄,121.55638698412058,30.975720382508985
10g8z6b,k,灯塔村,121.42471873251877,30.984794176889025
10g8z6c,k,东新市村,121.6515889892663,30.977508285985547
10g8z6d,k,奉城东街45弄,121.64721379827728,30.916218115990965
10g8z6e,k,高桥村,121.63166651802995,30.915007022774677
10g8z6f,k,国顺路218弄,121.46435528039382,30.93362790209494
10g8z6g,k,海兴路479号,121.59907979979312,30.863009208068785
10g8z6h,k,航南公路5388弄,121.56356746720884,30.987116610652407
10g8z6i,k,沪杭公路113号,121.43147671037613,30.99257555520382
10g8z6j,k,沪杭公路149弄,121.43203061285236,30.991735390509593
10g8z6k,k,沪杭公路32弄,121.4260066095934,30.992974986409788
10g8z6l,k,化工路62弄,121.45255135225877,30.91746903062919
10g8z6m,k,环城南路1309弄,121.44698005832836,30.901416485959675
10g8z6n,k,汇安村,121.40227868719273,30.960008458146344
10g8z6o,k,江海村,121.44481064288132,30.894404913559224
10g8z6p,k,解放东路599弄,121.47888051091513,30.918239371006248
10g8z6q,k,金碧路1959弄,121.51341064282556,30.97422762853665
10g8z6r,k,金汇村,121.50126644405658,30.988733202117615
10g8z6s,k,聚秀路178弄,121.50786822856078,30.965287079379852
10g8z6t,k,乐善村,121.57550134607074,30.97238068496216
10g8z6u,k,明星村,121.55301894009467,30.98169896371672
10g8z6v,k,南渡村,121.45137213601687,30.999610749498572
10g8z6w,k,青村人民路219弄,121.58314920153225,30.935059269711328
10g8z6x,k,三团港村,121.72197875039295,30.88382595054186
10g8z6y,k,曙光村,121.49100711651802,30.904399771277067
10g8z6z,k,泰叶路159弄,121.56113496521111,30.977806078426095
10g8z70,k,吴塘路527弄,121.44432595364952,30.95960458299122
10g8z72,k,小荡村,121.70403039260232,30.97774729249938
10g8z71,k,肖塘路146弄,121.43797826347404,30.962783857321522
10g8z73,k,耀光小区,121.39686694708259,30.961435400812594
10g8z74,k,永南路1688号,121.51662375207042,31.00622350914289
10g8z75,k,永欣新村,121.4503003435082,30.91405224791952
10g8z76,k,岳和村,121.57002491816291,30.93115600670496
10g8z77,k,运河北路1351弄,121.43959134873927,30.918246160806326
10g8z78,k,展园路303弄,121.4828408255934,30.92614287188149
10g8z79,k,正旭路1058号,121.74803744764824,30.88193689093416
10g8z7a,k,周家村,121.5987420865806,30.987395074118165
10g8z7b,k,朱店村,121.55416854796097,30.91948779757872
10g8z7c,k,资福村,121.6034091982352,30.966500460628033
10g8xw1,9,安国路28弄,121.50904106975302,31.25709525627749
10g8xw2,9,安国路56号,121.50804164310863,31.257390143592513
10g8xw3,9,巴林路78号,121.49465797758799,31.288162643977188
10g8xw4,9,保定路427号,121.50825070005656,31.2596012422617
10g8xw5,9,保宁路44号,121.48035496431548,31.301613397970073
10g8xw6,9,场中路115弄,121.48117334269713,31.311428227119027
10g8xw7,9,车站北路507弄,121.473580471525,31.296537929514884
10g8xw8,9,车站北路625弄,121.47016050855845,31.297084030008186
10g8xw9,9,车站北路732弄,121.46594459652027,31.298106754831558
10g8xwa,9,车站西路301弄,121.48299694894553,31.299982962236424
10g8xwb,9,池沟路200弄,121.47939784299926,31.30285959479941
10g8xwc,9,池沟路300弄,121.47917446695722,31.3010239015844
10g8xwd,9,池沟路62弄,121.47919243243228,31.30202272358322
10g8xwe,9,大连西路165弄,121.49572551429267,31.276274497939028
10g8xwf,9,大连西路23号,121.49877230905092,31.276233334353293
10g8xwg,9,大连西路261号,121.48707618113647,31.276366179696872
10g8xwh,9,东宝兴路254弄,121.48090015946033,31.25774772711843
10g8xwi,9,东宝兴路272弄,121.48102620028348,31.258106425151553
10g8xwj,9,东宝兴路447弄,121.47960054220432,31.259579110047554
10g8xwk,9,东宝兴路465号,121.47940565435705,31.25956436508447
10g8xwl,9,东宝兴路895弄,121.47306518709142,31.264547368436315
10g8xwm,9,东江湾路456号,121.48037741997034,31.272345614141457
10g8xwn,9,东江湾路570弄,121.4804351181356,31.273880264382353
10g8xwo,9,东江湾路580弄,121.48004450819653,31.27433951756834
10g8xwp,9,东体育会路100弄,121.48156853349087,31.274400559165922
10g8xwq,9,东体育会路119弄,121.48214069335606,31.27317359124981
10g8xwr,9,东体育会路29号,121.48067199719438,31.274588005034868
10g8xws,9,东体育会路77号,121.48104828491462,31.274003505950407
10g8xwt,9,东体育会路83号,121.48163847860987,31.27388276165824
10g8xwu,9,东体育会路87号,121.4816965327553,31.273838278242646
10g8xwv,9,东余杭路1087号,121.50589333998337,31.259311041380577
10g8xww,9,东余杭路1320号,121.50863892845837,31.260646651771246
10g8xx2,9,东余杭路198弄,121.49249192596305,31.251626382375427
10g8xwx,9,东余杭路208号,121.50045959697711,31.255179397922785
10g8xwy,9,东余杭路211弄,121.49288059409967,31.25231354199519
10g8xwz,9,东余杭路218号,121.49287865487592,31.251593214459287
10g8xx0,9,东余杭路225号,121.49324465443203,31.251883319147712
10g8xx1,9,东余杭路869弄,121.5032231071662,31.256354025187843
10g8xx3,9,东长治路399号,121.49620425672678,31.249954253229696
10g8xx4,9,多伦路177弄,121.48160736434829,31.263294015022158
10g8xx5,9,丰镇路2弄,121.48052734787161,31.3049766414641
10g8xx6,9,丰镇路66号,121.47535816899591,31.304604033809696
10g8xx7,9,丰镇路85号,121.47829398529035,31.30451179650879
10g8xx8,9,公平路402弄,121.50506988176855,31.255476126854813
10g8xx9,9,沽源路113弄,121.47787066685855,31.302360759958294
10g8xxa,9,广灵二村,121.47840027598086,31.286003729139154
10g8xxb,9,广灵四路140弄,121.47938312337173,31.28611922773889
10g8xxc,9,广灵四路280弄,121.47427144631645,31.287981613936978
10g8xxd,9,广灵一村,121.4778430498911,31.286931865151203
10g8xxe,9,广灵一路265号,121.47990632697476,31.285793487738825
10g8xxf,9,广灵一路74弄,121.47811549868659,31.28069685420635
10g8xxg,9,广粤路577弄,121.46673488175992,31.29411007776012
10g8xxh,9,广中二村,121.47882187495273,31.27894653921061
10g8xxi,9,广中三村,121.47643504497405,31.27899534966917
10g8xxj,9,广中五村,121.47644105018168,31.277951838850147
10g8xxk,9,广中一村,121.47769528651808,31.27713527770415
10g8xxl,9,广中支路24弄,121.47569450195316,31.274129338094202
10g8xxm,9,海伦路178号,121.49447098695816,31.257073004626374
10g8xxn,9,海伦路555弄,121.48699086555193,31.258601259098338
10g8xxo,9,海宁路499弄,121.48448747695431,31.24953288105731
10g8xxp,9,横浜路206弄,121.47744031866083,31.26416949279656
10g8xxq,9,横浜路75号,121.4801908826785,31.262890414070682
10g8xxr,9,华昌路79号,121.47750770484582,31.26183537155449
10g8xxs,9,华昌路9号,121.4783154517267,31.261158971341153
10g8xxt,9,华严路98弄,121.47342918649991,31.30350655587468
10g8xxu,9,黄渡路103弄,121.48134260783868,31.26789028998273
10g8xxv,9,九龙路575号,121.49128065944139,31.253320589684407
10g8xxw,9,奎照路11弄,121.47115585729838,31.300247240600697
10g8xxx,9,奎照路786弄,121.46939465030287,31.299726448087817
10g8xxy,9,溧阳路491号,121.49219788744917,31.252442237648975
10g8xxz,9,溧阳路501弄,121.48797632952154,31.26260292156833
10g8xy0,9,凉城路1201弄,121.46984970636801,31.30360136257232
10g8xy1,9,凉城路847弄,121.47053492677199,31.299302592787637
10g8xy2,9,临平路133弄,121.49929879415669,31.261092083532553
10g8xy3,9,旅顺路199弄,121.49436308672387,31.250074756928512
10g8xy4,9,虬江支路216弄,121.48305360359097,31.254084151917144
10g8xy5,9,曲阳路118弄,121.49440391835613,31.271168132694708
10g8xy6,9,曲阳路801号,121.49051240437387,31.290315753093534
10g8xy7,9,仁德路390弄,121.48321590728975,31.30408854964637
10g8xy8,9,山阴路191弄,121.4853929326944,31.267252856067635
10g8xy9,9,山阴路216弄,121.48456678987085,31.267764609025622
10g8xya,9,商业二村,121.48049867415817,31.28434547467372
10g8xyb,9,商业一村,121.4760444042,31.27556021430981
10g8xyc,9,水电路1381弄,121.47734541334005,31.29783718682238
10g8xyd,9,水电路1600弄,121.4755495567783,31.302490839795322
10g8xye,9,水电路393弄,121.47553122561176,31.276637766850666
10g8xyf,9,水电路583弄,121.47634613038724,31.28070654645894
10g8xyg,9,四川北路1545弄,121.48193804595417,31.25581770519295
10g8xyh,9,四川北路1727弄,121.48234408815019,31.258395427531447
10g8xyi,9,四川北路1885号,121.48345642487625,31.261775855624336
10g8xyj,9,四川北路1906弄,121.48420531577865,31.261834429233158
10g8xyk,9,四川北路1926号,121.48426082624492,31.262369319251064
10g8xyl,9,四川北路1932号,121.48410459477599,31.26275736817437
10g8xym,9,四川北路1953弄,121.48270728180276,31.262866217502257
10g8xyn,9,四达路58弄,121.49128904257077,31.267544029568295
10g8xyo,9,四平路372号,121.49224468899595,31.266292210311356
10g8xyp,9,四平路421弄,121.49200027061644,31.269082416999563
10g8xyq,9,四平路52弄,121.4884550121049,31.25757385337251
10g8xyr,9,四平路621弄,121.49654353415937,31.27222553764407
10g8xys,9,唐山路577弄,121.50529031453388,31.25605986513656
10g8xyt,9,唐山路708弄,121.50821139281656,31.256805661796736
10g8xyu,9,唐山路818弄,121.50927797589073,31.25893905479947
10g8xyv,9,塘沽路300号,121.48919229464595,31.24821016856037
10g8xyw,9,通州路419弄,121.49374717560292,31.25822248262031
10g8xyx,9,同心路116弄,121.4773988777131,31.266260237562133
10g8xyy,9,同心路125弄,121.47764471975272,31.267537593779394
10g8xyz,9,同心路133弄,121.4775350729138,31.26800718718567
10g8xz0,9,同心路801弄,121.47164758100823,31.271221287145615
10g8xz1,9,万安路356号,121.48368823914895,31.30191006172525
10g8xz2,9,万安路409弄,121.48344772705295,31.30185206157164
10g8xz3,9,汶水东路541弄,121.47939012444473,31.29016162219005
10g8xz4,9,吴家湾路136弄,121.4854685450156,31.29313843626916
10g8xz5,9,吴家湾路200弄,121.48493379287075,31.295084564530924
10g8xz6,9,西宝兴路949弄,121.46982412559464,31.270189607117867
10g8xz7,9,西江湾路476弄,121.47910654346906,31.272427696650748
10g8xz8,9,祥德路143弄,121.48818071545016,31.2710852664675
10g8xz9,9,新市北路1501弄,121.48165840764563,31.30486580843764
10g8xza,9,新市路228号,121.48043953184276,31.28629835415391
10g8xzb,9,新市南路1133弄,121.48091810506808,31.297505762622098
10g8xzc,9,新市南路841弄,121.48211571939201,31.296071985183932
10g8xzd,9,逸仙路328号,121.48619544510638,31.299600621456392
10g8xze,9,银欣路38号,121.49139727668953,31.262123315255522
10g8xzf,9,邮电新村,121.49429040378494,31.270372595860923
10g8xzg,9,友谊一村,121.4788538632444,31.28502954198795
10g8xzh,9,玉田路333号,121.49148630423727,31.27863832099912
10g8xzi,9,岳州路50号,121.49793683274908,31.256920741048035
10g8xzj,9,运光路72号,121.49604797235456,31.29058723459266
10g8xzk,9,中山北一路131弄,121.47656313199458,31.272710292035082
10g8xzl,9,中山北一路280弄,121.47891112254995,31.276910068591793
10g8xzm,9,周家嘴路86号,121.49388772552469,31.253242717344524
10g8xzn,9,周家嘴路86弄,121.49405753310725,31.253152313353933
10g8xzo,9,株洲路258弄,121.4649376227273,31.276523514051995
10g8wm3,1,半淞园路178号,121.49766580370908,31.205049986758176
10g8wm4,1,半淞园路650号,121.49453414105486,31.19859986289847
10g8wm5,1,保屯路211弄,121.49129373820564,31.20388710210188
10g8wm6,1,保屯路221弄,121.49199248500899,31.203102616719292
10g8wm7,1,保屯路99弄,121.49032783322632,31.20739535264218
10g8wm8,1,北海路216号,121.47821921554714,31.230306534059668
10g8wm9,1,北海路267弄,121.47823195986682,31.230289562185785
10g8wma,1,北京东路121号,121.48794553128035,31.240629052181802
10g8wmb,1,北京东路316弄,121.48389910522211,31.241410781107987
10g8wmc,1,北京东路431弄,121.47960539076568,31.239174692878123
10g8wmd,1,北京西路240弄,121.46904126607753,31.235875494961274
10g8wme,1,北京西路256号,121.46898464572546,31.235952095702554
10g8wmf,1,北京西路280弄,121.46553496734016,31.234265940126296
10g8wmg,1,曹家街62号,121.48640108975849,31.218476361502752
10g8wmh,1,成都北路262弄,121.46775280838376,31.228446703933933
10g8wmi,1,成都北路782号,121.466984446977,31.2272044993127
10g8wmj,1,成都南路108弄,121.46707111992163,31.221751084610577
10g8wmk,1,成都南路132弄,121.46800049559609,31.221080801820115
10g8wmv,1,打浦路139弄,121.4832810632901,31.17850313303278
10g8wmw,1,打浦路299弄,121.47229655856187,31.201423139163733
10g8wmx,1,打浦路303弄,121.47142198470112,31.199848234020752
10g8wmy,1,打浦路316弄,121.47127686778893,31.200153789795813
10g8wmz,1,打浦路318号,121.47144108533537,31.19938334315097
10g8wn0,1,打浦路339弄,121.4719285227625,31.199620693220727
10g8wn1,1,打浦路38弄,121.4689779399163,31.204826138996207
10g8wn2,1,打浦路398弄,121.47199600504764,31.197543820267672
10g8wn3,1,打浦路399号,121.47228184869256,31.198679177106065
10g8wn4,1,打浦路457弄,121.47352630021877,31.19766396709036
10g8wn5,1,打浦路500弄,121.47284892225484,31.196399059342887
10g8wn7,1,大沽路141号,121.47135060789354,31.226368177673375
10g8wn6,1,大沽路183弄,121.47141016917948,31.22594584688291
10g8wn8,1,大沽路186弄,121.47106459656558,31.22664941010865
10g8wn9,1,大吉路173弄,121.48384687341343,31.214410353212806
10g8wna,1,大吉路26弄,121.48663334145868,31.21514449421047
10g8wnb,1,大吉路270号,121.4825507460576,31.213131116110766
10g8wnc,1,大吉路276号,121.48251209289589,31.213134101080016
10g8wnd,1,大吉路50号,121.48632179345681,31.214814649529938
10g8wne,1,大林路255号,121.4835365871167,31.212587183616503
10g8wnf,1,大林路31弄,121.48728605347193,31.214539558870573
10g8wng,1,大林路338号,121.4836817068376,31.21226121577253
10g8wnh,1,大林路78号,121.48686627934042,31.21306291808768
10g8wni,1,淡水路139号,121.47417819591493,31.22046903505934
10g8wnj,1,淡水路214弄,121.4727622890305,31.217069215185678
10g8wnk,1,淡水路222号,121.47330764942569,31.21732571828493
10g8wnl,1,淡水路256弄,121.47289883781598,31.21653360509811
10g8wnm,1,淡水路260号,121.47321481649665,31.21670814501669
10g8wnn,1,淡水路266弄,121.47295466054226,31.215966509528215
10g8wno,1,淡水路268号,121.47311985193804,31.216316369434182
10g8wnp,1,淡水路345弄,121.47442879892249,31.213229304656835
10g8wnq,1,淡水路89弄,121.47277987504214,31.221596783320752
10g8wnr,1,滇池路100号,121.48805603882313,31.239559190835365
10g8wns,1,滇池路119号,121.48733799007626,31.239572500764965
10g8wnt,1,滇池路199号,121.48819398033379,31.23962809384096
10g8wnu,1,定兴路24号,121.47110183703586,31.23529816461994
10g8wnv,1,东江阴街184号,121.49707042695056,31.213886389774864
10g8wnw,1,东江阴街194号,121.49687828666279,31.21393092616462
10g8wnx,1,东街159号,121.49734026822443,31.222362122407322
10g8wny,1,东街162弄,121.49759625761133,31.22206390490175
10g8wnz,1,东街167弄,121.49707852265364,31.222226041709686
10g8wo0,1,东街169号,121.49742918768642,31.2220342828998
10g8wo1,1,东台路277号,121.48264193243062,31.218102853523543
10g8wo2,1,东台路279号,121.48269152319776,31.21752724767716
10g8wo3,1,东唐家弄29号,121.49571823435998,31.220895172910403
10g8wo4,1,多稼路218号,121.50142152076837,31.21249703866099
10g8wo5,1,方浜西路63弄,121.4827181890901,31.22035871325912
10g8wo6,1,方斜路269号,121.48484432740256,31.21577702750277
10g8wo7,1,方斜路525弄,121.48316208838038,31.212451761726403
10g8wo8,1,方斜路6号,121.48393759722879,31.220677813991276
10g8wo9,1,方斜支路35弄,121.48582475262145,31.21652780719733
10g8woa,1,丰记码头街52号,121.50446016128642,31.209251009420694
10g8wob,1,凤阳路228弄,121.47110907835632,31.234759325415997
10g8woc,1,福建南路33号,121.48367815839326,31.23031372588295
10g8wod,1,福州路167弄,121.47864376527656,31.23272323172799
10g8woe,1,福州路424号,121.48252576517119,31.23388272954776
10g8wof,1,福州路614弄,121.47881097946005,31.23299717046157
10g8wog,1,福州路623号,121.4788406992118,31.232077336733923
10g8woh,1,抚安街9弄,121.49700134134486,31.221261854656102
10g8woi,1,复兴东路1055弄,121.48537992556169,31.22005413614607
10g8woj,1,复兴东路1188弄,121.48464779809242,31.21863244576755
10g8wok,1,复兴东路404弄,121.49645013526441,31.221464617138405
10g8wol,1,复兴东路443弄,121.49629523134824,31.222250502304835
10g8wom,1,复兴东路701弄,121.49118870219303,31.222500310451714
10g8won,1,复兴中路408弄,121.4736506769477,31.21680230357998
10g8woo,1,复兴中路480弄,121.47721069653711,31.213758055790397
10g8wop,1,复兴中路490号,121.47246537734472,31.215498587707764
10g8woq,1,复兴中路50号,121.48193175664812,31.218694554144403
10g8wor,1,复兴中路53号,121.48163797472132,31.218255302993885
10g8wos,1,复兴中路553弄,121.46697530966335,31.21470692223604
10g8wot,1,复兴中路565弄,121.46645843669849,31.21458092027498
10g8wou,1,复兴中路591号,121.4650489172734,31.214750876742606
10g8wov,1,牯岭路145弄,121.47144070517989,31.235833027418046
10g8wow,1,牯岭路147号,121.47115759221238,31.236079918817904
10g8wox,1,牯岭路176号,121.47073119429874,31.23602606457949
10g8woy,1,光启路105号,121.49423027641384,31.22407987224943
10g8woz,1,光启路111号,121.49420472131729,31.223770184803175
10g8wp0,1,光启路78弄,121.49393608777176,31.224683449511218
10g8wp1,1,光启南路16号,121.49416005591937,31.22162545874604
10g8wp2,1,光启南路363号,121.49547040811477,31.216015167284823
10g8wp3,1,广东路138号,121.48823247190595,31.233988708225407
10g8wp4,1,广东路154号,121.48816786850443,31.233582601974458
10g8wp5,1,广东路212号,121.48664825160718,31.233333163348554
10g8wp6,1,广东路339号,121.484536061202,31.23225085328674
10g8wp7,1,广东路554号,121.4810831087793,31.232033320060427
10g8wp8,1,广东路652号,121.47932094957432,31.231278648831196
10g8wp9,1,广东路658号,121.47954512864108,31.23060173449119
10g8wpa,1,广西北路118弄,121.4788360889107,31.23135348669586
10g8wpb,1,广西北路216号,121.47805564016281,31.23275015128629
10g8wpc,1,广西北路228号,121.47845672171435,31.23338208624641
10g8wpd,1,广西北路658号,121.47686149181843,31.235915747609262
10g8wpe,1,广西南路23号,121.4808058858265,31.229193757267765
10g8wpf,1,贵州路131弄,121.47601520122261,31.23616713702434
10g8wpg,1,贵州路198弄,121.47563228404489,31.237244978476106
10g8wph,1,国货路333弄,121.49363983517858,31.21042214108662
10g8wpi,1,海潮路168号,121.49770573155735,31.209420840422574
10g8wpj,1,海潮路240弄,121.49725719113086,31.207703297230772
10g8wpk,1,海潮路256弄,121.49702349891251,31.207396672995863
10g8wpl,1,海南西弄58号,121.49994006550796,31.21367390167877
10g8wpm,1,汉口路429弄,121.4826548703125,31.234900767710528
10g8wpn,1,汉口路441号,121.48190874715402,31.234885496236995
10g8wpo,1,汉口路457号,121.48173407154417,31.234532006008557
10g8wpp,1,汉口路559号,121.47966852240586,31.234122728437026
10g8wpq,1,汉口路689号,121.4771673117653,31.232967202576567
10g8wpr,1,合肥路223弄,121.47615877493996,31.21442281448914
10g8wps,1,合肥路349弄,121.4733587826957,31.21378412389335
10g8wpt,1,和顺街26弄,121.49633441203606,31.220626346533507
10g8wpu,1,河南南路600弄,121.49049249312479,31.219908580507234
10g8wpv,1,河南南路655弄,121.4919927627039,31.21807806375871
10g8wpw,1,河南中路166弄,121.48496584470118,31.233752658214446
10g8wpx,1,河南中路1号,121.48611291373014,31.23202510519606
10g8wpy,1,河南中路88号,121.48673871019933,31.23225264183254
10g8wpz,1,虹桥弄36弄,121.4935883330805,31.22176004564855
10g8wq0,1,湖滨路210号,121.47609780984693,31.22080235747769
10g8wq1,1,淮海东路668弄,121.48199067497659,31.226205486428864
10g8wq2,1,淮海东路89弄,121.48183740651587,31.225347336258878
10g8wq3,1,淮海中路494弄,121.4697174440544,31.221544869001736
10g8wq4,1,淮海中路542弄,121.46877819315826,31.221200717456462
10g8wq5,1,淮海中路558号,121.46810277980697,31.220990566811096
10g8wq6,1,淮海中路567弄,121.46835505327266,31.22015366330279
10g8wq7,1,淮海中路613弄,121.46739381664793,31.21965984981888
10g8wq8,1,淮海中路697弄,121.46565629964618,31.21874499801969
10g8wq9,1,淮海中路833弄,121.4624381894409,31.218237150810225
10g8wqa,1,淮海中路927弄,121.4605684379345,31.21622709579602
10g8wqb,1,黄陂南路685弄,121.47791283891084,31.21422102199916
10g8wqc,1,黄陂南路847弄,121.47872710736755,31.211084247455254
10g8wqd,1,黄河路110号,121.47084825917749,31.23487652183301
10g8wqe,1,黄河路111号,121.47053493454001,31.234956763086846
10g8wqf,1,黄河路253弄,121.46724966137957,31.237248880225057
10g8wqg,1,黄河路65号,121.47056375340793,31.23408765205783
10g8wqh,1,黄家路55弄,121.49703776615979,31.21616172858998
10g8wqi,1,黄家路88弄,121.49605896227659,31.21538335012629
10g8wqj,1,黄家路99弄,121.49683785863469,31.215937636714955
10g8wqk,1,黄家阙路68弄,121.48742418584948,31.214918291487667
10g8wql,1,黄家阙路76弄,121.48755728837152,31.214628453840774
10g8wqm,1,黄家阙路88弄,121.48754671554973,31.21484672543217
10g8wqn,1,徽宁路164号,121.49334553181238,31.211621461059817
10g8wqo,1,火腿弄11号,121.49626667095458,31.221068492979516
10g8wqp,1,火腿弄43号,121.49577094930484,31.221275436470396
10g8wqq,1,济南路8号,121.47788465135632,31.221670110990505
10g8wqr,1,建德路9号,121.46733940294187,31.209667226109403
10g8wqs,1,建国东路61弄,121.4797441778537,31.21332001394888
10g8wqt,1,建国西路110弄,121.46504037772901,31.208196456557456
10g8wqu,1,建国西路136号,121.46458761074403,31.207432707482432
10g8wqv,1,建国西路78弄,121.46543810161678,31.20790050948718
10g8wqw,1,建国新路1号,121.48478120740067,31.21448477898394
10g8wqx,1,建国中路103弄,121.46940868602682,31.209541438998972
10g8wqy,1,建国中路137弄,121.4684200891785,31.209025278978636
10g8wqz,1,建国中路155弄,121.46769440484684,31.208768598289996
10g8wr0,1,建国中路1号,121.4715547211452,31.210442294678085
10g8wr1,1,江西中路114号,121.4876721587844,31.233643437772308
10g8wr2,1,江西中路128号,121.48758237644272,31.233847742115927
10g8wr3,1,江西中路135弄,121.48659415144049,31.233680089481872
10g8wr4,1,江西中路141号,121.48744284346341,31.23425771484029
10g8wr5,1,江西中路412弄,121.48591311880146,31.241504846631933
10g8wr6,1,江西中路414号,121.48536801750954,31.240993013257174
10g8wr7,1,江西中路418号,121.48547651329902,31.24108510220922
10g8wr8,1,江西中路434号,121.48540948142902,31.24140807028579
10g8wr9,1,江西中路436号,121.48519900020507,31.241546878703236
10g8wra,1,江西中路440号,121.48518415624376,31.241419748637128
10g8wrb,1,江西中路442号,121.48515016938612,31.2414018814543
10g8wrc,1,江西中路451号,121.48517092952822,31.241570326418046
10g8wrd,1,江西中路452号,121.48532773918576,31.241752404952706
10g8wre,1,江西中路460弄,121.48563436839665,31.241904194490044
10g8wrf,1,江西中路467号,121.48491271076564,31.24213236716941
10g8wrg,1,江西中路473号,121.48485025910267,31.242095368462582
10g8wrh,1,江西中路481号,121.48488904805859,31.24245825682058
10g8wri,1,江阴路106弄,121.468596881089,31.229903484128467
10g8wrj,1,江阴路110号,121.46844719905194,31.229510779688503
10g8wrk,1,江阴路130弄,121.46881671590678,31.229689181806265
10g8wrl,1,金陵东路10号,121.49119032035802,31.231531204429686
10g8wrm,1,金陵东路117号,121.48983389986903,31.231114665532214
10g8wrn,1,金陵东路183弄,121.48840111363589,31.230044282232953
10g8wro,1,金陵东路67号,121.49092368424658,31.231266265625546
10g8wrp,1,金陵东路91弄,121.48998403992407,31.231082411374746
10g8wrq,1,金坛路35弄,121.49807405819745,31.21950923382123
10g8wrr,1,静修路126弄,121.48635221033611,31.219416836609078
10g8wrs,1,九江路595号,121.47963335743914,31.234473564767704
10g8wrt,1,局门路1弄,121.4802341738411,31.208975135843474
10g8wru,1,局门路241弄,121.48037796033232,31.20788649101466
10g8wrv,1,局门路295弄,121.48192760894874,31.205125254117835
10g8wrw,1,局门路402号,121.48148037632717,31.20413723653248
10g8wrx,1,局门路434弄,121.4812196063615,31.202712496146315
10g8wry,1,局门路620号,121.48301142519333,31.19995061760033
10g8wrz,1,巨鹿路260弄,121.46206726420654,31.223156154395802
10g8ws0,1,巨鹿路367号,121.45972313072915,31.22255168622135
10g8ws1,1,巨鹿路395弄,121.45891925643005,31.22228290683741
10g8ws2,1,巨鹿路403号,121.45797803482134,31.22241439246789
10g8ws3,1,巨鹿路4号,121.45032778343524,31.22015201686565
10g8ws4,1,聚奎新村,121.49613673876719,31.22350641880177
10g8ws5,1,丽园路1032弄,121.47201203838816,31.20546233982475
10g8ws6,1,丽园路43弄,121.48920337472221,31.211396768646708
10g8ws7,1,丽园路468号,121.48243060910312,31.207995626501216
10g8ws8,1,丽园路502号,121.48198605500139,31.207643104552844
10g8ws9,1,丽园路710弄,121.47926443760159,31.206339814683307
10g8wsa,1,丽园路842弄,121.47613227556056,31.20594905272198
10g8wsb,1,丽园路887号,121.47517781819631,31.20661006893621
10g8wsc,1,林荫路260弄,121.4865073895405,31.212468553489423
10g8wsd,1,灵济街43号,121.49538783042871,31.22145895794878
10g8wse,1,柳市路1弄,121.49901452037437,31.213218572737127
10g8wsf,1,柳市路80号,121.49858103757552,31.212233075063555
10g8wsg,1,龙华东路888弄,121.47111438307313,31.192890627819885
10g8wsh,1,鲁班路168弄,121.47324075900615,31.20498824441597
10g8wsi,1,鲁班路277弄,121.47548030067661,31.20489388745121
10g8wsj,1,鲁班路388弄,121.4747110445021,31.20167115976174
10g8wsk,1,鲁班路400弄,121.47590381039652,31.20055828658883
10g8wsl,1,鲁班路412号,121.47545448253695,31.20028977830198
10g8wsm,1,鲁班路562弄,121.47621970674678,31.198576581757113
10g8wsn,1,鲁班路738弄,121.47766067180176,31.194289927532182
10g8wso,1,鲁班路776弄,121.47761157192649,31.19443392887887
10g8wsp,1,鲁班路88弄,121.47286091838855,31.206903175740756
10g8wsq,1,陆家浜路1018弄,121.48919738221605,31.211771275555336
10g8wsr,1,陆家浜路1034弄,121.48925408199582,31.21175553915245
10g8wss,1,陆家浜路305弄,121.50067896272299,31.21171472322151
10g8wst,1,陆家浜路388号,121.49973401942111,31.210951045978398
10g8wsu,1,陆家浜路399号,121.4997791269574,31.21181953334089
10g8wsv,1,陆家浜路413弄,121.49962861548703,31.212576921754145
10g8wsw,1,陆家浜路418号,121.49948505329914,31.210945565490327
10g8wsx,1,陆家浜路521弄,121.49777927339653,31.212792470888637
10g8wsy,1,陆家宅路91弄,121.49591981647785,31.224452686386734
10g8wsz,1,露香园路166号,121.48526297849008,31.225034789483487
10g8wt0,1,马当路222弄,121.47420849396254,31.219368200101158
10g8wt1,1,马当路258号,121.47462926107285,31.21815513717418
10g8wt2,1,马当路278弄,121.47383276989333,31.217580107821163
10g8wt3,1,马当路306弄,121.47492394267525,31.21751737621062
10g8wt4,1,马当路310号,121.47460834732027,31.21715007611784
10g8wt5,1,马当路318弄,121.47459158242134,31.21730528159431
10g8wt6,1,马当路328弄,121.47451350488623,31.216953720992368
10g8wt7,1,马当路330号,121.47462254660327,31.21690240778111
10g8wt8,1,马当路357弄,121.47617002315883,31.213131319503827
10g8wt9,1,茂名南路159弄,121.46225316808543,31.216176096239163
10g8wta,1,茂名南路169弄,121.46277762609932,31.214928304025012
10g8wtb,1,茂名南路56弄,121.46010610401065,31.22148216916167
10g8wtc,1,茂名南路59号,121.46072740892937,31.2199959046834
10g8wtd,1,蒙自路345弄,121.47880517216736,31.20414402805918
10g8wte,1,蒙自路395弄,121.48034977086044,31.202894480155113
10g8wtf,1,蒙自路490弄,121.47976261330454,31.200513715253667
10g8wtg,1,蒙自路501弄,121.4802515648654,31.2012315055146
10g8wth,1,蒙自路601弄,121.48083769623258,31.199822746184665
10g8wti,1,蒙自西路14号,121.4768533596421,31.207594637097497
10g8wtj,1,蒙自西路28弄,121.47627893367051,31.20700369331887
10g8wtk,1,梦花街31号,121.48911764042009,31.219545377449794
10g8wtl,1,面筋弄12弄,121.49837909180935,31.220329133322434
10g8wtm,1,南昌路100弄,121.46858898254254,31.219548763508584
10g8wtn,1,南昌路110弄,121.46809128732656,31.21944747556999
10g8wto,1,南昌路125号,121.46368247023757,31.217290978908224
10g8wtp,1,南昌路156号,121.4673985232641,31.218595203632674
10g8wtq,1,南昌路178弄,121.46650288370397,31.218574900775014
10g8wtr,1,南昌路209弄,121.46036424732488,31.21536368512868
10g8wts,1,南昌路272弄,121.46369076845667,31.217579178974812
10g8wtt,1,南昌路280号,121.46269181185467,31.217145611635118
10g8wtu,1,南昌路326号,121.46139765334124,31.21621768810839
10g8wtv,1,南昌路79号,121.46525789304913,31.217570954744616
10g8wtw,1,南车站路20弄,121.48993067401369,31.211748361514037
10g8wtx,1,南车站路30弄,121.48956928196392,31.21164125951889
10g8wty,1,南京东路138号,121.48719309984293,31.238507296663236
10g8wtz,1,南京东路199号,121.4858349903828,31.23771593053587
10g8wu0,1,南京东路299号,121.48432153195279,31.23713290498236
10g8wu1,1,南苏州路551号,121.48111214493171,31.240208357067022
10g8wu2,1,南苏州路747号,121.47765692711265,31.2405496880567
10g8wu3,1,南塘浜路93弄,121.47394460923259,31.20412864464907
10g8wu4,1,宁安路123弄,121.48636763606305,31.215902870972798
10g8wu5,1,宁波路116号,121.48440670792195,31.23922462400125
10g8wu6,1,宁波路120弄,121.48467120999162,31.239828816472826
10g8wu7,1,宁波路189号,121.4838114549134,31.239165791058184
10g8wu8,1,宁波路201号,121.48361101004929,31.239035630677726
10g8wu9,1,宁波路219号,121.48286601491394,31.239115673223193
10g8wua,1,宁波路222号,121.48323439494983,31.239048876755593
10g8wub,1,宁波路284弄,121.48169136144782,31.238944261333227
10g8wuc,1,宁波路430弄1号,121.47895135525292,31.23763136739245
10g8wud,1,宁波路50号,121.48630601470781,31.240000856019734
10g8wue,1,宁波路561号,121.47698637057344,31.236898108109386
10g8wuf,1,宁波路74弄,121.48528177584187,31.239724605963502
10g8wug,1,宁海东路250弄,121.48097671011843,31.22843773497059
10g8wuh,1,宁海东路281号,121.47996624573965,31.22799179337048
10g8wui,1,宁海东路299号,121.47982982159425,31.227745724433458
10g8wuj,1,牛庄路692号,121.47703096210601,31.23765760347621
10g8wuk,1,牛庄路769弄,121.47556752563388,31.23704881497868
10g8wul,1,牌楼路23号,121.48635901305708,31.214015567579004
10g8wum,1,蓬莱路348号,121.48851091149635,31.21689842726829
10g8wun,1,蓬莱路358号,121.48859127308873,31.216751592450617
10g8wuo,1,蓬莱路401号,121.4875939983938,31.21630511446513
10g8wup,1,平望街15弄,121.47878843953568,31.23137046698885
10g8wuq,1,平望街19号,121.479179581368,31.23174704385707
10g8wur,1,平望街27号,121.47886574493307,31.231754952756138
10g8wus,1,平望街29号,121.47937541657673,31.231406541057186
10g8wut,1,平望街36弄,121.47911442997778,31.231894869356893
10g8wuu,1,平望街6弄,121.47978158780322,31.231764243190923
10g8wuv,1,普育东路200弄,121.49554175115988,31.20782300434968
10g8wuw,1,乔家路21号,121.4975267880801,31.21670799122626
10g8wux,1,乔家路272号,121.49392492361427,31.217359235319684
10g8wuy,1,青岛路53号,121.46811704430431,31.23737959834519
10g8wuz,1,清真路58弄,121.45994324022291,31.200308238649928
10g8wv0,1,瞿溪路1003弄,121.4770023981235,31.199771938358055
10g8wv1,1,瞿溪路1072弄,121.4741591746046,31.19858062405089
10g8wv2,1,瞿溪路110号,121.49603542005188,31.206950780200017
10g8wv3,1,瞿溪路1111弄,121.47403023639242,31.200356750986835
10g8wv4,1,瞿溪路1145弄,121.47303509509723,31.199331834345514
10g8wv5,1,瞿溪路1147号,121.47263726554162,31.198291172897733
10g8wv6,1,瞿溪路115号,121.4947905805053,31.207204012222153
10g8wv7,1,瞿溪路117号,121.49482607870395,31.20688630609097
10g8wv8,1,瞿溪路118号,121.49484205744093,31.20650650852367
10g8wv9,1,瞿溪路1199弄,121.47110213286074,31.198487046079993
10g8wva,1,瞿溪路119号,121.49489531737571,31.20696854505107
10g8wvb,1,瞿溪路1200弄,121.47265288840022,31.197289169606876
10g8wvc,1,瞿溪路120弄,121.49546966820932,31.206632301523445
10g8wvd,1,瞿溪路121号,121.4944138761981,31.20669767106216
10g8wve,1,瞿溪路123号,121.49456309890326,31.20656869360162
10g8wvf,1,瞿溪路1240弄,121.47044187561427,31.197027820049357
10g8wvg,1,瞿溪路124号,121.49429412934442,31.206150837872702
10g8wvh,1,瞿溪路1254弄,121.47045665801835,31.19731949580266
10g8wvi,1,瞿溪路126号,121.49428407458124,31.205982427012394
10g8wvj,1,瞿溪路463弄,121.48776873100502,31.20342208968552
10g8wvk,1,瞿溪路564号,121.48574760083241,31.20141740605888
10g8wvl,1,瞿溪路811弄,121.48116852126333,31.201087585312948
10g8wvm,1,瞿溪路833号,121.48086042352186,31.201019782283275
10g8wvn,1,瞿溪路904弄,121.47919166387997,31.19977086006481
10g8wvo,1,瞿溪路937弄,121.47767751568107,31.20028901319637
10g8wvp,1,瞿溪路968弄,121.4775685962828,31.199056930883867
10g8wvq,1,人民路777号,121.48500381531335,31.2271208993727
10g8wvr,1,人民路875号,121.48356308753668,31.226526147033265
10g8wvs,1,人民路879号,121.48360830338926,31.22620570002265
10g8wvt,1,瑞金二路129弄,121.4657470219452,31.213177043633948
10g8wvu,1,瑞金二路137号,121.46560131307305,31.21347769623529
10g8wvv,1,瑞金二路225弄,121.46789485049972,31.208105125338125
10g8wvw,1,瑞金二路24号,121.46412446469591,31.2179454677975
10g8wvx,1,瑞金二路410弄,121.4658771159495,31.206896190818266
10g8wvy,1,瑞金二路52弄,121.46400336226573,31.21575370316022
10g8wvz,1,瑞金二路70弄,121.46396306534574,31.21530587395297
10g8ww0,1,瑞金南路185弄,121.46901243751655,31.20053359817736
10g8ww1,1,瑞金南路1号,121.4677450251781,31.20450789295217
10g8ww2,1,瑞金南路271弄,121.46865657651749,31.199014118176663
10g8ww3,1,瑞金南路299号,121.46918681206604,31.1989600584384
10g8ww4,1,瑞金南路345弄,121.46968759187028,31.19725109764461
10g8ww5,1,瑞金一路79弄,121.46333018087928,31.222481355285108
10g8ww6,1,桑园街38弄,121.49716985090366,31.21333073300943
10g8ww7,1,桑园街6弄,121.49797570867085,31.21415302939179
10g8ww8,1,山西南路9弄,121.48352576099258,31.234604865315145
10g8ww9,1,陕西南路15号,121.45720113159871,31.221720657360105
10g8wwa,1,陕西南路271弄,121.46406381732444,31.208259942996914
10g8wwb,1,陕西南路287弄,121.46251312724344,31.20713103126102
10g8wwc,1,陕西南路307弄,121.46272171321554,31.205992681449153
10g8wwd,1,陕西南路5号,121.45732257245098,31.22263583099397
10g8wwe,1,尚文路168号,121.49038801820424,31.21522757483149
10g8wwf,1,绍兴路19号,121.46366669777301,31.209198976161048
10g8wwg,1,绍兴路52弄,121.46444757596224,31.210000987605152
10g8wwh,1,绍兴路58号,121.463997071233,31.209558617119722
10g8wwi,1,绍兴路60号,121.4637161328939,31.209455993956144
10g8wwj,1,绍兴路76弄,121.46306143614292,31.208959919366954
10g8wwk,1,寿宁路98号,121.48071087141815,31.223729090109916
10g8wwl,1,顺昌路10号,121.4764407971587,31.22123375271728
10g8wwm,1,顺昌路521号,121.47967755547116,31.212554528064484
10g8wwn,1,顺昌路550弄,121.47930700319911,31.211726341243228
10g8wwo,1,顺昌路612弄51号,121.47868904294155,31.211191556670347
10g8wwp,1,思南路113号,121.47119783424264,31.208832207656254
10g8wwq,1,思南路115弄,121.47121533877005,31.208292985305324
10g8wwr,1,思南路88弄,121.47087995129931,31.20877456299904
10g8wws,1,思南路9号,121.46617798363309,31.21900114911982
10g8wwt,1,四川中路126弄,121.48971948694859,31.234661752797784
10g8wwu,1,四川中路563号,121.48653877886245,31.241195236503923
10g8wwv,1,四川中路585号,121.48662251982638,31.24159114054125
10g8www,1,四川中路615号,121.48604327796993,31.242167691616466
10g8wwx,1,四川中路617号,121.48621084578943,31.242241765179042
10g8wwy,1,四川中路88号,121.4897006077252,31.233735855213553
10g8wwz,1,四牌楼路110号,121.49556568795134,31.223527427255274
10g8wx0,1,四牌楼路113号,121.4951835743427,31.223668196896753
10g8wx1,1,四牌楼路147号,121.49530628605983,31.225211068966466
10g8wx2,1,四牌楼路149号,121.49580450029997,31.22270861987325
10g8wx3,1,四牌楼路185号,121.4955947316546,31.22232387460532
10g8wx4,1,四牌楼路75号,121.4952768891732,31.22433462116755
10g8wx5,1,四牌楼路77弄,121.49544583448699,31.224344886070828
10g8wx6,1,四牌楼路87号,121.49557223345522,31.224101014895385
10g8wx7,1,泗泾路33号,121.4863349338174,31.233331676442596
10g8wx8,1,泰康路248弄,121.46890761774694,31.208360402741206
10g8wx9,1,泰康路3号,121.47143192115976,31.20820589678299
10g8wxa,1,桃源路111弄,121.47890916418112,31.22377130352102
10g8wxb,1,天津路110弄,121.48391743274979,31.23872854638933
10g8wxc,1,天津路138弄,121.48365970907047,31.238264258398782
10g8wxd,1,天津路170弄,121.48283353175528,31.23896097271316
10g8wxe,1,天津路179弄,121.48300850171614,31.237919264022644
10g8wxf,1,天津路195弄,121.48278426763937,31.237737602931606
10g8wxg,1,天津路423号,121.4785240865606,31.23644627095989
10g8wxh,1,天津路478弄,121.47818640542276,31.236091033319195
10g8wxi,1,天津路504号,121.47706430383577,31.23615605312426
10g8wxj,1,天柱山路17弄,121.49401352699415,31.21124712039941
10g8wxk,1,铁道路140号,121.48703792110986,31.200130415089642
10g8wxl,1,铁道路776弄,121.47566512860402,31.19618758165482
10g8wxm,1,外马路348号,121.50485084916183,31.22159283484113
10g8wxn,1,外咸瓜街38号,121.49841168162666,31.224266758944367
10g8wxo,1,万竹街45弄,121.48464814342242,31.223999401104273
10g8wxp,1,威海路172弄,121.46817429990963,31.22773670856119
10g8wxq,1,文庙路60弄,121.4903511056048,31.219056933767234
10g8wxr,1,五里桥路188弄,121.48153031928383,31.20418546486075
10g8wxs,1,五里桥路260弄,121.47979746052064,31.203138459766045
10g8wxt,1,五里桥路269弄,121.47970509703933,31.204132710674358
10g8wxu,1,五里桥路39弄,121.48368704575572,31.204557772353894
10g8wxv,1,西藏南路1129弄,121.48740738157991,31.21065888568524
10g8wxw,1,西藏南路1277弄,121.4873860130513,31.20826008196632
10g8wxx,1,西藏南路1341弄,121.48860182706117,31.20665379524467
10g8wxy,1,西藏南路381号,121.48160688267913,31.222358989089212
10g8wxz,1,西藏南路555弄,121.48361985175333,31.21973944454838
10g8wy0,1,西藏南路897号,121.48676908082564,31.21332354380133
10g8wy1,1,西藏南路900弄,121.4848774077042,31.213609918482447
10g8wy2,1,西藏中路200号,121.47679398289786,31.231738308021892
10g8wy3,1,西凌家宅路137弄,121.48537133360229,31.20416756562411
10g8wy4,1,西凌家宅路27弄,121.48749942241966,31.204427590943045
10g8wy5,1,西凌家宅路58号,121.48695686491007,31.204199305937383
10g8wy6,1,西凌家宅路98号,121.48627425892148,31.204038618692433
10g8wy7,1,西陵家宅路29号,121.48507635664966,31.203732597723643
10g8wy8,1,西姚家弄21弄,121.49706758112394,31.22389209011017
10g8wy9,1,西姚家弄25号,121.49663654442922,31.222328978872614
10g8wya,1,西姚家弄27号,121.4966378293581,31.222431319676993
10g8wyb,1,西姚家弄33号,121.49655204465354,31.22239966497642
10g8wyc,1,西姚家弄51号,121.49617205106422,31.222393626339613
10g8wyd,1,西姚家弄53号,121.49606840390479,31.222650142918603
10g8wye,1,县左街24弄,121.49497009824235,31.224342394881017
10g8wyf,1,香港路123号,121.48553936739702,31.242417832882857
10g8wyg,1,香港路150号,121.48530625341378,31.242509466374965
10g8wyh,1,小桃园街50弄,121.48916159677366,31.220743682278613
10g8wyi,1,斜土路102号,121.48283007601214,31.206163902449752
10g8wyj,1,斜土路108号,121.48271611308542,31.206165981779495
10g8wyk,1,斜土路118弄,121.48283769824599,31.205370845862078
10g8wyl,1,斜土路195弄,121.48184051998928,31.20621751782041
10g8wym,1,斜土路298弄,121.4805601215231,31.20448366722948
10g8wyn,1,斜土路550弄,121.47628034270409,31.20292687677065
10g8wyo,1,斜土路556弄,121.47581123228285,31.202503209604075
10g8wyp,1,斜土路766弄,121.47231900358,31.201138735447188
10g8wyq,1,斜土路80弄,121.48369616153482,31.205679084461618
10g8wyr,1,斜土路85弄,121.48332670072739,31.20673510390635
10g8wys,1,斜土支路11号,121.48394427279179,31.205965156322872
10g8wyt,1,新昌路296号,121.46833968068817,31.23578746174526
10g8wyu,1,新昌路300弄,121.46814488893766,31.236160914004618
10g8wyv,1,新昌路348号,121.46779441602453,31.23674439976935
10g8wyw,1,新昌路61弄,121.46939125707353,31.23227275453709
10g8wyx,1,新闸路126号,121.47119744524835,31.23852496012337
10g8wyy,1,新闸路280号,121.46734990109383,31.239511452128895
10g8wyz,1,兴业路123弄,121.4750742310655,31.218953621726456
10g8wz0,1,徐家汇路135弄,121.47837748957652,31.20830995922265
10g8wz1,1,徐家汇路189号,121.47707121758316,31.208896529514817
10g8wz2,1,徐家汇路1弄,121.48213224792646,31.21038073316541
10g8wz3,1,徐家汇路268号,121.47723166231036,31.210480210446605
10g8wz4,1,徐家汇路396号,121.47365262904516,31.209252998454975
10g8wz5,1,徐家汇路515弄,121.4754131035956,31.20872067244226
10g8wz6,1,徐家汇路528号,121.47087993255246,31.20716332125195
10g8wz7,1,徐家汇路536弄,121.47276173136353,31.203233973430166
10g8wz8,1,徐家汇路563号,121.47178185282017,31.20711627499953
10g8wz9,1,薛家浜路236弄,121.50215495075699,31.21077228794262
10g8wza,1,薛家浜路242弄,121.501713687772,31.211123354298024
10g8wzb,1,学前街111弄,121.48982041182072,31.216285909562647
10g8wzc,1,学前街152弄,121.48945622526628,31.215266571179857
10g8wzd,1,学前街58号,121.48875750839312,31.216504444430363
10g8wze,1,学院路129号,121.49487561346292,31.2235520371101
10g8wzf,1,学院路135号,121.49451621868981,31.223509696577466
10g8wzg,1,学院路137号,121.49475072376656,31.22308972181429
10g8wzh,1,学院路140号,121.49459955079303,31.223256322920633
10g8wzi,1,学院路30号,121.49654372081767,31.223153153131825
10g8wzj,1,学院路59号,121.49625286024614,31.22333163296276
10g8wzk,1,学院路72号,121.49567358857564,31.223011808903628
10g8wzl,1,学院路74号,121.49594988355693,31.222976620190046
10g8wzm,1,学院路79弄,121.49586533885876,31.223688896608937
10g8wzn,1,巡道街26号,121.4973641940139,31.220753178434755
10g8wzo,1,延安东路128弄,121.48864439013411,31.232220702777767
10g8wzp,1,延安东路1292弄,121.47140772550546,31.225785360734807
10g8wzq,1,延安东路385号,121.48058766050326,31.229230821311074
10g8wzr,1,延安东路429号,121.47921581332484,31.22891678859906
10g8wzs,1,延安中路527号,121.4602628041046,31.2233216053295
10g8wzt,1,延安中路535弄,121.45988986612241,31.223420636283244
10g8wzu,1,延安中路545弄,121.4591520902644,31.22328063913348
10g8wzv,1,雁荡路13号,121.47024905963228,31.220744480699892
10g8wzw,1,也是园弄32号,121.49330483282688,31.216663288092672
10g8wzx,1,也是园弄54弄,121.49288793118372,31.216931777577535
10g8wzy,1,迎勋北路8弄,121.4895381010729,31.216806117026184
10g8wzz,1,迎勋路100弄,121.49119307610852,31.213069723373078
10g8x00,1,迎勋路69弄,121.49216069551382,31.213611627743724
10g8x01,1,永安路14号,121.49186979139962,31.23072241417818
10g8x02,1,永年路149弄,121.47894759440011,31.211265116802146
10g8x03,1,永年路49号,121.4789940625294,31.21151302854534
10g8x04,1,永寿路50号,121.48116984541674,31.229383872642337
10g8x05,1,永寿路88号,121.48163905708435,31.22818799374114
10g8x06,1,永泰街43弄,121.49782297857983,31.215794961866298
10g8x07,1,悦来街38弄,121.49944337125862,31.220309412822555
10g8x08,1,长乐路169弄,121.46211658105284,31.221015776637998
10g8x09,1,长乐路193号,121.45908444619816,31.220267200902253
10g8x0a,1,长乐路81号,121.46850761459693,31.221842303526348
10g8x0b,1,肇家浜路168弄,121.4621531111933,31.20358253551578
10g8x0c,1,肇嘉浜路168弄,121.4631475135298,31.20450076212314
10g8x0d,1,肇周路332弄,121.48102368159489,31.213345142764197
10g8x0e,1,肇周路358弄,121.48089419985489,31.21288713187061
10g8x0f,1,浙江南路78号,121.48196736377429,31.22843454703211
10g8x0g,1,浙江中路110号,121.48030550336821,31.231905085751052
10g8x0h,1,浙江中路167弄,121.4796534287377,31.23246477347615
10g8x0i,1,浙江中路419号,121.477628463625,31.236383905596394
10g8x0j,1,浙江中路431号,121.48151247874623,31.23444453685272
10g8x0k,1,浙江中路435号,121.47746380047509,31.236704925916413
10g8x0l,1,制造局路567弄,121.48664413379933,31.203957306520827
10g8x0m,1,制造局路646弄,121.48501560501165,31.201994908655244
10g8x0n,1,制造局路779号,121.48597319252616,31.199763291268955
10g8x0o,1,制造局路833弄19号,121.48738309371346,31.199510917005508
10g8x0p,1,中华路128弄,121.49892881056874,31.22315184764212
10g8x0q,1,中华路1300弄,121.486459003602,31.216335694271887
10g8x0r,1,中华路1409号,121.48576243769925,31.217980892947523
10g8x0s,1,中华路179号,121.49844433904295,31.22251145922284
10g8x0t,1,中华路198号,121.49906408059876,31.222202648620286
10g8x0u,1,中华路211弄,121.49885705651478,31.22148688575551
10g8x0v,1,中华路317号,121.49880516226015,31.220255811508718
10g8x0w,1,中华路319号,121.49869055039221,31.22008741066611
10g8x0x,1,中华路327号,121.4988840980367,31.219963860181213
10g8x0y,1,中华路518号,121.49912756682801,31.217903154173356
10g8x0z,1,中华路518弄,121.4986340667977,31.21803546769597
10g8x10,1,中华路868弄,121.49494234444998,31.214456694123022
10g8x11,1,中华路88弄,121.49812445240492,31.22498211410622
10g8x12,1,中华路989号,121.49100762417989,31.21491053843867
10g8x13,1,中山东二路521号,121.49636324824606,31.22939762254021
10g8x14,1,中山东二路531号,121.49820663606177,31.228008254655588
10g8x15,1,中山东一路247弄,121.48170652609171,31.237151358634417
10g8x16,1,中山南路1586弄,121.49510077043163,31.205701655459997
10g8x17,1,中山南路1667号,121.4949221832068,31.204635113948548
10g8x18,1,中山南路1669弄,121.49563031544284,31.204770160526802
10g8x19,1,中山南路566弄,121.50428626659853,31.21791208890633
10g8x1a,1,中山南一路1012弄,121.47303301127523,31.195462108653278
10g8x1b,1,中山南一路101弄,121.48730547529722,31.20104533754079
10g8x1c,1,中山南一路1065号,121.47210245149085,31.19614478323398
10g8x1d,1,中山南一路1109弄,121.4706205469496,31.195615087073975
10g8x1e,1,中山南一路161弄,121.48738637162535,31.20105067782062
10g8x1f,1,中山南一路248号,121.48724954082027,31.20032955492715
10g8x1g,1,中山南一路256弄,121.48655118170562,31.20008752812158
10g8x1h,1,中山南一路302号,121.48599347975734,31.19990603299821
10g8x1i,1,中山南一路428号,121.48483791722721,31.19925157460721
10g8x1j,1,中山南一路500弄,121.48557931986606,31.199244558825818
10g8x1k,1,中山南一路725号,121.48841652794668,31.20134836568576
10g8x1l,1,中山南一路810号,121.47832339699342,31.197130071353552
10g8x1m,1,中山南一路892号,121.47632031578215,31.196705572100054
10g8x1n,1,中山南一路904号,121.47562348731509,31.196296131617512
10g8x1o,1,中兴路1394弄,121.46004966135654,31.251977832937357
10g8wml,1,重庆北路177弄,121.46925447832257,31.22611222376368
10g8wmm,1,重庆北路198号,121.47052888174326,31.22670948723149
10g8wmn,1,重庆北路212号,121.46974640872104,31.22726525411011
10g8wmo,1,重庆北路318号,121.46928650089387,31.22886656915718
10g8wmp,1,重庆南路169弄,121.47223360667981,31.217015532196612
10g8wmq,1,重庆南路205弄,121.47158505096215,31.2144353117964
10g8wmr,1,重庆南路229弄,121.47250290793362,31.211993410545666
10g8wms,1,重庆南路26弄,121.47118867167772,31.220135965118196
10g8wmt,1,重庆南路283号,121.47359425721241,31.209425821546127
10g8wmu,1,重庆南路298弄,121.47071160562095,31.21120992516611
10g8x1p,1,昼锦路58弄,121.49320958685242,31.224462159775406
10g8x1q,1,昼锦路99号,121.49123420886255,31.224474911717206
10g8x1r,1,紫霞路119号,121.50320890992388,31.21912615625736
10g8x1s,1,自忠路170号,121.47680259563981,31.219073536760078
10g8x1t,1,自忠路373号,121.47318130430305,31.217981828011492
10g8x1u,1,自忠路434号,121.47256296094535,31.21811759776706
10g8ykf,e,爱特路333弄,121.31069557220195,31.23182082252292
10g8ykg,e,爱特路68弄,121.32232516704457,31.234429680374504
10g8ykh,e,爱特路89弄,121.31660858178007,31.231653165908234
10g8yki,e,安礼路399弄,121.17622605715918,31.270237626508376
10g8ykj,e,安亭街119号,121.15524700776035,31.294827872391267
10g8ykk,e,安新村,121.31294984876259,31.453260672954027
10g8ykl,e,安研路67弄,121.18606255931425,31.275252569224065
10g8ykm,e,白银路1563号,121.24069637369053,31.343969709090985
10g8ykq,e,宝安公路2682号,121.314314032472,31.344692174915068
10g8ykn,e,宝安公路3705弄,121.26866427983248,31.325507024039887
10g8yko,e,宝安公路4339号,121.22650387117709,31.316924295510603
10g8ykp,e,宝安公路安晓路交叉口工地,121.19089624374918,31.312368413177143
10g8ykr,e,宝凤路519号,121.29124201592911,31.435084809957083
10g8yks,e,宝乐路58弄,121.28928478518678,31.33116482651533
10g8ykt,e,宝翔路158弄,121.32618066346997,31.302703114433314
10g8yku,e,宝翔路225弄,121.31975472468511,31.309791687583118
10g8ykv,e,宝翔路556弄,121.32009059954017,31.308615283847292
10g8ykw,e,宝翔路560弄,121.32242954202829,31.309415614078887
10g8ykx,e,宝翔路998弄,121.31815734372174,31.31524818543511
10g8yky,e,宝翔路一建小学项目部,121.32038848363713,31.30855341033369
10g8ykz,e,北和公路1650号,121.17882526921197,31.424837396611338
10g8yl0,e,北新村,121.25898277619987,31.467078781105123
10g8yl2,e,博园路898号,121.2854142416362,31.256007509401478
10g8yl3,e,曹安公路1685号,121.3658624365255,31.252468424733433
10g8yl4,e,曹安公路1718号,121.3648576599465,31.25410723209783
10g8yl5,e,曹安公路1980号,121.35664896527253,31.256217972163537
10g8yl6,e,曹安公路1986号,121.3537258781818,31.257477124560136
10g8yl7,e,曹安公路1991号,121.21501651845475,31.273882114257702
10g8yl8,e,曹安公路2341号,121.34180762830587,31.259936071366926
10g8yl9,e,曹安公路2388号,121.33958820806214,31.261945941221832
10g8yla,e,曹安公路2742号,121.32784802068142,31.26379083636974
10g8ylb,e,曹安公路2758号,121.32769001000932,31.264138962063186
10g8ylc,e,曹安公路2989号,121.31438848792631,31.26438589933099
10g8yld,e,曹安公路3080号,121.31119689000835,31.267672437024334
10g8yle,e,曹安公路4058弄,121.2693589427375,31.2733986453368
10g8ylf,e,曹安公路4800号,121.21497321230669,31.286936118555385
10g8ylg,e,曹安路1501号,121.37498757564235,31.250417400634948
10g8ylh,e,曹安路4908弄,121.36907191355058,31.252774530459217
10g8yli,e,曹南路12弄,121.35275901303672,31.25981459017452
10g8ylj,e,曹王村,121.30613037407804,31.44030920358646
10g8ylk,e,槎溪路680弄,121.32282184371019,31.288347245727802
10g8yll,e,槎溪路幼儿园工地,121.40323368159562,31.255432269861863
10g8ylm,e,昌翔路88弄,121.3371461998924,31.3093917581582
10g8yln,e,陈宝路30号,121.32948681330114,31.348840238292375
10g8ylo,e,陈村村,121.32597454184257,31.35723717100139
10g8ylp,e,陈家山路388弄,121.23971110047873,31.391347703352032
10g8ylq,e,陈翔公路1588弄,121.34770909121517,31.317157978003188
10g8ylr,e,陈翔公路2299号,121.30604645313068,31.30485822850782
10g8yls,e,陈翔公路2400弄,121.30172529874413,31.30580281135428
10g8ylt,e,城中路197号,121.24451212622625,31.38713227396977
10g8ylu,e,澄浏中路225弄,121.29888955583117,31.34110129242819
10g8ylv,e,崇文路1851号,121.274047049251,31.318960285673608
10g8ylw,e,慈竹路615弄,121.21274482180704,31.377682318055122
10g8ylx,e,大宏村,121.31869185151592,31.370000974202995
10g8yly,e,大石皮村,121.25578922918723,31.41930998317588
10g8ylz,e,大裕村,121.31627985742924,31.38098725916274
10g8ym0,e,德华路79弄,121.31717366307798,31.29605682240786
10g8ym1,e,德华路898弄,121.30016195709996,31.28980635154196
10g8ym2,e,德园路1259弄,121.30039509007801,31.30822428003037
10g8ym3,e,德园路1437弄,121.2975990066181,31.311241522214345
10g8ym4,e,德园路1500弄,121.29970217722285,31.312102571967994
10g8ym5,e,德园路1509弄,121.29804413937453,31.31239124331708
10g8ym6,e,德园路375弄,121.3085334690217,31.29373192106942
10g8ym7,e,德园路685弄,121.3061649494864,31.29875458688235
10g8ym8,e,德园南路111弄,121.31702611731305,31.28123415473328
10g8ym9,e,德园南路508弄,121.31469928008407,31.286780308074754
10g8yma,e,定边路56号,121.36360876206122,31.255286195805276
10g8ymb,e,东街村,121.23004610932426,31.27012590141232
10g8ymc,e,樊家村,121.29195119646681,31.34068691058174
10g8ymd,e,方德路200弄,121.23023349693472,31.31439404822016
10g8yme,e,方南路350弄,121.2184947138625,31.31070776507082
10g8ymf,e,芳礼路99弄,121.3137498535964,31.310290777735514
10g8ymg,e,芳林路333弄,121.31957768641982,31.301076184137628
10g8ymh,e,芳林路951弄,121.31077547986388,31.307094124592336
10g8ymi,e,丰功路555号,121.29949538873016,31.34690705984215
10g8ymj,e,丰功路888号,121.29097038466404,31.3444381847534
10g8ymk,e,丰江路128弄,121.34612705237912,31.25331541601581
10g8yml,e,丰翔路2800号,121.33031619835278,31.305051497448453
10g8ymm,e,丰庄北路355弄,121.36396129487721,31.2497565711565
10g8ymn,e,丰庄北路375弄,121.36455519052788,31.24969346944517
10g8ymo,e,丰庄北路82弄,121.35852707890625,31.248452218659637
10g8ymp,e,丰庄路268弄,121.36423070546067,31.244249300288963
10g8ymq,e,丰庄路301弄,121.36136855973153,31.24631444442336
10g8ymr,e,丰庄路399弄,121.36414291579072,31.24868216471464
10g8yms,e,丰庄路450弄,121.36535053253975,31.24708218816059
10g8ymt,e,丰庄路452号,121.3653503897985,31.24904033290503
10g8ymu,e,丰庄路480弄,121.36439944959348,31.245924498903022
10g8ymv,e,丰庄三队,121.36121715470983,31.247402546836682
10g8ymw,e,丰庄西路433弄,121.35363365630228,31.24602383842334
10g8ymx,e,丰庄西路480弄,121.35554767681876,31.24650788739721
10g8ymy,e,丰庄西路558弄,121.35868213200634,31.246440605052225
10g8ymz,e,封周路368弄,121.27481218755754,31.334505356204925
10g8yn0,e,福海路1028弄,121.23691619204902,31.364335323605324
10g8yn1,e,福海路281弄,121.25069717682683,31.36715306899744
10g8yn2,e,阜康西路36号,121.16219406589231,31.298783355343453
10g8yn3,e,龚闵村,121.18029807621188,31.259037320548536
10g8yn4,e,共和街114弄,121.30731147350366,31.29416813222975
10g8yn5,e,古猗园路125弄,121.31585723121034,31.286197644221183
10g8yn6,e,古猗园路600弄,121.31298392411351,31.29681631940843
10g8yn7,e,古猗园南路155弄,121.32274910027337,31.282453897608796
10g8yn8,e,古猗园南路450弄,121.31940477852976,31.28587610727096
10g8yn9,e,海波路1000弄,121.33017521680803,31.269835101029315
10g8yna,e,海波路118弄,121.34565837198629,31.267578510637986
10g8ynb,e,海波路127弄,121.34521570170676,31.266897710529758
10g8ync,e,海波路850弄,121.33136042682368,31.269619469658466
10g8ynd,e,海川路58弄,121.34940365959118,31.26445584128941
10g8yne,e,浩翔路505弄,121.31275192319926,31.31478077458626
10g8ynf,e,浩翔路508弄,121.30886712206575,31.309592637617975
10g8yng,e,浩翔路98弄,121.31301810204216,31.314649077852707
10g8ynh,e,合作路199弄,121.26125970232819,31.32676855558297
10g8yl1,e,和静路1588弄,121.1510321624782,31.30228733674769
10g8yni,e,和静路288号,121.18108099135738,31.301254395318345
10g8ynj,e,和桥村,121.329565207617,31.41705613194693
10g8ynk,e,和政路228弄,121.2739771523491,31.38134648021414
10g8ynl,e,鹤槎路182弄,121.29811587979714,31.301464249037135
10g8ynm,e,鹤望路365弄,121.32669653220105,31.246356220532885
10g8ynn,e,鹤望路468号,121.32354345466567,31.24518047294413
10g8yno,e,鹤望路529号,121.32540656439286,31.2462468032054
10g8ynp,e,红石路333弄,121.22898246260806,31.377681145811383
10g8ynq,e,红石路699弄,121.22438811436923,31.38562338755907
10g8ynr,e,红翔村,121.30581497364375,31.28774411170434
10g8yns,e,红星村,121.31687787034335,31.429242546780394
10g8ynt,e,沪宜公路1048号,121.30458711009683,31.29381379802689
10g8ynu,e,沪宜公路1866弄,121.29269105888727,31.32260718487769
10g8ynv,e,沪宜公路2185号,121.283335262359,31.331953263355288
10g8ynw,e,沪宜公路2198号,121.28416412645983,31.331885910628262
10g8ynx,e,沪宜公路2219号,121.28271831230374,31.332792047036968
10g8yny,e,沪宜公路5060号,121.20757361000949,31.370939299236106
10g8yo0,e,华江路121弄,121.34275320738995,31.254613162903016
10g8yo1,e,华江路136弄,121.34132080451823,31.25510182321268
10g8ynz,e,华江路17号,121.34665801728751,31.25779372993261
10g8yo2,e,华江路21号,121.34616545127095,31.25780075884263
10g8yo3,e,华江路23号,121.3460411425824,31.25769843810306
10g8yo4,e,华江路370号,121.3349136140106,31.249961621554206
10g8yo5,e,华江路43号,121.34450823203773,31.256091366120625
10g8yo6,e,华江支路189号,121.33870184833587,31.259910137863024
10g8yo7,e,华江支路600弄,121.34079664793242,31.26436619009807
10g8yo8,e,华亭村,121.28466607797736,31.454665462260046
10g8yo9,e,华旺路888弄,121.28419884178236,31.473765009453473
10g8yoa,e,回城南路1128号,121.25736193220276,31.362322603609755
10g8yob,e,火车站路121弄,121.31151502370611,31.283844990318702
10g8yoc,e,火车站路185弄,121.3074377699639,31.285055204396073
10g8yod,e,火线村,121.27429391929134,31.27973413968414
10g8yoe,e,吉镇路445弄,121.37173923773052,31.245167711000466
10g8yof,e,嘉安公路3333弄,121.18728370474408,31.332322275960493
10g8yog,e,嘉安公路333号,121.23685288972047,31.37178769060523
10g8yoh,e,嘉程路900弄,121.2793557180388,31.29944752895889
10g8yoi,e,嘉罗公路2188号,121.2995281365408,31.404076787087792
10g8yqq,e,嘉松北路3598号,121.20773670172899,31.328618654465163
10g8yoj,e,嘉松北路7222弄,121.20793185390971,31.27244139842638
10g8yok,e,嘉唐公路2442号,121.23608843612446,31.457057663503488
10g8yol,e,嘉唐公路806号,121.22953894846759,31.41468128045062
10g8yom,e,嘉怡路233号,121.34734956850794,31.26455195081351
10g8yon,e,嘉怡路333弄,121.34733642877504,31.264991229254132
10g8yoo,e,嘉涌路88弄,121.33705272507882,31.26941635570593
10g8yop,e,嘉峪关路280弄,121.31858058520343,31.270681354771778
10g8yoq,e,嘉峪关路380弄,121.31693743675535,31.270970704921076
10g8yor,e,金鼎路2588弄,121.35962180261804,31.26101533679599
10g8yos,e,金吕村,121.29320903845972,31.454028442252557
10g8yot,e,金润路465弄,121.32806647788054,31.290771928389542
10g8you,e,金沙江路2725号,121.36338435183171,31.23977304617554
10g8yov,e,金沙江路2753弄,121.36140776277921,31.240538283307146
10g8yow,e,金沙路366弄,121.25841261547627,31.387771354170514
10g8yox,e,金通路1737弄,121.32317112671655,31.285127296132124
10g8yoy,e,金耀南路300弄,121.31288882395889,31.23693909342585
10g8yoz,e,金园一路1115弄,121.31942676199456,31.244662717854833
10g8yp0,e,泾河村,121.23375474720103,31.399958494356607
10g8yp1,e,静唐路68号,121.3460154718004,31.319786656425993
10g8yp2,e,康丰路28弄,121.27756732005112,31.31872022137342
10g8yp3,e,科盛路1755弄,121.3350143875665,31.322775283799906
10g8yp4,e,科盛路758号,121.3317114165291,31.332799686339627
10g8yp5,e,劳动村,121.32282031810453,31.44402456683329
10g8yp6,e,乐秀路299弄,121.31323441022958,31.269947486636013
10g8yp7,e,李家村,121.23430158808691,31.259850537628193
10g8yp8,e,李园一村,121.25473630303416,31.390875261136056
10g8yp9,e,联群村,121.24622535316797,31.276710297874402
10g8ypa,e,联三村,121.30206484890596,31.470787657272226
10g8ypb,e,联西村,121.25102578146542,31.271948346187532
10g8ypc,e,临潭路460弄,121.34040250941328,31.25719980554144
10g8ypd,e,临洮路1000弄,121.33477648459058,31.267426399532702
10g8ype,e,临洮路1001弄,121.33130447379477,31.26723686653549
10g8ypf,e,临夏路1000弄,121.32260885218248,31.260611069939596
10g8ypg,e,临夏路949号,121.3240290858509,31.258378456421013
10g8yph,e,临夏路977号,121.32267284465249,31.25885418984509
10g8ypi,e,临夏路978号,121.32350268005221,31.25880573153841
10g8ypj,e,临夏路981号,121.32297501556474,31.258952387206403
10g8ypk,e,临夏路984号,121.32344272755537,31.258981685877888
10g8ypl,e,临夏路986号,121.32313211742759,31.25905751486095
10g8ypm,e,临夏路98弄,121.33682678079604,31.2582937435997
10g8ypn,e,临夏路999弄,121.32231475270939,31.257826153315264
10g8ypo,e,浏翔村,121.32067764768982,31.322645103668766
10g8ypp,e,浏翔公路1132号,121.32539017522915,31.314339619814902
10g8ypq,e,浏翔公路1199号,121.32355115162996,31.315560299939403
10g8ypr,e,浏翔公路1500号,121.32339274114419,31.316608904799423
10g8yps,e,浏翔公路1502号,121.32374783226739,31.317364483725317
10g8ypt,e,浏翔公路699号,121.33023392297179,31.305276575730588
10g8ypu,e,柳湖路621弄,121.24523629808448,31.404193338776064
10g8ypv,e,六里中心路128号,121.21791595993929,31.34760880278596
10g8ypw,e,娄东村,121.23221832299203,31.43480582988525
10g8ypx,e,陆渡村,121.19770752531701,31.462198230275597
10g8ypy,e,陆家巷路225弄,121.25128369992201,31.303543971022467
10g8ypz,e,马陆村,121.27580812690451,31.328070534895364
10g8yq0,e,马陆街248弄,121.28259768040533,31.334977991658835
10g8yq1,e,马陆塘街30弄,121.28730629022951,31.336076457734432
10g8yq2,e,马门村,121.16902526965315,31.358029778200155
10g8yq3,e,美建路107号,121.31905193091079,31.34812432410239
10g8yq4,e,民乐路100弄,121.25557063573393,31.368552827731328
10g8yq5,e,民主东街111弄,121.3169804230187,31.294105897097403
10g8yq6,e,民主东街151弄,121.31602971020895,31.29344642663418
10g8yq7,e,民主东街62号,121.31704970935144,31.294601764890857
10g8yq8,e,民主街495弄,121.30319764597661,31.288402362748005
10g8yq9,e,墨玉路164弄,121.15964385446883,31.298185161174704
10g8yqa,e,墨玉路362弄,121.1601375044647,31.29977636782952
10g8yqb,e,墨玉路63弄,121.165991986753,31.29174798731586
10g8yqd,e,南安路188号工地,121.16380024528361,31.286492493988796
10g8yqe,e,南苑二村,121.2476600568514,31.3720043842166
10g8yqf,e,南苑一村,121.2498811775886,31.372931484527317
10g8yqc,e,泥岗村,121.20132429333991,31.262490936652792
10g8yqg,e,年丰村,121.27258411011132,31.258599003031133
10g8yqh,e,彭赵村,121.28424634334856,31.346981017364897
10g8yqi,e,栖林路12号,121.31821052385006,31.309576374907675
10g8yqj,e,栖林路425弄,121.31566664810258,31.30928782552259
10g8yqk,e,启宁路456弄,121.27944926890255,31.409408691805385
10g8yql,e,启源路900弄,121.28437191381458,31.41546187876419
10g8yqm,e,启悦路358弄,121.28066416239194,31.420067692712458
10g8yqn,e,前曹公路1158号,121.30393158796262,31.4545255212147
10g8yqo,e,前曹公路699号,121.30485055009699,31.445978647161827
10g8yqp,e,前曹路88号,121.30791672318853,31.43420776960558
10g8yqr,e,钱家村,121.25822646026757,31.27053833324699
10g8yqs,e,钱桥村,121.27658446233126,31.42686035663976
10g8yqt,e,秦安路27弄,121.15652492800224,31.290489571920887
10g8yqu,e,清河路205弄,121.24060849550445,31.38075101933514
10g8yqv,e,秋竹路618弄,121.22199048078163,31.380595020125362
10g8yqw,e,秋竹路655弄,121.2198625173471,31.37969022888049
10g8yqx,e,曲江路100弄,121.34565839228189,31.25489305145025
10g8yqy,e,曲江路15弄,121.34816724288005,31.256153877440305
10g8yqz,e,曲江路16弄,121.34681054451892,31.256123007618022
10g8yr0,e,曲江路99弄,121.3477356170882,31.25458893158881
10g8yr1,e,日永路88号,121.33914140960246,31.249294934065826
10g8yr2,e,荣轩路60弄,121.19744281766553,31.293291297015195
10g8yr3,e,瑞林路800弄,121.30638809251518,31.309745301629345
10g8yr4,e,三里村,121.1998650220385,31.453041218801538
10g8yr5,e,尚学路238号,121.30127795346057,31.350179749084056
10g8yr6,e,曙光村,121.32532692974267,31.29894327939707
10g8yr7,e,双单路889弄,121.26240120780555,31.33093142363106
10g8yr8,e,双单路德立路工地,121.27558716570687,31.34018450698119
10g8yr9,e,双浦村,121.1864677248724,31.290535216653762
10g8yra,e,顺达路98弄,121.34063364563481,31.323757495945895
10g8yrb,e,硕望路188弄,121.19714608771208,31.29690340554779
10g8yrc,e,塔城东路493弄,121.26367653846101,31.38713621925646
10g8yrd,e,塔庙村,121.16965942885692,31.305566301997406
10g8yre,e,泰顺路475号,121.2121297837329,31.309832900038515
10g8yrf,e,天祝路377号,121.26358921957745,31.347104432186544
10g8yrg,e,田旺路85号,121.29164094828249,31.29012536411534
10g8yrh,e,铜川路2288弄,121.3753014049368,31.255329705887497
10g8yri,e,铜川路2588弄,121.36858643435747,31.256417329839817
10g8yrj,e,铜川路2688弄,121.36583713132545,31.257126193828856
10g8yrk,e,外青松公路164弄,121.17355707904198,31.359523520219355
10g8yrl,e,万镇路1177弄,121.37819246373493,31.253334109517603
10g8yrm,e,旺泾村,121.18640627519179,31.41653358756706
10g8yrn,e,五四村,121.32683884766544,31.249557372748885
10g8yro,e,先农村,121.32499623889187,31.263686563518085
10g8yrp,e,翔方公路375弄,121.25792804897081,31.303678826274524
10g8yrq,e,翔方公路428弄,121.2568204801767,31.307221200331696
10g8yrr,e,翔方公路801弄,121.25021149548319,31.305986598164974
10g8yrs,e,翔封路30号,121.29517128543256,31.26905253641684
10g8yrt,e,翔江公路299弄,121.29756853227711,31.295526856825695
10g8yru,e,翔乐路178号,121.29698268813897,31.288297707391795
10g8yrv,e,小庙村,121.30039156086492,31.423196209703534
10g8yrw,e,新丰村,121.30194030063004,31.320695977130917
10g8yrx,e,新和路789号,121.18986774963011,31.433576374882737
10g8yry,e,新江村,121.27211790045264,31.264897155264894
10g8yrz,e,新郁路199弄,121.35694684315523,31.244048931407573
10g8ys0,e,新裕村,121.27248630871402,31.29715706100146
10g8ys1,e,新源路1227号,121.15081861144556,31.307442394967886
10g8ys2,e,新源路1317号,121.15061526554781,31.308817589126225
10g8ys3,e,新源路135弄,121.15859880892349,31.290909558597864
10g8ys4,e,星华公路1759号,121.29608928788159,31.271379874286374
10g8ys5,e,星火村,121.31716114000442,31.26366467175069
10g8ys6,e,星塔村,121.2377905291681,31.289196909227822
10g8ys7,e,星塔路1288号,121.23953178446304,31.291932135305192
10g8ys8,e,兴顺路555号,121.19118769137017,31.44406483441755
10g8ys9,e,徐潘路1399号,121.30135612012944,31.440955041339766
10g8ysa,e,徐行村,121.27440359832788,31.419483926154932
10g8ysb,e,徐行老街5号,121.27419324552126,31.419305581664034
10g8ysc,e,雅翔路288弄,121.31853474538927,31.315996839063583
10g8ysd,e,杨柳桥路1号,121.15518099826011,31.290338365007123
10g8yse,e,叶城路1128号,121.24436463399566,31.362633070700365
10g8ysf,e,叶城路866号,121.25117128027108,31.365751122443587
10g8ysg,e,伊宁路合作路工地,121.25457644262234,31.33891987838687
10g8ysh,e,银翔路888弄,121.31893593319556,31.289109968084823
10g8ysi,e,永乐村,121.29200507080648,31.29351975881455
10g8ysj,e,榆中路101号,121.32543147820577,31.255135758370148
10g8ysk,e,榆中路138号,121.32641043441456,31.256019896493314
10g8ysl,e,云谷路599弄,121.2536712109735,31.332307448887907
10g8ysm,e,云屏路388弄,121.2528928477505,31.329079210834383
10g8ysn,e,蕴北公路2221弄,121.32071018817774,31.322766314721083
10g8yso,e,蕴北公路2281弄,121.31724910928499,31.322281861254652
10g8ysp,e,蕴北路2111号,121.32454988140303,31.322471096349
10g8ysq,e,泽普路588弄,121.15598445819033,31.290826849613666
10g8ysr,e,增建村,121.29027604536273,31.24222279201158
10g8yss,e,张掖路355号,121.334775924799,31.258958273532947
10g8yst,e,长泾村,121.16350100993152,31.343862104409666
10g8ysu,e,招贤路767号,121.24183779647353,31.358272291268474
10g8ysv,e,赵厅村,121.23774293634075,31.424213141779585
10g8ysw,e,赵巷村,121.21996085414058,31.302153496444316
10g8ysx,e,真南路4233弄,121.3247939665827,31.294454555308377
10g8ysy,e,众仁路388弄,121.32658348285057,31.290496721330694
10g8ysz,e,众仁南路79弄,121.33113718491833,31.279422291196283
10g8yt0,g,板桥西路1709号,121.3157068815712,30.726543826723386
10g8yt1,g,东平北路1558弄,121.32723862534156,30.745748403421114
10g8yt2,g,枫阳路1811弄,120.99427026919506,30.898927488476012
10g8yt3,g,高楼村,121.33431300008117,30.850202410726972
10g8yt4,g,海芙路199弄,121.34461350729886,30.749763826634503
10g8yt5,g,红光村,121.36041600511228,30.847293118916166
10g8yt6,g,红旗新村,121.15750911236904,30.894895732234335
10g8yt7,g,后岗村,121.25596641356856,30.8464665109052
10g8yt8,g,林珍路59弄,121.3243527917903,30.89852273327294
10g8yt9,g,龙皓路1588弄,121.32639805341434,30.75246781361401
10g8yta,g,龙皓路1738弄,121.32377835666348,30.749957400133294
10g8ytb,g,龙胜路400号,121.3410401246173,30.725806534226766
10g8ytc,g,龙轩路789弄,121.34361670302275,30.75078427156968
10g8ytd,g,龙跃村,121.2523113833146,30.817308590366004
10g8yte,g,蒙山路1090弄,121.34707545192697,30.727415769233932
10g8ytf,g,南亭公路6158号,121.32635067114009,30.88276854154678
10g8ytg,g,清泉路79号,121.17837352107041,30.889155044840475
10g8yth,g,山德路29号,121.36615750488542,30.781210748386655
10g8yti,g,山龙街145号,121.33829845608386,30.729143193449296
10g8ytj,g,水库村,121.3966750786037,30.816161169937686
10g8ytk,g,亭卫南路399弄,121.3662028689678,30.732853741919193
10g8ytl,g,卫零北路800弄,121.33479120066487,30.75067869054211
10g8ytm,g,学府路1321号,121.31807093416843,30.74057785066675
10g8ytn,g,油车村,121.29258250683932,30.851882756809225
10g8yto,g,周栅村,121.26489006220454,30.872304962236495
10g8x1v,6,安远路363号,121.44263595068134,31.23919448908669
10g8x1w,6,安远路375号,121.4422769685168,31.239087994236478
10g8x1x,6,宝源路145号,121.47913254418957,31.25596920772917
10g8x1y,6,宝源路149号,121.47933653370421,31.256132883733343
10g8x1z,6,宝源路209弄,121.4795976089957,31.256975531708058
10g8x21,6,保德路1010弄,121.45144688156076,31.315751507213953
10g8x20,6,保德路1213弄,121.4427704400083,31.31319005956501
10g8x22,6,保德路1238弄,121.44527185873044,31.31719770927062
10g8x23,6,保德路1316弄,121.44258761373658,31.314876755111104
10g8x24,6,北宝兴路660弄,121.46063922989723,31.278189258511702
10g8x25,6,北京西路1434号,121.44385188356404,31.22740807381245
10g8x26,6,北京西路605弄,121.46308223640906,31.233000941413096
10g8x27,6,北京西路969号,121.45691214430373,31.23067063229721
10g8x28,6,昌平路556弄,121.44396753288746,31.235214684277256
10g8x29,6,昌平路645弄,121.444037322858,31.234724105236026
10g8x2a,6,常德路812弄,121.44254707970204,31.233816803334562
10g8x2c,6,场中路1011弄,121.46525578135271,31.3070035038015
10g8x2d,6,场中路1177弄,121.46439829602963,31.30746196379952
10g8x2e,6,场中路1500号,121.45541338808655,31.305397238127945
10g8x2f,6,场中路2041弄,121.45287240293243,31.306054396347456
10g8x2g,6,场中路2107弄,121.45165055436729,31.30600928072185
10g8x2h,6,场中路2600弄,121.44108050887263,31.307924241960006
10g8x2i,6,场中路2601弄,121.44067799206267,31.305299772481526
10g8x2j,6,大宁路883弄,121.44212751130735,31.271471982151425
10g8x2k,6,大统路938弄,121.45870619767229,31.25543008831979
10g8x2l,6,汾西路260弄,121.46315620803443,31.31472206986251
10g8x2m,6,汾西路261弄,121.46271292091993,31.313471500125427
10g8x2n,6,汾西路485弄,121.45656620301945,31.312112818105366
10g8x2o,6,汾西路611号,121.4546794799853,31.313312369231166
10g8x2p,6,汾西路87弄,121.46619811693309,31.3133216864506
10g8x2q,6,汾西路880弄,121.4491140619173,31.31382082555687
10g8x2r,6,汾西路88弄,121.46780144492416,31.31531862758177
10g8x2s,6,凤阳路588弄,121.46511150897356,31.233373304656563
10g8x2t,6,高平路209号,121.42889359460402,31.28158829526639
10g8x2u,6,高平路458弄,121.4301363087699,31.285394631454004
10g8x2v,6,高平路860弄,121.42995016919515,31.29181204065152
10g8x2w,6,共和新路555弄,121.4634024393121,31.252725984365906
10g8x2x,6,共和新路700号,121.46322959066391,31.255090280391414
10g8x2y,6,共和新路736弄,121.46269731179534,31.256418240663777
10g8x2z,6,广延路1199弄,121.4568094832529,31.291227114334134
10g8x30,6,广中西路818弄,121.43522664607063,31.273853416062614
10g8x31,6,广中西路883弄,121.43816964578066,31.276819231648442
10g8x32,6,广中西路99弄,121.45016578501662,31.280218634350145
10g8x33,6,海防路387弄,121.44635153595878,31.23784237227571
10g8x34,6,海防路538弄,121.44304350517329,31.237184839285515
10g8x35,6,沪太路1051弄,121.42876023096213,31.276575109751306
10g8x36,6,沪太路1063弄,121.42700975438488,31.277903351834293
10g8x37,6,沪太路1170弄,121.42636429988893,31.27669678903146
10g8x38,6,沪太路1188弄,121.42596783365585,31.277416779536733
10g8x39,6,沪太路1329弄,121.42380092937748,31.281930522518717
10g8x3a,6,沪太路883弄,121.43673170282851,31.270687881633624
10g8x3b,6,沪太路903弄,121.43632173790414,31.273642033172937
10g8x3c,6,沪太路909弄,121.4335099043241,31.27221675761385
10g8x3d,6,沪太路941弄,121.43119154372268,31.27431705326666
10g8x3e,6,江宁路936弄,121.44677230502226,31.241200757620256
10g8x3f,6,江杨南路466弄,121.46806347811741,31.316665836430847
10g8x3g,6,交城路229弄,121.42901884603484,31.293966875710044
10g8x3h,6,晋城路338弄,121.43377130066656,31.281347075763858
10g8x3i,6,晋城路663弄,121.42828275761181,31.281300950362063
10g8x3j,6,景凤路218弄,121.4627049562966,31.320773349470116
10g8x3k,6,景凤路280弄,121.4617726477218,31.32055342461464
10g8x3l,6,景凤路380弄,121.46063934214006,31.320240534229846
10g8x3m,6,景凤路403弄,121.45977055919134,31.319618977508846
10g8x3n,6,康定东路3弄,121.45768318465396,31.236826565632857
10g8x3o,6,康定路1018号,121.43709503471004,31.23070576864132
10g8x3p,6,康定路460弄,121.44767639953876,31.234095364045515
10g8x3q,6,老沪太路1291弄,121.44134234353196,31.269757665390557
10g8x3r,6,临汾路1244弄,121.44270141603819,31.311267439031166
10g8x3s,6,临汾路135弄,121.46502260271743,31.30847176923634
10g8x3t,6,临汾路1564弄,121.43681004658005,31.311717895553592
10g8x3u,6,临汾路380弄,121.45778668240159,31.31207040229003
10g8x3v,6,临汾路700号,121.4533584390615,31.310760774711238
10g8x3w,6,临汾路80弄,121.46582190380242,31.3120806537377
10g8x3x,6,临汾路99弄,121.46634526300674,31.31019793485882
10g8x3y,6,灵石路1123弄,121.42753270689983,31.274177151249006
10g8x3z,6,灵石路737弄,121.43835423677316,31.284996652616144
10g8x40,6,灵石路888弄,121.433796183433,31.278002433202076
10g8x41,6,灵石路999弄,121.42988311190682,31.27616166962786
10g8x42,6,岭南路100弄,121.45598039512251,31.30689622295279
10g8x43,6,岭南路50弄,121.45566469958608,31.306563743795355
10g8x44,6,柳营路1025弄,121.45044186722802,31.26173828325717
10g8x45,6,茂名北路112弄,121.46053239836012,31.225915639177224
10g8x46,6,南京西路1025弄,121.4591010070617,31.22711724852722
10g8x47,6,南京西路580号,121.4660722985711,31.231465130934225
10g8x48,6,南京西路803号,121.46122959312616,31.23054453172747
10g8x49,6,南山路10弄,121.46882336582262,31.258749319979497
10g8x4a,6,彭浦新村111号,121.45219524222964,31.310293189505913
10g8x4b,6,彭浦新村253号,121.4525555598685,31.3067738500918
10g8x4c,6,彭浦新村365号,121.45368648389304,31.309983381743958
10g8x4d,6,彭浦新村372号,121.4535958994077,31.310425141959744
10g8x4e,6,彭越浦路800弄,121.43619782923865,31.28598147038291
10g8x4f,6,彭越浦路908号,121.43585954489937,31.28766230968846
10g8x4g,6,平顺路182号,121.45252342392519,31.312132731771666
10g8x4h,6,平顺路373弄,121.45234300306038,31.314603516511216
10g8x4i,6,平顺路825弄,121.45378361438773,31.31838704783043
10g8x4j,6,普善路128弄,121.45577448821014,31.25593351682436
10g8x4k,6,普善路239弄,121.4563540691529,31.257835993604917
10g8x4l,6,普善路390弄,121.45389767703847,31.25998835104542
10g8x4m,6,普善路铁路新村18号,121.45490905660537,31.256098568648827
10g8x4n,6,虬江路1258弄,121.46926034760169,31.249778402046843
10g8x4o,6,曲沃路430弄,121.44595492026977,31.312719350390307
10g8x4p,6,三泉路717弄,121.43944983733633,31.31356699477369
10g8x4q,6,三泉路770弄,121.4417845341384,31.31487749999872
10g8x4r,6,三泉路821弄,121.43942216475206,31.315554531772428
10g8x4s,6,陕西北路525弄,121.45245994471466,31.23143417977566
10g8x4t,6,陕西北路535弄,121.45217754317109,31.23177074761413
10g8x4u,6,陕西北路607弄,121.45139189758717,31.2326214679009
10g8x4v,6,陕西北路663弄,121.45091476888537,31.233568850107517
10g8x4w,6,陕西北路798号,121.44938917102748,31.235116452188777
10g8x4x,6,陕西北路824弄,121.44919111162156,31.2357845130362
10g8x4y,6,升平街21-23号,121.46164763191561,31.22508351436916
10g8x4z,6,升平街41弄,121.46151841398643,31.22502498010399
10g8x50,6,升平街79弄,121.46203169774114,31.225557101328672
10g8x51,6,石门一路49弄,121.46291980988636,31.22470505839672
10g8x52,6,石门一路59号,121.46301312337674,31.22522537893355
10g8x53,6,石门一路88号,121.4631631191165,31.226319516702446
10g8x54,6,闻喜路1223弄,121.4422037385223,31.307875551700686
10g8x55,6,闻喜路806弄,121.44943402106705,31.309221532077572
10g8x56,6,闻喜路935弄,121.44747745168638,31.30681932476824
10g8x57,6,汶水路708号,121.42807808782898,31.28851296248719
10g8x58,6,武定路44弄,121.45811712410139,31.23702815622754
10g8x59,6,武定路801号,121.44686464586428,31.23174126440538
10g8x5a,6,西藏北路853弄,121.46760498475496,31.256962249149186
10g8x5b,6,西藏北路985弄,121.46580102570182,31.260196287780044
10g8x5c,6,西康路658弄,121.44519749791702,31.23632928842319
10g8x5d,6,西康路885号,121.4432620542449,31.238742764326748
10g8x5e,6,西康路908号,121.44309920684526,31.238920847019283
10g8x5f,6,襄阳北路44弄,121.45463839658612,31.219336797740837
10g8x5g,6,新丰路355号,121.44415939033703,31.23872124958427
10g8x5h,6,新丰路378号,121.44372213738721,31.238603892674735
10g8x5i,6,新丰路386号,121.44347966244318,31.238473974193063
10g8x5j,6,新丰路607号,121.44005259083636,31.23706851852864
10g8x5k,6,新闸路1250弄,121.45881230064745,31.23450182154707
10g8x5l,6,新闸路1990弄,121.44054400062006,31.22651105684457
10g8x5m,6,新闸路888弄,121.45729717558261,31.23586861540869
10g8x5n,6,延安中路632弄,121.46065385379916,31.224867797981744
10g8x5o,6,延安中路913弄,121.45356540981648,31.221258529847383
10g8x5p,6,阳城路101弄,121.42962723834516,31.28296593309485
10g8x5q,6,阳城路280弄,121.426007462273,31.284378949016915
10g8x5r,6,阳城路283弄,121.42628274844597,31.28406947915054
10g8x5s,6,阳曲路470弄,121.46104050264739,31.314233411448107
10g8x5t,6,阳曲路50弄,121.46135915836169,31.307214276659572
10g8x5u,6,阳曲路570弄,121.46133619715019,31.31633889610029
10g8x5v,6,宜川路1060号,121.44228510568307,31.273690397771624
10g8x5w,6,宜川路733弄,121.43942280016682,31.270099523782346
10g8x5x,6,宜川路778弄,121.43884240673343,31.270590994269998
10g8x5y,6,永和路459弄,121.44079900165082,31.2861534254226
10g8x5z,6,永兴路595弄,121.46658188366453,31.250934240503387
10g8x60,6,永兴小马路18号,121.46400996916253,31.250223552825894
10g8x61,6,原平路1029弄,121.42997591790605,31.297634048664186
10g8x62,6,原平路289弄,121.43119177013646,31.28346140283409
10g8x63,6,原平路917弄,121.42953019454225,31.294962936963405
10g8x64,6,运城路620弄,121.4343010492052,31.276496375336393
10g8x65,6,运城路625号,121.43397320058942,31.275085399137215
10g8x2b,6,长临路380弄,121.43704437125942,31.318171593104026
10g8x66,6,芷江西路230号,121.46203157344948,31.257638327382637
10g8x67,6,芷江西路239弄,121.46246778315852,31.25806094783728
10g8x68,6,芷江西路393弄,121.45803519581351,31.257512825031714
10g8x69,6,芷江西路678弄,121.45595910624883,31.25619173705076
10g8x6a,6,芷江中路521号,121.4686088937369,31.25842837302407
10g8x6b,6,中华新路495号,121.46463963200117,31.253684686382385
10g8x6c,6,中华新路893弄,121.45610241958983,31.254340462905667
10g8x6d,6,中山北路814弄,121.45837926850942,31.25936592477696
10g8x6e,6,中山北路828号,121.45721366797085,31.259326079537747
10g8x6f,6,中兴路1055号,121.46622039577935,31.252812689249875
10g8x6g,6,中兴路1233弄,121.46317521843179,31.252598597112968
10g8ycg,c,安乐村,121.41082256971181,31.029243519455374
10g8ych,c,安宁路400弄,121.41604030411042,31.014511008877644
10g8yci,c,报春路399弄,121.38749357989653,31.123835615783303
10g8ycm,c,北翟路1444弄,121.34091990723404,31.229646852524745
10g8ycn,c,北翟路2000弄70支弄,121.33479187785623,31.226278257087316
10g8ycj,c,北江燕路228弄,121.50254608297627,31.079423724779247
10g8yck,c,北沈路260弄,121.33566842819106,31.22896242954562
10g8ycl,c,北吴路501弄,121.4431435574494,31.052367860424773
10g8yco,c,碧江路401弄,121.4030708365391,31.01194592194089
10g8ycp,c,碧江路501弄,121.40002158822851,31.015170115409475
10g8ycq,c,碧秀路98弄,121.38450647891256,31.113407743050356
10g8ycr,c,沧源路755弄,121.42952797118771,31.015016705388287
10g8yct,c,曹家塘路220弄,121.44606393022163,31.041710802422006
10g8ycu,c,曹家塘路399弄,121.44292383365733,31.044277395972323
10g8ycv,c,曹建路201弄,121.43848086941411,31.091387937753893
10g8ycs,c,曹行村,121.44550351475911,31.095446848232573
10g8ycw,c,曹中村,121.43290241778945,31.08847300062989
10g8ycx,c,漕宝路1467弄,121.38347469780409,31.160518460326898
10g8ycy,c,漕宝路1508弄,121.38430617505465,31.155743395106608
10g8ycz,c,澄江路1290弄,121.44161709119979,31.0832847001931
10g8yd0,c,春都路358弄,121.41422255467133,31.08395424764249
10g8yd1,c,春都路75弄,121.42013983294129,31.082680928001537
10g8yd2,c,春都路88弄,121.41943482964038,31.08416419766319
10g8yd3,c,春申路1580弄,121.43187310985417,31.115465747267923
10g8yd4,c,春申路1581弄,121.4323720803641,31.113998628772272
10g8yd5,c,灯辉路1169弄,121.41772316496343,31.028394523439566
10g8yd6,c,丁连村,121.48090431333645,31.09473442262593
10g8yd7,c,东川路333弄,121.46793050279442,31.026551670822716
10g8yd8,c,东川路811弄,121.43355392042787,31.01720297069154
10g8yd9,c,东风村,121.54472304355336,31.102502768846353
10g8yda,c,东华美路220弄,121.33243427364692,31.222012187390114
10g8ydb,c,东兰路1111弄,121.38559157231654,31.15206639904016
10g8ydc,c,东兰路220号,121.40274811021455,31.15823642274673
10g8ydd,c,东兰路258号,121.40054376458762,31.157560097164325
10g8yde,c,东兰路288号,121.3993097428142,31.15735514475278
10g8ydf,c,东兰路751弄,121.39088693237424,31.154029158871605
10g8ydg,c,都会路3199弄,121.40924649100293,31.084526083466667
10g8ydh,c,都会路3199弄对面工地,121.40928322894496,31.084362031425925
10g8ydi,c,都会路3888弄,121.41132897604409,31.08909437345696
10g8ydj,c,都会路3899弄,121.40797103162767,31.089736784513054
10g8ydk,c,都市路388弄,121.42453631472895,31.03662260132689
10g8ydl,c,都市路399弄,121.42223472742383,31.035580741950135
10g8ydm,c,繁安路59弄,121.39282260642234,31.062826328770388
10g8ydn,c,凤庆路150弄,121.41491579556872,31.021520980535257
10g8ydo,c,富国路39弄,121.37900273361721,31.019701422287373
10g8ydp,c,富岩路335弄,121.3696626934377,31.032840090361603
10g8ydq,c,共和村,121.4647310647127,31.04969646412764
10g8ydr,c,古龙路1065弄,121.38512587937703,31.145270142908487
10g8yds,c,古龙路287弄,121.40139698250869,31.149951223695425
10g8ydt,c,古美路1455弄,121.39861423290284,31.157954493173538
10g8ydu,c,古美四村,121.40398041141997,31.14214455671358
10g8ydv,c,古美西路420弄,121.39468456643873,31.133594532948518
10g8ydw,c,古美西路631弄,121.39061313295147,31.130899872244502
10g8ydx,c,古美西路752弄,121.38586746037652,31.131661788376157
10g8ydy,c,古美西路753弄,121.38691441395139,31.130965828098365
10g8ydz,c,古美西路86弄,121.40055057696806,31.134496762462163
10g8ye0,c,顾戴路1325弄,121.38493503369793,31.136159120728138
10g8ye1,c,顾戴路251弄,121.40328799389331,31.144249939165416
10g8ye2,c,顾戴路388弄,121.40017210233138,31.145793430124638
10g8ye3,c,光明村,121.42477167544807,31.04615594986481
10g8ye4,c,广南路333弄,121.4669509534079,31.03742689515831
10g8ye6,c,航北路180弄,121.35630902835099,31.17537777758468
10g8ye7,c,航北路228弄,121.3539549787781,31.173401355227902
10g8ye8,c,航东路750弄,121.35341759939662,31.180657407510736
10g8yea,c,航华二村,121.349584424367,31.17148392402746
10g8yeb,c,航华四村,121.35903998935815,31.17177218889517
10g8ye9,c,航华一村,121.35717638810578,31.17741472896398
10g8yec,c,航中路99弄,121.35386449685448,31.167282336766263
10g8yed,c,鹤坡南路55弄,121.5293310955082,31.059216658223587
10g8yee,c,鹤庆路136弄,121.41907003497991,31.01187823337381
10g8yef,c,鹤庆路560弄,121.41090497251918,31.01012607113339
10g8yeg,c,鹤庆路900号,121.40476891991081,31.00690994704467
10g8yeh,c,鹤翔路180弄,121.40649427076241,31.047958901885814
10g8yei,c,恒星村,121.49087023236326,31.119189134295777
10g8yej,c,虹井路618弄,121.3708882344547,31.185118577048488
10g8yek,c,虹梅路3321弄,121.38359417670887,31.18731722216733
10g8yel,c,虹梅南路1526弄,121.43372089590174,31.118270132299397
10g8yem,c,虹梅南路1776弄,121.43063446120308,31.11122095813926
10g8yen,c,虹梅南路1781弄,121.42816843865869,31.10703808245595
10g8yeo,c,虹梅南路2555弄,121.4301338404253,31.09798681603482
10g8yep,c,虹梅南路5205弄,121.44987556729828,31.048858003754003
10g8yeq,c,虹莘路1935弄,121.38082360979176,31.13428060162938
10g8yer,c,虹莘路3333弄,121.37492328668506,31.161729833343063
10g8yes,c,虹中路460弄,121.38340229651381,31.184302188606825
10g8yet,c,沪光东路128号,121.42611944091463,31.081154698367413
10g8yeu,c,沪光路39弄,121.42135787715821,31.07918774891028
10g8yev,c,沪光路425弄,121.41079855660024,31.076594243536523
10g8yew,c,沪青平公路101弄,121.35282224025569,31.18090172715334
10g8yex,c,沪青平公路158弄,121.3520587218125,31.181720610864147
10g8yey,c,华宝路789弄,121.32856989830002,31.1625723501574
10g8yez,c,华美路100弄,121.33345756301223,31.221854206551207
10g8yf0,c,华宁路1399弄,121.3903389384575,31.023745882579238
10g8yf1,c,华宁路191弄,121.39786076882335,31.010643079596047
10g8yf2,c,黄桦路40号,121.36531314872184,31.177859804071293
10g8yf3,c,汇东村,121.5610863564292,31.017521981076975
10g8yf4,c,汇延路258弄,121.51646607678369,31.023648090439426
10g8yf5,c,纪东村,121.27626377639353,31.245273638819956
10g8yf6,c,建新村,121.51974663914476,31.038341091774853
10g8yf7,c,建中村,121.51485813579897,31.102153073132733
10g8yf8,c,剑川路100弄,121.47281102745627,31.044301614383063
10g8yf9,c,剑川路121弄,121.46995740007173,31.041750738793873
10g8yfa,c,剑川路150弄,121.46527268272345,31.043463942297883
10g8yfb,c,剑川路198弄,121.46229090361652,31.041844347807114
10g8yfc,c,剑川路201弄,121.46433763443183,31.03884491826588
10g8yfd,c,剑川路50弄,121.47606531548888,31.043855808980176
10g8yfe,c,剑川路99号,121.47299848243296,31.042818528209843
10g8yff,c,江川东路863弄,121.42562978602304,31.005133179501385
10g8yfg,c,江川路1565号,121.37284283272577,30.991919435835865
10g8yfh,c,江川路1777弄,121.37000911220298,30.992405543684345
10g8yfi,c,江川路248弄,121.4201509741846,31.007963851462765
10g8yfj,c,江汉路751弄,121.49228287586297,31.06296345609357
10g8yfk,c,江汉路99弄,121.50598440566606,31.066014130366074
10g8yfl,c,江玮路298弄,121.5358357002245,31.059334303483812
10g8yfm,c,金都路788号,121.43693006505218,31.09311018929936
10g8yfn,c,金都路978弄,121.43370854590971,31.092953697422516
10g8yfo,c,金平路555弄,121.41172800310068,31.018266729485685
10g8yfp,c,金平路558弄,121.40709125686935,31.01671005547159
10g8yfq,c,金平路777弄,121.40960959624235,31.021546412819887
10g8yfr,c,金平路788弄,121.40561826197404,31.020138094142467
10g8yfs,c,金阳路366弄,121.41834683785072,31.037890628204853
10g8yft,c,近浦村,121.47551856709315,31.09602635129969
10g8yfu,c,景福路189弄,121.40974930998374,31.12225063261574
10g8yfv,c,景谷中路58弄,121.41735474408001,31.022339338200332
10g8yfw,c,昆阳路560弄,121.37311806445192,30.998090676979004
10g8yfx,c,涞亭北路888号,121.32260580871926,31.159185733275425
10g8yfy,c,兰坪路190弄,121.41967319185376,31.003012077939545
10g8yfz,c,兰坪路352弄,121.41675373744012,31.008013363238074
10g8yg0,c,老沪闵路1345号,121.43553017059114,31.113949923619533
10g8yg1,c,老沪闵路1351弄,121.43360918327255,31.113272059573298
10g8yg2,c,老沪闵路1357号,121.43385616304667,31.11179022531423
10g8yg3,c,黎安路380弄,121.37420785580038,31.13159994610336
10g8yg4,c,黎明路155弄,121.37880391922243,31.12768413205724
10g8yg5,c,立民村,121.55495108042241,31.101253345963624
10g8yg6,c,莲花路1058弄,121.39884394641447,31.151649262150812
10g8yg7,c,莲花路288弄,121.40386755393479,31.138290411247926
10g8yg8,c,莲花路310弄,121.40241223946717,31.13780865118529
10g8yg9,c,莲花路528弄,121.40171347658014,31.14339043394377
10g8yga,c,莲花南路1535弄,121.41520914181663,31.096462874267967
10g8ygb,c,莲花南路2399号,121.43060367269793,31.06925463495154
10g8ygc,c,莲花南路988弄,121.40720323606413,31.110810762108525
10g8ygd,c,联合村,121.516844739369,31.048370003364496
10g8yge,c,联民村,121.49061052021207,31.042916707299746
10g8ygf,c,联青路51弄,121.3888997899932,31.042304375884484
10g8ygg,c,联星村,121.55047442321562,31.0935770333433
10g8ygi,c,龙柏二村,121.36236874673263,31.181843748099975
10g8ygl,c,龙柏六村,121.36617803368654,31.173396583265696
10g8ygm,c,龙柏七村,121.36270690586575,31.173842569479035
10g8ygj,c,龙柏四村,121.36310573758448,31.178663003804505
10g8ygk,c,龙柏五村,121.36816850386188,31.17587834208671
10g8ygh,c,龙柏一村,121.36803318954308,31.18327948508069
10g8ygn,c,龙茗路1676号,121.38324584366745,31.152474321872415
10g8ygo,c,龙茗路1699弄,121.38217209539626,31.150785356628806
10g8ygp,c,龙茗路1897弄,121.38041163293754,31.153723328618963
10g8ygq,c,龙吴路3188号,121.45809451984708,31.092622509386135
10g8ygr,c,龙吴路3355号,121.45530591591015,31.094285400954824
10g8ygs,c,龙吴路4365号,121.4595993658202,31.08274319924254
10g8ygt,c,龙吴路4787弄,121.45994315927841,31.06596653913117
10g8ygu,c,龙吴路5511弄,121.46630427650328,31.04435909627512
10g8ygv,c,龙吴路5530弄,121.46584073858249,31.04332082055601
10g8ygw,c,龙吴路5599弄,121.46778269778174,31.039787700297484
10g8ygx,c,龙州南路58弄,121.42999685630582,31.123824140493088
10g8ygy,c,芦胜村,121.48056956676956,31.108047113852162
10g8ygz,c,鲁康路1198弄,121.50303738913227,31.03059977398904
10g8yh0,c,罗锦路111弄,121.41613782989475,31.124482000987
10g8yh1,c,罗锦路218号,121.41528393873506,31.12201622472513
10g8yh2,c,罗锦路85号,121.4183490822551,31.123206979770085
10g8yh3,c,罗锦路888弄6支弄,121.39825585969427,31.12068933096297
10g8yh4,c,罗阳三村,121.40790084586092,31.12303739681005
10g8yh5,c,罗阳五村,121.40337813140634,31.12167757425808
10g8yh7,c,梅陇二村,121.41144037522756,31.131115353736032
10g8yh6,c,梅陇一村,121.41241260323059,31.136632280899644
10g8yh8,c,民建村,121.45508623375561,31.0957314371439
10g8yh9,c,闵驰一路29弄,121.54624859036973,31.040116646739882
10g8yhb,c,平吉二村,121.38472014841659,31.142612633764852
10g8yha,c,平吉一村,121.38322636858615,31.1431376720687
10g8yhd,c,平南三村,121.39061121605768,31.15210391776335
10g8yhc,c,平南一村,121.39618695125638,31.153931269326076
10g8yhe,c,平阳路1375弄,121.3870534937694,31.134239025987736
10g8yhf,c,平阳路59弄,121.4086934831368,31.14162031623214
10g8yhg,c,平阳一村,121.38265375218649,31.13572203959045
10g8yhh,c,浦驰路188弄,121.50353584174087,31.074104571861042
10g8yhi,c,浦驰路235弄,121.50239151013277,31.07529637189199
10g8yhj,c,浦航路36弄,121.5460125964063,31.044028853613234
10g8yhk,c,浦江村,121.47385677977086,31.10638443374493
10g8yhl,c,浦江路58弄,121.427328653499,31.000267571529907
10g8yhm,c,浦锦路2159弄,121.48400943998287,31.113541544119734
10g8yhn,c,浦连路150弄,121.54293912627554,31.057423129488836
10g8yho,c,浦涛路75弄,121.54338193104645,31.049094749243675
10g8yhp,c,浦秀路1139弄,121.48923899303051,31.0866734762647
10g8yhq,c,浦秀路183弄,121.49540178782979,31.072842705832844
10g8yhr,c,浦秀路220弄,121.4960256936685,31.07366549619605
10g8yhs,c,普杰路100弄,121.42277271558282,31.117463908167007
10g8yht,c,普乐路425弄,121.42346291804729,31.114918359198228
10g8yhu,c,七莘路1318号,121.36769847857137,31.128967197049658
10g8yhv,c,七莘路2288弄,121.36217891453096,31.143359048901363
10g8yhw,c,七莘路3885弄,121.33825312537617,31.170090986697787
10g8yhx,c,勤俭村,121.48717119198783,31.07683999166135
10g8yhy,c,勤劳村,121.53102600782438,31.09988280875134
10g8yhz,c,瑞丽路918弄,121.40346922920604,31.018867933907234
10g8yi0,c,山花路108弄,121.38329608068088,31.121486391067815
10g8yi1,c,上中西路810弄,121.41681924527269,31.13193177925006
10g8yi2,c,上中西路855弄,121.4155703169438,31.12931854525046
10g8yi3,c,尚义路229弄,121.45053112473245,31.04191588070867
10g8yi4,c,尚义路428弄,121.45179144854743,31.045417867015104
10g8yi5,c,申北路385弄,121.38043206001973,31.088103717515065
10g8yi6,c,申北路53弄,121.38666285541845,31.091699793481926
10g8yi7,c,申滨路1058弄,121.31039447667985,31.210366198736835
10g8yi8,c,莘建东路388弄,121.38271501826627,31.110250395661694
10g8yi9,c,莘南花苑二村,121.39816478590404,31.10940839256627
10g8yib,c,莘松六村,121.36839207743493,31.107220056900502
10g8yic,c,莘松路470号,121.36956982915513,31.104367861753467
10g8yid,c,莘松路958弄,121.35391089328346,31.10628734003743
10g8yia,c,莘松五村,121.36886433222595,31.107294462493172
10g8yie,c,莘西南路155弄,121.37885202942775,31.094563273466488
10g8yif,c,莘朱路1365号,121.41813036280247,31.119953698383647
10g8yig,c,莘朱路1688弄,121.41909028124189,31.121663764094464
10g8yih,c,胜利村,121.54800333110956,31.063123957836805
10g8yii,c,疏影路1111弄,121.35920444167053,31.116832836662148
10g8yij,c,疏影路758弄,121.36793924950088,31.120844629725237
10g8yik,c,曙建路185弄,121.41934547095534,31.090831387589866
10g8yil,c,曙建路78弄,121.41893960202411,31.09240411443242
10g8yim,c,双柏路1688弄,121.42291019958533,31.08635918693029
10g8yin,c,水清路1100弄,121.37595465083108,31.129320367456877
10g8yio,c,水清路999弄,121.37519566757643,31.126666547769645
10g8yip,c,苏民村,121.53256561290966,31.109077760789326
10g8yiq,c,塘口村,121.48049177382083,31.08838118856893
10g8yir,c,塘湾村,121.4426969393246,31.055084319404525
10g8yis,c,腾冲路180弄,121.39715454346691,31.100882393055045
10g8yit,c,通海路328弄,121.47438965807201,31.041927576864484
10g8yiu,c,同乐路151弄,121.41844108693797,31.124167869922076
10g8yiv,c,畹町路100弄,121.40537117033779,31.105240796240498
10g8yiw,c,卫星村,121.2714935484256,31.23309648664432
10g8yix,c,五一村,121.42922777802187,31.106339445368736
10g8yiy,c,西环路169弄,121.366639067912,31.10373866455215
10g8yiz,c,西环路171弄,121.36716730491955,31.103223012944177
10g8yj0,c,西环路777弄,121.36403403867776,31.113065119688017
10g8yj1,c,先新路1058弄,121.53249412877805,31.039861936627748
10g8yj2,c,新建村,121.44419352070129,31.064151906909935
10g8yj3,c,新闵路481弄,121.42813982785177,31.001939965539005
10g8yj4,c,新源路1422号,121.3972791483155,31.04986543895581
10g8yj5,c,新镇路603弄,121.3645588745734,31.1454982643056
10g8yj6,c,鑫都路2535弄,121.39738265564283,31.052247812620024
10g8yj7,c,鑫都路2688弄,121.39122214490907,31.056718397577384
10g8yj8,c,星火村,121.4718718383543,31.037207681195806
10g8ye5,c,行南村,121.4275451675482,31.115975834982482
10g8yj9,c,兴梅路727号,121.42347408570262,31.108779463090652
10g8yja,c,许泾村,121.43772611760697,31.080216146625816
10g8yjb,c,许浦村,121.33698288733514,31.22477332882367
10g8yjc,c,雅致路31弄,121.3846031808508,31.116476936672758
10g8yjd,c,杨家巷村,121.30193665578639,31.22383401376076
10g8yje,c,叶家桥东路260弄,121.40769393869213,31.159300670158792
10g8yjf,c,益文路101弄,121.4108673401161,31.136808934938696
10g8yjg,c,银春路1799弄,121.3936079471431,31.02466299890521
10g8yjh,c,银春路1800弄,121.3945506500526,31.027701326108435
10g8yji,c,银都路2688弄,121.40657498894208,31.09835570350085
10g8yjj,c,银都路3118弄,121.39480237349633,31.093386329935164
10g8yjk,c,银都路3151弄,121.39952739023015,31.091919184908463
10g8yjl,c,银都路666弄,121.43964926321384,31.10690732393158
10g8yjm,c,银康路76弄,121.38813670769267,31.024083114520202
10g8yjn,c,银林路1002弄,121.370592354769,31.017484236534514
10g8yjo,c,银林路100弄,121.3885296242292,31.020974866987743
10g8yjp,c,永丰村,121.50134873633844,31.01014397549289
10g8yjq,c,永高路255弄,121.4975817518226,31.03141154951773
10g8yjr,c,永杰路577弄,121.50727848304884,31.031103185541884
10g8yjs,c,永联村,121.44239669644293,31.105543360945042
10g8yjt,c,永平南路198弄,121.43376551852161,31.013065570461155
10g8yju,c,永颂路299弄,121.50008664431512,31.031501820526913
10g8yjv,c,永跃路782弄,121.51116159880912,31.034246729205332
10g8yjw,c,友好村,121.3915913819488,30.99508880628503
10g8yjx,c,友建村,121.50595209772281,31.11787313450353
10g8yjy,c,俞塘村,121.38157407284716,31.032999966140164
10g8yjz,c,元和路181弄,121.38322874259278,31.05115857877852
10g8yk0,c,元江路4805弄,121.3730696426118,31.03937814483835
10g8yk1,c,跃进村,121.50066204194601,31.047410773336935
10g8yk2,c,赵家村,121.26110286112855,31.24961511512991
10g8yk3,c,镇北村,121.54335164853917,31.085024675401606
10g8yk4,c,正义村,121.526929610904,31.008245570448334
10g8yk5,c,知新村,121.51807384973145,31.108588655258217
10g8yk6,c,中春路6689弄,121.34945075405368,31.13228208084053
10g8yk7,c,中华美路5弄,121.32935646613323,31.218021503109085
10g8yk8,c,中心村,121.40631371319931,31.035318943880352
10g8yk9,c,朱行路12号,121.42591008364543,31.12642167464107
10g8yka,c,颛盛路135弄,121.39830535227793,31.063580587602214
10g8ykb,c,颛兴路639弄,121.39192738940059,31.063434841144673
10g8ykc,c,颛兴路666弄,121.38882285494726,31.064909595514496
10g8ykd,c,颛兴路748弄,121.3862314993504,31.065045681186078
10g8yke,c,紫龙路500弄,121.4659114535734,31.03486565775805
10g8vap,f,八灶村顾家宅,121.71589071527178,31.153078766715154
10g8vaq,f,白莲泾路国展路交界口工地生活区,121.54852903414984,31.20487551833161
10g8var,f,白墙村,121.59595960273427,31.068999779906278
10g8vas,f,百龙新村,121.61673902634139,31.141372724811955
10g8vat,f,百曲村,121.53941055694413,31.11684479438842
10g8vau,f,板泉路1201弄,121.5051980110371,31.16259781660492
10g8vav,f,板泉路2000弄,121.53132294208922,31.16580668428544
10g8vaw,f,板泉路50号,121.49449771434512,31.158003891572037
10g8vax,f,北艾路1077弄,121.53615278591366,31.18115452989416
10g8vay,f,北艾路1200弄,121.53263896803381,31.183592171622784
10g8vaz,f,北艾路1660弄,121.52349386170935,31.181136959025498
10g8vb0,f,北艾路862弄,121.537083928435,31.184102872177082
10g8vb1,f,北艾路901弄,121.53655226580356,31.18307057800445
10g8vb2,f,北蔡村丁家宅,121.6098096348617,31.181166509148998
10g8vb3,f,北新村,121.53881619134006,31.353311159074874
10g8vb4,f,北张家浜路58号,121.5205543077507,31.215798213050558
10g8vb5,f,北中路328弄,121.55853465831959,31.183126485952805
10g8vb6,f,北中路383弄,121.55955253492436,31.184930112709996
10g8vb7,f,北庄村,121.65722865780286,31.094186964957363
10g8vb8,f,碧云路333弄,121.57725765190418,31.23808178308521
10g8vb9,f,博华路1018弄,121.55105088885561,31.170856420301156
10g8vba,f,博华路999弄,121.54987147278587,31.170223406797035
10g8vbb,f,博山东路136弄,121.56470940350361,31.249295034185394
10g8vbc,f,博山东路41弄,121.55898407176865,31.247853097936755
10g8vbd,f,博山东路440弄,121.56861357403004,31.252072811339847
10g8vbe,f,博山东路459弄,121.56801031632817,31.253518389221856
10g8vbf,f,博山东路555弄,121.57066418369966,31.256236489156695
10g8vbg,f,博山东路811弄,121.57584382126204,31.257312558066495
10g8vbh,f,博山路11弄,121.55839667076718,31.245119972225464
10g8vbi,f,博山路12弄,121.55685318482846,31.246038330500564
10g8vbj,f,博山路199弄,121.55360169936363,31.24315167953059
10g8vbk,f,博山路462弄,121.55453180791899,31.244111486425385
10g8vbl,f,博山路50弄,121.556106343953,31.24603094684547
10g8vbm,f,博山路51弄,121.55741974424383,31.244406847138738
10g8vbn,f,博山路78弄,121.55517762794018,31.245862632924464
10g8vbo,f,博兴路1676弄,121.60215454268537,31.27573400012795
10g8vbp,f,博兴路1768弄,121.60181081891982,31.277360940494514
10g8vbq,f,博兴路250弄,121.5788945867322,31.269105848265653
10g8vbr,f,博兴路341弄,121.58126802812944,31.267787699797417
10g8vbs,f,博兴路462弄,121.58192768130486,31.265527196696755
10g8vbt,f,博兴路465弄,121.58534650021764,31.26589815390683
10g8vbu,f,博兴路616弄,121.5851051234458,31.26308618472016
10g8vbv,f,博兴路760弄,121.58944552439502,31.261599286925236
10g8vbw,f,博兴路986弄,121.5934432999125,31.265572901499723
10g8vbx,f,彩云路717弄,121.80371645119747,30.89780204912355
