[{"SH_ID_36":"10fs6nc","区36":"d","地址":"白杨村","lng":121.39636053957506,"lat":31.342131507597163,"确诊日期36":"n"},{"SH_ID_36":"10fs6nb","区36":"d","地址":"宝钢九村","lng":121.47563909967867,"lat":31.40661285099859,"确诊日期36":"n"},{"SH_ID_36":"10fs6mj","区36":"d","地址":"宝林六村","lng":121.49863791567502,"lat":31.40276051362974,"确诊日期36":"n"},{"SH_ID_36":"10fs6na","区36":"d","地址":"宝林三村","lng":121.49354283607519,"lat":31.40186469832595,"确诊日期36":"n"},{"SH_ID_36":"10fs6n6","区36":"d","地址":"宝杨路3288弄","lng":121.43737049647774,"lat":31.371117334633585,"确诊日期36":"n"},{"SH_ID_36":"10fs6n7","区36":"d","地址":"北金村","lng":121.3578619564197,"lat":31.38501154697159,"确诊日期36":"n"},{"SH_ID_36":"10fs6n5","区36":"d","地址":"北宗村","lng":121.40315126879015,"lat":31.388026106566222,"确诊日期36":"n"},{"SH_ID_36":"10fs6n4","区36":"d","地址":"蔡家弄村","lng":121.36585038407695,"lat":31.372869330847553,"确诊日期36":"n"},{"SH_ID_36":"10fs6n3","区36":"d","地址":"陈川路555弄","lng":121.3327987801914,"lat":31.478060168287463,"确诊日期36":"n"},{"SH_ID_36":"10fs6n2","区36":"d","地址":"陈家行村","lng":121.35078293288134,"lat":31.32742434338726,"确诊日期36":"n"},{"SH_ID_36":"10fs6n0","区36":"d","地址":"陈巷村","lng":121.47383121389879,"lat":31.37646526293528,"确诊日期36":"n"},{"SH_ID_36":"10fs6mr","区36":"d","地址":"陈行村","lng":121.3443548090475,"lat":31.478426779977514,"确诊日期36":"n"},{"SH_ID_36":"10fs6n8","区36":"d","地址":"大华路1355弄","lng":121.41984641508228,"lat":31.28456060974282,"确诊日期36":"n"},{"SH_ID_36":"10fs6my","区36":"d","地址":"大华路455弄","lng":121.41568300053822,"lat":31.271084216333236,"确诊日期36":"n"},{"SH_ID_36":"10fs6mx","区36":"d","地址":"大康路896弄","lng":121.42329881602726,"lat":31.330748923197643,"确诊日期36":"n"},{"SH_ID_36":"10fs6mw","区36":"d","地址":"丹霞山路50弄","lng":121.3620954902838,"lat":31.359016287816633,"确诊日期36":"n"},{"SH_ID_36":"10fs6mv","区36":"d","地址":"徳都路218弄","lng":121.42460114177311,"lat":31.412457020529466,"确诊日期36":"n"},{"SH_ID_36":"10fs6mt","区36":"d","地址":"东太路241号","lng":121.36391817154104,"lat":31.385573441464654,"确诊日期36":"n"},{"SH_ID_36":"10fs6ms","区36":"d","地址":"东西巷街189号","lng":121.339566341647,"lat":31.41385648357087,"确诊日期36":"n"},{"SH_ID_36":"10fs6mq","区36":"d","地址":"富联路25弄","lng":121.41610993343421,"lat":31.35280948836795,"确诊日期36":"n"},{"SH_ID_36":"10fs6n1","区36":"d","地址":"共富二村","lng":121.43194454488055,"lat":31.350272842953824,"确诊日期36":"n"},{"SH_ID_36":"10fs6mz","区36":"d","地址":"共富路228弄","lng":121.42912414418787,"lat":31.34917601158271,"确诊日期36":"n"},{"SH_ID_36":"10fs6mp","区36":"d","地址":"共富路476弄","lng":121.42516292305544,"lat":31.345124783410686,"确诊日期36":"n"},{"SH_ID_36":"10fs6mm","区36":"d","地址":"共和八村","lng":121.45457710182947,"lat":31.323439679636166,"确诊日期36":"n"},{"SH_ID_36":"10fs6ml","区36":"d","地址":"共康东路161号","lng":121.4608002558181,"lat":31.323507143677283,"确诊日期36":"n"},{"SH_ID_36":"10fs6mk","区36":"d","地址":"顾北东路39弄","lng":121.4152323802827,"lat":31.362639208484755,"确诊日期36":"n"},{"SH_ID_36":"10fs6mo","区36":"d","地址":"海滨三村","lng":121.49278909701776,"lat":31.382649649843014,"确诊日期36":"n"},{"SH_ID_36":"10fs6mi","区36":"d","地址":"海滨新村23号","lng":121.49236889282466,"lat":31.37535100584979,"确诊日期36":"n"},{"SH_ID_36":"10fs6mh","区36":"d","地址":"合建村","lng":121.3362916196932,"lat":31.466622378401492,"确诊日期36":"n"},{"SH_ID_36":"10fs6mg","区36":"d","地址":"红林路576弄","lng":121.41856413777529,"lat":31.36430738447987,"确诊日期36":"n"},{"SH_ID_36":"10fs6mf","区36":"d","地址":"呼兰路515弄","lng":121.449924760959,"lat":31.34688771621313,"确诊日期36":"n"},{"SH_ID_36":"10fs6m7","区36":"d","地址":"呼兰路99号","lng":121.46081291833985,"lat":31.348544051073407,"确诊日期36":"n"},{"SH_ID_36":"10fs6me","区36":"d","地址":"呼玛一村","lng":121.45197610197015,"lat":31.341811417071796,"确诊日期36":"n"},{"SH_ID_36":"10fs6mc","区36":"d","地址":"虎林路800弄","lng":121.4536601195182,"lat":31.34376091193294,"确诊日期36":"n"},{"SH_ID_36":"10fs6mu","区36":"d","地址":"沪太路3633号","lng":121.40834838018552,"lat":31.326728947230844,"确诊日期36":"n"},{"SH_ID_36":"10fs6mn","区36":"d","地址":"沪太路6790号","lng":121.44183948387065,"lat":31.267990897207472,"确诊日期36":"n"},{"SH_ID_36":"10fs6mb","区36":"d","地址":"沪太路8188弄","lng":121.33026742144835,"lat":31.44098845775699,"确诊日期36":"n"},{"SH_ID_36":"10fs6ma","区36":"d","地址":"环镇北路323弄","lng":121.40980574031862,"lat":31.308452382921182,"确诊日期36":"n"},{"SH_ID_36":"10fs6m8","区36":"d","地址":"环镇北路600弄","lng":121.40250138187166,"lat":31.304967499690097,"确诊日期36":"n"},{"SH_ID_36":"10fs6m6","区36":"d","地址":"环镇北路700弄","lng":121.40274315394603,"lat":31.30692072357896,"确诊日期36":"n"},{"SH_ID_36":"10fs6m5","区36":"d","地址":"吉浦路615弄","lng":121.49316537602128,"lat":31.317118770764726,"确诊日期36":"n"},{"SH_ID_36":"10fs6m3","区36":"d","地址":"集贤路500弄","lng":121.34994848512267,"lat":31.420904214312934,"确诊日期36":"n"},{"SH_ID_36":"10fs6md","区36":"d","地址":"江杨南路1968号","lng":121.46432588930662,"lat":31.342594681568745,"确诊日期36":"n"},{"SH_ID_36":"10fs6m2","区36":"d","地址":"江杨南路2058号","lng":121.46163116493844,"lat":31.342492796971687,"确诊日期36":"n"},{"SH_ID_36":"10fs6m0","区36":"d","地址":"江杨南路2500弄","lng":121.45705135518128,"lat":31.350503233177285,"确诊日期36":"n"},{"SH_ID_36":"10fs6lj","区36":"d","地址":"江杨南路2546弄","lng":121.46013405210013,"lat":31.350348908885785,"确诊日期36":"n"},{"SH_ID_36":"10fs6lz","区36":"d","地址":"江杨南路2550弄","lng":121.46056718629502,"lat":31.350969405098176,"确诊日期36":"n"},{"SH_ID_36":"10fs6ly","区36":"d","地址":"锦秋路695弄","lng":121.39012145300272,"lat":31.321201440185398,"确诊日期36":"n"},{"SH_ID_36":"10fs6lx","区36":"d","地址":"锦秋路699弄","lng":121.39061674371801,"lat":31.325662968967407,"确诊日期36":"n"},{"SH_ID_36":"10fs6lw","区36":"d","地址":"菊联路262弄","lng":121.35265433557365,"lat":31.343527889920736,"确诊日期36":"n"},{"SH_ID_36":"10fs6lv","区36":"d","地址":"菊泉街1280弄","lng":121.37176542975071,"lat":31.360524804742955,"确诊日期36":"n"},{"SH_ID_36":"10fs6m9","区36":"d","地址":"菊泉街1346弄","lng":121.36985091549323,"lat":31.363235669942906,"确诊日期36":"n"},{"SH_ID_36":"10fs6lt","区36":"d","地址":"菊泉街2899弄","lng":121.36959026270907,"lat":31.366787506310228,"确诊日期36":"n"},{"SH_ID_36":"10fs6m1","区36":"d","地址":"菊泉街577弄","lng":121.37414175973818,"lat":31.357450533388448,"确诊日期36":"n"},{"SH_ID_36":"10fs6lg","区36":"d","地址":"菊盛路1158弄","lng":121.36715287654344,"lat":31.366181470310927,"确诊日期36":"n"},{"SH_ID_36":"10fs6m4","区36":"d","地址":"菊太路1198弄","lng":121.35855135542552,"lat":31.346214998789726,"确诊日期36":"n"},{"SH_ID_36":"10fs6ls","区36":"d","地址":"菊太路999弄","lng":121.3610062217442,"lat":31.351447688177437,"确诊日期36":"n"},{"SH_ID_36":"10fs6lu","区36":"d","地址":"聚丰园路427号","lng":121.37864287809717,"lat":31.314886315870364,"确诊日期36":"n"},{"SH_ID_36":"10fs6lq","区36":"d","地址":"聚丰园路669弄","lng":121.37361502290221,"lat":31.314199857754897,"确诊日期36":"n"},{"SH_ID_36":"10fs6lp","区36":"d","地址":"康桥水都","lng":121.43647128370331,"lat":31.361399500535782,"确诊日期36":"n"},{"SH_ID_36":"10fs6lo","区36":"d","地址":"老安村","lng":121.37319336013991,"lat":31.366009300615957,"确诊日期36":"n"},{"SH_ID_36":"10fs6ln","区36":"d","地址":"莲花山路517弄","lng":121.44534708946767,"lat":31.362055279492022,"确诊日期36":"n"},{"SH_ID_36":"10fs6lm","区36":"d","地址":"联杨路1309号","lng":121.3542229606708,"lat":31.350598687762258,"确诊日期36":"n"},{"SH_ID_36":"10fs6ll","区36":"d","地址":"联长路69号","lng":121.46510625093472,"lat":31.337437936911783,"确诊日期36":"n"},{"SH_ID_36":"10fs6lr","区36":"d","地址":"陆翔路1018弄","lng":121.36123513807829,"lat":31.3608299383911,"确诊日期36":"n"},{"SH_ID_36":"10fs6lk","区36":"d","地址":"陆翔路358弄","lng":121.36990916409965,"lat":31.35136185817394,"确诊日期36":"n"},{"SH_ID_36":"10fs6lh","区36":"d","地址":"陆翔路698弄","lng":121.36707986957748,"lat":31.354808553927136,"确诊日期36":"n"},{"SH_ID_36":"10fs6lf","区36":"d","地址":"罗东路51弄","lng":121.37835497796796,"lat":31.418543827496272,"确诊日期36":"n"},{"SH_ID_36":"10fs6le","区36":"d","地址":"罗东路801弄","lng":121.37313057537403,"lat":31.44275687873193,"确诊日期36":"n"},{"SH_ID_36":"10fs6ld","区36":"d","地址":"罗南二村","lng":121.36639555061188,"lat":31.38793926557908,"确诊日期36":"n"},{"SH_ID_36":"10fs6li","区36":"d","地址":"罗太路869弄","lng":121.339097125625,"lat":31.42726709365101,"确诊日期36":"n"},{"SH_ID_36":"10fs6lb","区36":"d","地址":"罗溪路1001弄","lng":121.3433649743994,"lat":31.42477056931259,"确诊日期36":"n"},{"SH_ID_36":"10fs6l8","区36":"d","地址":"罗迎路800弄","lng":121.35436470010808,"lat":31.409109830749856,"确诊日期36":"n"},{"SH_ID_36":"10fs6l7","区36":"d","地址":"梅林路666弄","lng":121.43624266026019,"lat":31.369145973140412,"确诊日期36":"n"},{"SH_ID_36":"10fs6l9","区36":"d","地址":"美安路218弄","lng":121.34915755542939,"lat":31.38919260620876,"确诊日期36":"n"},{"SH_ID_36":"10fs6ke","区36":"d","地址":"美平路288弄","lng":121.34790170185671,"lat":31.390823062114432,"确诊日期36":"n"},{"SH_ID_36":"10fs6l5","区36":"d","地址":"美平路696弄","lng":121.33884222407085,"lat":31.3886827096694,"确诊日期36":"n"},{"SH_ID_36":"10fs6l4","区36":"d","地址":"南陈路279弄","lng":121.39874664915548,"lat":31.308906272143677,"确诊日期36":"n"},{"SH_ID_36":"10fs6lc","区36":"d","地址":"南大路118弄","lng":121.40338471865812,"lat":31.299585263789346,"确诊日期36":"n"},{"SH_ID_36":"10fs6kk","区36":"d","地址":"南大路126弄","lng":121.40301544011426,"lat":31.29948245800554,"确诊日期36":"n"},{"SH_ID_36":"10fs6la","区36":"d","地址":"南大路138弄","lng":121.40248637368614,"lat":31.300399433332,"确诊日期36":"n"},{"SH_ID_36":"10fs6l2","区36":"d","地址":"南大路60号","lng":121.40299908338487,"lat":31.299819976883313,"确诊日期36":"n"},{"SH_ID_36":"10fs6ks","区36":"d","地址":"南大路64号","lng":121.4058353903423,"lat":31.299805138648896,"确诊日期36":"n"},{"SH_ID_36":"10fs6kz","区36":"d","地址":"南东路20弄","lng":121.36250586639265,"lat":31.3845199652251,"确诊日期36":"n"},{"SH_ID_36":"10fs6ky","区36":"d","地址":"南蕰藻路599号","lng":121.42162157725214,"lat":31.335454061644022,"确诊日期36":"n"},{"SH_ID_36":"10fs6kv","区36":"d","地址":"潘桥村","lng":121.32676519145436,"lat":31.45484673698827,"确诊日期36":"n"},{"SH_ID_36":"10fs6ku","区36":"d","地址":"潘桥路150弄","lng":121.32612954556272,"lat":31.45261710027827,"确诊日期36":"n"},{"SH_ID_36":"10fs6kt","区36":"d","地址":"祁连四村","lng":121.38246436258433,"lat":31.31684347589254,"确诊日期36":"n"},{"SH_ID_36":"10fs6kr","区36":"d","地址":"三门路485弄","lng":121.49439122549698,"lat":31.313994948192104,"确诊日期36":"n"},{"SH_ID_36":"10fs6kq","区36":"d","地址":"韶山路348弄","lng":121.36564424406549,"lat":31.362842478643824,"确诊日期36":"n"},{"SH_ID_36":"10fs6ko","区36":"d","地址":"沈家桥村","lng":121.38973949721182,"lat":31.45067047249065,"确诊日期36":"n"},{"SH_ID_36":"10fs6kn","区36":"d","地址":"水产路2900弄","lng":121.43570261246683,"lat":31.362098381696015,"确诊日期36":"n"},{"SH_ID_36":"10fs6l3","区36":"d","地址":"水产西路858弄","lng":121.41468766264948,"lat":31.354171987470455,"确诊日期36":"n"},{"SH_ID_36":"10fs6km","区36":"d","地址":"水产西路999弄","lng":121.40960694390579,"lat":31.354722808697495,"确诊日期36":"n"},{"SH_ID_36":"10fs6ki","区36":"d","地址":"四方村","lng":121.33943501020073,"lat":31.429264390371486,"确诊日期36":"n"},{"SH_ID_36":"10fs6kp","区36":"d","地址":"泗塘八村","lng":121.45722009173011,"lat":31.32972188281214,"确诊日期36":"n"},{"SH_ID_36":"10fs6l0","区36":"d","地址":"泗塘五村","lng":121.4616841191492,"lat":31.333153188552682,"确诊日期36":"n"},{"SH_ID_36":"10fs6kg","区36":"d","地址":"泗塘一村","lng":121.45189749728449,"lat":31.337788570167643,"确诊日期36":"n"},{"SH_ID_36":"10fs6kf","区36":"d","地址":"淞滨支路120弄","lng":121.48660750474122,"lat":31.369694450234984,"确诊日期36":"n"},{"SH_ID_36":"10fs6kh","区36":"d","地址":"淞南二村","lng":121.48703811898217,"lat":31.343164708956273,"确诊日期36":"n"},{"SH_ID_36":"10fs6kc","区36":"d","地址":"淞南六村","lng":121.48435496771475,"lat":31.34009282590921,"确诊日期36":"n"},{"SH_ID_36":"10fs6ka","区36":"d","地址":"淞南五村","lng":121.48510868388715,"lat":31.339084751951575,"确诊日期36":"n"},{"SH_ID_36":"10fs6k9","区36":"d","地址":"淞塘路98弄","lng":121.48905898041896,"lat":31.334636307651042,"确诊日期36":"n"},{"SH_ID_36":"10fs6k8","区36":"d","地址":"塔源路58弄","lng":121.40242389096404,"lat":31.44825975458456,"确诊日期36":"n"},{"SH_ID_36":"10fs6l6","区36":"d","地址":"泰和路1000号","lng":121.48031199297976,"lat":31.368659977031992,"确诊日期36":"n"},{"SH_ID_36":"10fs6l1","区36":"d","地址":"泰和路260弄","lng":121.4949804367253,"lat":31.373894480148817,"确诊日期36":"n"},{"SH_ID_36":"10fs6kj","区36":"d","地址":"泰和西路3499弄","lng":121.4024814246924,"lat":31.349934062106627,"确诊日期36":"n"},{"SH_ID_36":"10fs6k7","区36":"d","地址":"泰和西路3527弄","lng":121.39983448875553,"lat":31.34753072579566,"确诊日期36":"n"},{"SH_ID_36":"10fs6k6","区36":"d","地址":"谭杨村","lng":121.39455134158267,"lat":31.37489099345713,"确诊日期36":"n"},{"SH_ID_36":"10fs6kw","区36":"d","地址":"谭杨村","lng":121.39466415803419,"lat":31.374909204886258,"确诊日期36":"n"},{"SH_ID_36":"10fs6k5","区36":"d","地址":"塘西街397弄","lng":121.34277917790332,"lat":31.421909275262603,"确诊日期36":"n"},{"SH_ID_36":"10fs6k3","区36":"d","地址":"天家路99弄","lng":121.3406846582027,"lat":31.383304127550417,"确诊日期36":"n"},{"SH_ID_36":"10fs6kx","区36":"d","地址":"铁城路1555号","lng":121.45163965625248,"lat":31.356516537667723,"确诊日期36":"n"},{"SH_ID_36":"10fs6kl","区36":"d","地址":"铁峰路2001弄","lng":121.45664260135248,"lat":31.397293540121748,"确诊日期36":"n"},{"SH_ID_36":"10fs6k2","区36":"d","地址":"铁山路69号","lng":121.46964184586635,"lat":31.364002339942235,"确诊日期36":"n"},{"SH_ID_36":"10fs6k1","区36":"d","地址":"通河六村","lng":121.45155005217929,"lat":31.330854243927174,"确诊日期36":"n"},{"SH_ID_36":"10fs6kd","区36":"d","地址":"通南路369号","lng":121.4680523496942,"lat":31.335884933374537,"确诊日期36":"n"},{"SH_ID_36":"10fs6k0","区36":"d","地址":"通南路99号","lng":121.47511671585609,"lat":31.337943531163532,"确诊日期36":"n"},{"SH_ID_36":"10fs6jz","区36":"d","地址":"王家村","lng":121.38839073376435,"lat":31.38579431950013,"确诊日期36":"n"},{"SH_ID_36":"10fs6jy","区36":"d","地址":"蕰藻南路539号","lng":121.46206500784348,"lat":31.352982105046966,"确诊日期36":"n"},{"SH_ID_36":"10fs6jx","区36":"d","地址":"西浜村","lng":121.44142518585107,"lat":31.358423981886084,"确诊日期36":"n"},{"SH_ID_36":"10fs6jw","区36":"d","地址":"西界泾村","lng":121.4271382746562,"lat":31.277811450518236,"确诊日期36":"n"},{"SH_ID_36":"10fs6jv","区36":"d","地址":"祥和路3493弄","lng":121.403712453228,"lat":31.350489583060206,"确诊日期36":"n"},{"SH_ID_36":"10fs6ju","区36":"d","地址":"新二路1088弄","lng":121.47202027055695,"lat":31.331270110148406,"确诊日期36":"n"},{"SH_ID_36":"10fs6jt","区36":"d","地址":"新陆村","lng":121.32835493192972,"lat":31.495267848493583,"确诊日期36":"n"},{"SH_ID_36":"10fs6jr","区36":"d","地址":"星星村","lng":121.412134370333,"lat":31.373731094680625,"确诊日期36":"n"},{"SH_ID_36":"10fs6kb","区36":"d","地址":"杨泰路338弄","lng":121.44038053524996,"lat":31.372263307655544,"确诊日期36":"n"},{"SH_ID_36":"10fs6k4","区36":"d","地址":"杨泰路99弄","lng":121.45108508032762,"lat":31.366586401387426,"确诊日期36":"n"},{"SH_ID_36":"10fs6jq","区36":"d","地址":"杨泰一村","lng":121.44111921952252,"lat":31.3730223115301,"确诊日期36":"n"},{"SH_ID_36":"10fs6n9","区36":"d","地址":"杨泰苑","lng":121.43850057475976,"lat":31.37317528112904,"确诊日期36":"n"},{"SH_ID_36":"10fs6jp","区36":"d","地址":"逸仙路3808号","lng":121.50091851140542,"lat":31.352803042858582,"确诊日期36":"n"},{"SH_ID_36":"10fs6jo","区36":"d","地址":"殷高路23弄","lng":121.49062596363706,"lat":31.32120244390894,"确诊日期36":"n"},{"SH_ID_36":"10fs6jn","区36":"d","地址":"影园路345弄","lng":121.44196535887112,"lat":31.374272579603637,"确诊日期36":"n"},{"SH_ID_36":"10fs6jm","区36":"d","地址":"永顺路81弄","lng":121.34908152894839,"lat":31.412090902689126,"确诊日期36":"n"},{"SH_ID_36":"10fs6jl","区36":"d","地址":"远景村","lng":121.33769771576489,"lat":31.404056160814818,"确诊日期36":"n"},{"SH_ID_36":"10fs6jj","区36":"d","地址":"月川路33弄","lng":121.40613088115128,"lat":31.44610973470334,"确诊日期36":"n"},{"SH_ID_36":"10fs6ji","区36":"d","地址":"蕴川路1623弄","lng":121.4334454045926,"lat":31.368930292218256,"确诊日期36":"n"},{"SH_ID_36":"10fs6jh","区36":"d","地址":"张墅村","lng":121.32881125149963,"lat":31.387511697491536,"确诊日期36":"n"},{"SH_ID_36":"10fs6js","区36":"d","地址":"长江路848弄","lng":121.48589894814997,"lat":31.346906919840066,"确诊日期36":"n"},{"SH_ID_36":"10fs6jg","区36":"d","地址":"长江南路579号","lng":121.48131783252506,"lat":31.337131215639296,"确诊日期36":"n"},{"SH_ID_36":"10fs6jf","区36":"d","地址":"长江南路926号","lng":121.47930503821739,"lat":31.340947542091797,"确诊日期36":"n"},{"SH_ID_36":"10fs6jk","区36":"d","地址":"长江西路1000号","lng":121.46192640441669,"lat":31.33936334618821,"确诊日期36":"n"},{"SH_ID_36":"10fs6jd","区36":"d","地址":"长江西路1430号","lng":121.45346862573203,"lat":31.336089237383433,"确诊日期36":"n"},{"SH_ID_36":"10fs6jc","区36":"d","地址":"真大路358弄","lng":121.39876646235214,"lat":31.289326600187092,"确诊日期36":"n"},{"SH_ID_36":"10fs6jb","区36":"d","地址":"真华路1615弄","lng":121.41024118937239,"lat":31.286380912199135,"确诊日期36":"n"},{"SH_ID_36":"10fs6je","区36":"d","地址":"真金路1106号","lng":121.4066909622854,"lat":31.282728970636143,"确诊日期36":"n"},{"SH_ID_36":"10fs6ja","区36":"d","地址":"真金路1202号","lng":121.4066341191305,"lat":31.284815662062027,"确诊日期36":"n"},{"SH_ID_36":"10fs6j9","区36":"d","地址":"朱家弄村","lng":121.38772037255683,"lat":31.34061580626265,"确诊日期36":"n"},{"SH_ID_36":"10fs6j8","区36":"d","地址":"竹韵路58弄","lng":121.44510383332099,"lat":31.364138182352697,"确诊日期36":"n"},{"SH_ID_36":"10fs713","区36":"u","地址":"北兴村","lng":121.796263237035,"lat":31.562603455221012,"确诊日期36":"n"},{"SH_ID_36":"10fs711","区36":"u","地址":"创建村","lng":121.612702836888,"lat":31.42866918410399,"确诊日期36":"n"},{"SH_ID_36":"10fs71a","区36":"u","地址":"大东村","lng":121.61876734500653,"lat":31.605434852940455,"确诊日期36":"n"},{"SH_ID_36":"10fs70z","区36":"u","地址":"丰产村","lng":121.70423448197856,"lat":31.386222672239715,"确诊日期36":"n"},{"SH_ID_36":"10fs70w","区36":"u","地址":"丰福路599号","lng":121.70458935679034,"lat":31.383291042404295,"确诊日期36":"n"},{"SH_ID_36":"10fs70u","区36":"u","地址":"凤南路46号","lng":121.68861199557641,"lat":31.384220164057766,"确诊日期36":"n"},{"SH_ID_36":"10fs714","区36":"u","地址":"汲浜村","lng":121.77144099387148,"lat":31.531653301822136,"确诊日期36":"n"},{"SH_ID_36":"10fs715","区36":"u","地址":"建中村","lng":121.65348249356668,"lat":31.558456620572812,"确诊日期36":"n"},{"SH_ID_36":"10fs70s","区36":"u","地址":"江南大道","lng":121.73800354452514,"lat":31.368435168083703,"确诊日期36":"n"},{"SH_ID_36":"10fs70x","区36":"u","地址":"金淼路199号","lng":121.71128514208225,"lat":31.382302589898078,"确诊日期36":"n"},{"SH_ID_36":"10fs70y","区36":"u","地址":"金淼路759弄","lng":121.69985298878179,"lat":31.384583669338934,"确诊日期36":"n"},{"SH_ID_36":"10fs716","区36":"u","地址":"骏马村","lng":121.64318931221234,"lat":31.589155656246575,"确诊日期36":"n"},{"SH_ID_36":"10fs71b","区36":"u","地址":"庙镇大街1817号","lng":121.342298793742,"lat":31.716464300899556,"确诊日期36":"n"},{"SH_ID_36":"10fs719","区36":"u","地址":"南海村","lng":121.69081895863314,"lat":31.520054518486468,"确诊日期36":"n"},{"SH_ID_36":"10fs70v","区36":"u","地址":"潘圆公路1523号","lng":121.70502429824377,"lat":31.393657658478443,"确诊日期36":"n"},{"SH_ID_36":"10fs712","区36":"u","地址":"齐南村","lng":121.75194940644937,"lat":31.575509752896046,"确诊日期36":"n"},{"SH_ID_36":"10fs718","区36":"u","地址":"五滧村","lng":121.67622435759996,"lat":31.53530219954017,"确诊日期36":"n"},{"SH_ID_36":"10fs70r","区36":"u","地址":"先进村","lng":121.68905913701659,"lat":31.392204765492213,"确诊日期36":"n"},{"SH_ID_36":"10fs70t","区36":"u","地址":"先进村","lng":121.68905945319055,"lat":31.392249912975732,"确诊日期36":"n"},{"SH_ID_36":"10fs717","区36":"u","地址":"永和村","lng":121.63100777000415,"lat":31.539894664484134,"确诊日期36":"n"},{"SH_ID_36":"10fs710","区36":"u","地址":"长橘路159弄","lng":121.70240872931403,"lat":31.39337527901956,"确诊日期36":"n"},{"SH_ID_36":"10fs70m","区36":"k","地址":"八字桥路288弄","lng":121.46213553416052,"lat":30.93730398529204,"确诊日期36":"n"},{"SH_ID_36":"10fs6zm","区36":"k","地址":"北宋村","lng":121.68880828343039,"lat":30.984689764059276,"确诊日期36":"n"},{"SH_ID_36":"10fs6zp","区36":"k","地址":"北塘村","lng":121.57567567373204,"lat":30.92813188072198,"确诊日期36":"n"},{"SH_ID_36":"10fs6zh","区36":"k","地址":"博丰路155弄","lng":121.49610891448522,"lat":30.963456361854302,"确诊日期36":"n"},{"SH_ID_36":"10fs702","区36":"k","地址":"蔡家桥村","lng":121.64457653569427,"lat":30.984830574202427,"确诊日期36":"n"},{"SH_ID_36":"10fs70d","区36":"k","地址":"陈桥村","lng":121.61375677509999,"lat":30.923790029377074,"确诊日期36":"n"},{"SH_ID_36":"10fs70p","区36":"k","地址":"陈桥路2418号","lng":121.44519802693176,"lat":30.96409957460957,"确诊日期36":"n"},{"SH_ID_36":"10fs6zy","区36":"k","地址":"大叶公路3988号","lng":121.45496551359012,"lat":30.966171509152957,"确诊日期36":"n"},{"SH_ID_36":"10fs6zg","区36":"k","地址":"大叶公路6288弄","lng":121.55635956373284,"lat":30.97551766901024,"确诊日期36":"n"},{"SH_ID_36":"10fs6zi","区36":"k","地址":"大叶公路6719弄","lng":121.56608103588472,"lat":30.98300400464541,"确诊日期36":"n"},{"SH_ID_36":"10fs6za","区36":"k","地址":"灯塔村","lng":121.4248002465107,"lat":30.984956391551567,"确诊日期36":"n"},{"SH_ID_36":"10fs6zj","区36":"k","地址":"二桥村","lng":121.65376181413733,"lat":30.95867561049316,"确诊日期36":"n"},{"SH_ID_36":"10fs704","区36":"k","地址":"奉城农商路16弄","lng":121.68264693081201,"lat":30.925414551870613,"确诊日期36":"n"},{"SH_ID_36":"10fs6z8","区36":"k","地址":"奉浦大道95弄","lng":121.46437755021465,"lat":30.94196655675755,"确诊日期36":"n"},{"SH_ID_36":"10fs70h","区36":"k","地址":"福光路160弄","lng":121.52072451978256,"lat":30.921181743481863,"确诊日期36":"n"},{"SH_ID_36":"10fs6zn","区36":"k","地址":"港极路568号","lng":121.72131298992686,"lat":30.897709285312317,"确诊日期36":"n"},{"SH_ID_36":"10fs6zu","区36":"k","地址":"高桥村","lng":121.63168765150556,"lat":30.91514594782757,"确诊日期36":"n"},{"SH_ID_36":"10fs6zc","区36":"k","地址":"古华路288号","lng":121.46767321424353,"lat":30.907415347084058,"确诊日期36":"n"},{"SH_ID_36":"10fs6zo","区36":"k","地址":"光辉村","lng":121.58148431224689,"lat":30.992212966512373,"确诊日期36":"n"},{"SH_ID_36":"10fs70l","区36":"k","地址":"国顺路318弄","lng":121.46112287221048,"lat":30.933141018608108,"确诊日期36":"n"},{"SH_ID_36":"10fs70n","区36":"k","地址":"韩村路143弄","lng":121.46401781402552,"lat":30.94081840450334,"确诊日期36":"n"},{"SH_ID_36":"10fs6zz","区36":"k","地址":"韩村路173弄","lng":121.46234041706388,"lat":30.940199680731343,"确诊日期36":"n"},{"SH_ID_36":"10fs70o","区36":"k","地址":"航南公路2880号","lng":121.52390468220754,"lat":30.964708763903026,"确诊日期36":"n"},{"SH_ID_36":"10fs70b","区36":"k","地址":"沪杭公路66弄","lng":121.44272430200166,"lat":30.962051441697735,"确诊日期36":"n"},{"SH_ID_36":"10fs6ze","区36":"k","地址":"金碧路1980弄","lng":121.50829247547381,"lat":30.97135191218252,"确诊日期36":"n"},{"SH_ID_36":"10fs6z7","区36":"k","地址":"金海公路99弄","lng":121.51303394295924,"lat":30.84902952682562,"确诊日期36":"n"},{"SH_ID_36":"10fs6zw","区36":"k","地址":"金齐路348弄","lng":121.49263273899768,"lat":30.95439891498069,"确诊日期36":"n"},{"SH_ID_36":"10fs6zf","区36":"k","地址":"金星村","lng":121.52116964570996,"lat":30.992221495514368,"确诊日期36":"n"},{"SH_ID_36":"10fs70k","区36":"k","地址":"梁典村","lng":121.59815455640187,"lat":30.963804112055854,"确诊日期36":"n"},{"SH_ID_36":"10fs6z6","区36":"k","地址":"陆家桥村","lng":121.62529330766762,"lat":30.956634795221596,"确诊日期36":"n"},{"SH_ID_36":"10fs70i","区36":"k","地址":"梅园村","lng":121.59694896501132,"lat":30.990596982920238,"确诊日期36":"n"},{"SH_ID_36":"10fs700","区36":"k","地址":"民乐路28弄","lng":121.56497018446277,"lat":30.861845091929304,"确诊日期36":"n"},{"SH_ID_36":"10fs6zr","区36":"k","地址":"明星村","lng":121.5531854084589,"lat":30.98167411512414,"确诊日期36":"n"},{"SH_ID_36":"10fs70c","区36":"k","地址":"南行村","lng":121.51032134932599,"lat":30.973797184167523,"确诊日期36":"n"},{"SH_ID_36":"10fs70q","区36":"k","地址":"农民街505弄","lng":121.51660541914403,"lat":30.95313621770664,"确诊日期36":"n"},{"SH_ID_36":"10fs6zv","区36":"k","地址":"青村东街76弄","lng":121.58804250003807,"lat":30.92285318981443,"确诊日期36":"n"},{"SH_ID_36":"10fs703","区36":"k","地址":"青村人民路445弄","lng":121.58388129644158,"lat":30.92952535391112,"确诊日期36":"n"},{"SH_ID_36":"10fs70f","区36":"k","地址":"青伟路111号","lng":121.60444583362437,"lat":30.933177672554798,"确诊日期36":"n"},{"SH_ID_36":"10fs701","区36":"k","地址":"水闸路14弄","lng":121.68130972420778,"lat":30.922784911890904,"确诊日期36":"n"},{"SH_ID_36":"10fs6zd","区36":"k","地址":"泰叶路159弄","lng":121.56124919853518,"lat":30.977747651929526,"确诊日期36":"n"},{"SH_ID_36":"10fs707","区36":"k","地址":"塘外文化小区","lng":121.61970825164369,"lat":30.900439948528735,"确诊日期36":"n"},{"SH_ID_36":"10fs70e","区36":"k","地址":"头桥西街44弄","lng":121.63253413189553,"lat":30.947599206957268,"确诊日期36":"n"},{"SH_ID_36":"10fs70g","区36":"k","地址":"湾张村","lng":121.52999121429164,"lat":30.92044338462546,"确诊日期36":"n"},{"SH_ID_36":"10fs6zl","区36":"k","地址":"西吴村","lng":121.58076056071046,"lat":30.945430663239705,"确诊日期36":"n"},{"SH_ID_36":"10fs6zq","区36":"k","地址":"新奉公路3663号","lng":121.64487296640682,"lat":30.963763244982427,"确诊日期36":"n"},{"SH_ID_36":"10fs6zt","区36":"k","地址":"邮电路118号","lng":121.64058271446656,"lat":30.909828760538236,"确诊日期36":"n"},{"SH_ID_36":"10fs6zs","区36":"k","地址":"邮电路188号","lng":121.64142875141302,"lat":30.907629652739182,"确诊日期36":"n"},{"SH_ID_36":"10fs6zb","区36":"k","地址":"油车弄74号","lng":121.396918514603,"lat":30.907410113281628,"确诊日期36":"n"},{"SH_ID_36":"10fs705","区36":"k","地址":"渔沥村","lng":121.39573823301183,"lat":30.967100534493657,"确诊日期36":"n"},{"SH_ID_36":"10fs706","区36":"k","地址":"闸园路138号","lng":121.43281106289956,"lat":30.99283250641604,"确诊日期36":"n"},{"SH_ID_36":"10fs709","区36":"k","地址":"张云村","lng":121.39931217440974,"lat":30.943127153208007,"确诊日期36":"n"},{"SH_ID_36":"10fs70a","区36":"k","地址":"长堤村","lng":121.42589956968945,"lat":30.897491873356568,"确诊日期36":"n"},{"SH_ID_36":"10fs70j","区36":"k","地址":"周家村","lng":121.59874991898192,"lat":30.98749334426733,"确诊日期36":"n"},{"SH_ID_36":"10fs6zx","区36":"k","地址":"朱店村","lng":121.55425340275274,"lat":30.91946889147428,"确诊日期36":"n"},{"SH_ID_36":"10fs708","区36":"k","地址":"朱家港村","lng":121.39640054697139,"lat":30.90317215210046,"确诊日期36":"n"},{"SH_ID_36":"10fs6zk","区36":"k","地址":"庄良路218弄","lng":121.39748721403005,"lat":30.880734766559698,"确诊日期36":"n"},{"SH_ID_36":"10fs6z9","区36":"k","地址":"资福村","lng":121.60332366107258,"lat":30.966509586356043,"确诊日期36":"n"},{"SH_ID_36":"10fs6fk","区36":"9","地址":"北苏州路400号","lng":121.48333102043482,"lat":31.243198373589358,"确诊日期36":"n"},{"SH_ID_36":"10fs6fw","区36":"9","地址":"场中路755弄","lng":121.47062827717185,"lat":31.306570338925784,"确诊日期36":"n"},{"SH_ID_36":"10fs6fx","区36":"9","地址":"车站北路507弄","lng":121.47336370961186,"lat":31.296479345478627,"确诊日期36":"n"},{"SH_ID_36":"10fs6fy","区36":"9","地址":"车站西路80弄","lng":121.48345912475502,"lat":31.29588266818469,"确诊日期36":"n"},{"SH_ID_36":"10fs6ge","区36":"9","地址":"池沟路348弄","lng":121.47964884858743,"lat":31.304179212910764,"确诊日期36":"n"},{"SH_ID_36":"10fs6fj","区36":"9","地址":"赤峰路525号","lng":121.48434992946162,"lat":31.28221870032063,"确诊日期36":"n"},{"SH_ID_36":"10fs6fz","区36":"9","地址":"大连西路420弄","lng":121.49177954028724,"lat":31.27651407139574,"确诊日期36":"n"},{"SH_ID_36":"10fs6g0","区36":"9","地址":"东余杭路980号","lng":121.5049318902158,"lat":31.25769027535338,"确诊日期36":"n"},{"SH_ID_36":"10fs6g1","区36":"9","地址":"多伦路201弄","lng":121.48115172164269,"lat":31.26371449374368,"确诊日期36":"n"},{"SH_ID_36":"10fs6g2","区36":"9","地址":"飞虹支路83弄","lng":121.50307436676991,"lat":31.26249959549355,"确诊日期36":"n"},{"SH_ID_36":"10fs6fo","区36":"9","地址":"公平路369号","lng":121.50461833832375,"lat":31.25464994947177,"确诊日期36":"n"},{"SH_ID_36":"10fs6g3","区36":"9","地址":"广灵二村","lng":121.47859156413386,"lat":31.28571359307196,"确诊日期36":"n"},{"SH_ID_36":"10fs6fl","区36":"9","地址":"广灵二路160号","lng":121.47713777790034,"lat":31.2829022921602,"确诊日期36":"n"},{"SH_ID_36":"10fs6fr","区36":"9","地址":"广灵二路220号","lng":121.47566270107836,"lat":31.28497134634131,"确诊日期36":"n"},{"SH_ID_36":"10fs6g4","区36":"9","地址":"广灵四路866弄","lng":121.4627440203314,"lat":31.28567224644016,"确诊日期36":"n"},{"SH_ID_36":"10fs6g7","区36":"9","地址":"广灵一路263号","lng":121.47969032253434,"lat":31.285308469832568,"确诊日期36":"n"},{"SH_ID_36":"10fs6fs","区36":"9","地址":"广灵一路265号","lng":121.47963908817201,"lat":31.2859978860847,"确诊日期36":"n"},{"SH_ID_36":"10fs6fq","区36":"9","地址":"广粤路219号","lng":121.46552448575402,"lat":31.285012665204253,"确诊日期36":"n"},{"SH_ID_36":"10fs6h2","区36":"9","地址":"广中路465号","lng":121.4701455262759,"lat":31.278719382029678,"确诊日期36":"n"},{"SH_ID_36":"10fs6g6","区36":"9","地址":"广中路564号","lng":121.46763813445257,"lat":31.27971549406324,"确诊日期36":"n"},{"SH_ID_36":"10fs6g8","区36":"9","地址":"海伦路236号","lng":121.49308872588163,"lat":31.25747289362231,"确诊日期36":"n"},{"SH_ID_36":"10fs6g9","区36":"9","地址":"海平路18号","lng":121.5063007223701,"lat":31.25024104496327,"确诊日期36":"n"},{"SH_ID_36":"10fs6ga","区36":"9","地址":"邯郸路47弄","lng":121.49411648914145,"lat":31.293390113028778,"确诊日期36":"n"},{"SH_ID_36":"10fs6ft","区36":"9","地址":"横浜路206弄","lng":121.4778360725646,"lat":31.264540376328462,"确诊日期36":"n"},{"SH_ID_36":"10fs6gb","区36":"9","地址":"虹湾路288弄","lng":121.47044950385221,"lat":31.314228378353942,"确诊日期36":"n"},{"SH_ID_36":"10fs6gc","区36":"9","地址":"虹湾路313弄","lng":121.47074665261829,"lat":31.312223016900194,"确诊日期36":"n"},{"SH_ID_36":"10fs6gf","区36":"9","地址":"凉城路126弄","lng":121.46977830133669,"lat":31.28144239228303,"确诊日期36":"n"},{"SH_ID_36":"10fs6gg","区36":"9","地址":"凉城路203号","lng":121.46966158177815,"lat":31.282931165769263,"确诊日期36":"n"},{"SH_ID_36":"10fs6gh","区36":"9","地址":"凉城四村","lng":121.47209347269194,"lat":31.292987286772366,"确诊日期36":"n"},{"SH_ID_36":"10fs6gi","区36":"9","地址":"临平路333号","lng":121.49603683656947,"lat":31.263154105629816,"确诊日期36":"n"},{"SH_ID_36":"10fs6gp","区36":"9","地址":"罗浮路89弄","lng":121.48132934261047,"lat":31.25249506204263,"确诊日期36":"n"},{"SH_ID_36":"10fs6gk","区36":"9","地址":"欧阳路354弄","lng":121.48758474496577,"lat":31.270480367542703,"确诊日期36":"n"},{"SH_ID_36":"10fs6h3","区36":"9","地址":"虬江支路180弄","lng":121.48331817953503,"lat":31.25354670265417,"确诊日期36":"n"},{"SH_ID_36":"10fs6gl","区36":"9","地址":"曲阳路269弄","lng":121.49172046040825,"lat":31.27200714303892,"确诊日期36":"n"},{"SH_ID_36":"10fs6gm","区36":"9","地址":"曲阳路920弄","lng":121.49273585686214,"lat":31.290380919754426,"确诊日期36":"n"},{"SH_ID_36":"10fs6gn","区36":"9","地址":"山阴路85弄","lng":121.48650327835738,"lat":31.265553255938663,"确诊日期36":"n"},{"SH_ID_36":"10fs6fm","区36":"9","地址":"石油新村","lng":121.48021766960113,"lat":31.282222918508555,"确诊日期36":"n"},{"SH_ID_36":"10fs6fp","区36":"9","地址":"水电路120号","lng":121.47235495080379,"lat":31.273626624094735,"确诊日期36":"n"},{"SH_ID_36":"10fs6go","区36":"9","地址":"四川北路2023弄","lng":121.48316181875214,"lat":31.263792808077195,"确诊日期36":"n"},{"SH_ID_36":"10fs6gj","区36":"9","地址":"四平路327弄","lng":121.49093267429721,"lat":31.26626551289071,"确诊日期36":"n"},{"SH_ID_36":"10fs6gq","区36":"9","地址":"天宝西路231弄","lng":121.49600850274533,"lat":31.27442097084987,"确诊日期36":"n"},{"SH_ID_36":"10fs6gr","区36":"9","地址":"天通庵路570号","lng":121.47592975136006,"lat":31.262910743575986,"确诊日期36":"n"},{"SH_ID_36":"10fs6gs","区36":"9","地址":"甜爱路26号","lng":121.48476132982432,"lat":31.269970468342446,"确诊日期36":"n"},{"SH_ID_36":"10fs6gd","区36":"9","地址":"通州路392弄","lng":121.49472244008714,"lat":31.25865702596625,"确诊日期36":"n"},{"SH_ID_36":"10fs6fu","区36":"9","地址":"同心路125弄","lng":121.47761692244735,"lat":31.267506619339922,"确诊日期36":"n"},{"SH_ID_36":"10fs6fv","区36":"9","地址":"同心路133弄","lng":121.47776581567224,"lat":31.267976203219813,"确诊日期36":"n"},{"SH_ID_36":"10fs6gt","区36":"9","地址":"万安路969号","lng":121.47331270411485,"lat":31.301223589826584,"确诊日期36":"n"},{"SH_ID_36":"10fs6gu","区36":"9","地址":"万安路979弄","lng":121.47270109144131,"lat":31.30124635522857,"确诊日期36":"n"},{"SH_ID_36":"10fs6gv","区36":"9","地址":"汶水东路298弄","lng":121.48142013884531,"lat":31.289929587770096,"确诊日期36":"n"},{"SH_ID_36":"10fs6fi","区36":"9","地址":"吴淞路355弄","lng":121.48869713763995,"lat":31.25002847517354,"确诊日期36":"n"},{"SH_ID_36":"10fs6gw","区36":"9","地址":"吴淞路355弄","lng":121.48863127747939,"lat":31.250086733993893,"确诊日期36":"n"},{"SH_ID_36":"10fs6gx","区36":"9","地址":"物华路98弄","lng":121.49550194777346,"lat":31.260361632949866,"确诊日期36":"n"},{"SH_ID_36":"10fs6g5","区36":"9","地址":"西宝兴路949弄","lng":121.4697910331087,"lat":31.269935496128927,"确诊日期36":"n"},{"SH_ID_36":"10fs6gy","区36":"9","地址":"祥德路180弄","lng":121.48718904478787,"lat":31.272108729186098,"确诊日期36":"n"},{"SH_ID_36":"10fs6gz","区36":"9","地址":"运光路70弄","lng":121.49515550363479,"lat":31.291503329080346,"确诊日期36":"n"},{"SH_ID_36":"10fs6h0","区36":"9","地址":"运光路71弄","lng":121.49516476745045,"lat":31.290077634530682,"确诊日期36":"n"},{"SH_ID_36":"10fs6fn","区36":"9","地址":"长春路158号","lng":121.4865315252974,"lat":31.261393924531156,"确诊日期36":"n"},{"SH_ID_36":"10fs6h1","区36":"9","地址":"长春路348号","lng":121.4841761573908,"lat":31.2631284178691,"确诊日期36":"n"},{"SH_ID_36":"10fs621","区36":"1","地址":"白渡路188弄","lng":121.50184640129805,"lat":31.21987232038817,"确诊日期36":"n"},{"SH_ID_36":"10fs62h","区36":"1","地址":"半淞园路178号","lng":121.4976503126564,"lat":31.20507326035379,"确诊日期36":"n"},{"SH_ID_36":"10fs617","区36":"1","地址":"半淞园路585弄","lng":121.49429665015197,"lat":31.20008710516577,"确诊日期36":"n"},{"SH_ID_36":"10fs61l","区36":"1","地址":"保屯路211弄","lng":121.49132811118555,"lat":31.204037673783404,"确诊日期36":"n"},{"SH_ID_36":"10fs630","区36":"1","地址":"北京东路360弄","lng":121.48308174295413,"lat":31.24027402697819,"确诊日期36":"n"},{"SH_ID_36":"10fs633","区36":"1","地址":"曹市弄33弄","lng":121.48923561371069,"lat":31.21902938854892,"确诊日期36":"n"},{"SH_ID_36":"10fs62z","区36":"1","地址":"曹市弄62号","lng":121.48955139362037,"lat":31.218756857315984,"确诊日期36":"n"},{"SH_ID_36":"10fs62t","区36":"1","地址":"打浦路210弄","lng":121.47072689632834,"lat":31.20104754089303,"确诊日期36":"n"},{"SH_ID_36":"10fs60v","区36":"1","地址":"打浦路316弄","lng":121.47119380520422,"lat":31.199844352108737,"确诊日期36":"n"},{"SH_ID_36":"10fs612","区36":"1","地址":"打浦路339弄","lng":121.4722564030965,"lat":31.199484036890585,"确诊日期36":"n"},{"SH_ID_36":"10fs614","区36":"1","地址":"打浦路399号","lng":121.47204880973383,"lat":31.198906437356804,"确诊日期36":"n"},{"SH_ID_36":"10fs62a","区36":"1","地址":"大夫坊74弄","lng":121.48040240751672,"lat":31.22550129247315,"确诊日期36":"n"},{"SH_ID_36":"10fs62x","区36":"1","地址":"大林路10弄","lng":121.4882753282161,"lat":31.213179424331425,"确诊日期36":"n"},{"SH_ID_36":"10fs61d","区36":"1","地址":"大林路43弄","lng":121.48748311647817,"lat":31.213828539711592,"确诊日期36":"n"},{"SH_ID_36":"10fs60x","区36":"1","地址":"大兴街115弄","lng":121.48974832909587,"lat":31.21287920695554,"确诊日期36":"n"},{"SH_ID_36":"10fs631","区36":"1","地址":"方浜中路45弄","lng":121.49614647776811,"lat":31.22506971344455,"确诊日期36":"n"},{"SH_ID_36":"10fs627","区36":"1","地址":"方浜中路523号","lng":121.48701829847961,"lat":31.224735876793723,"确诊日期36":"n"},{"SH_ID_36":"10fs62q","区36":"1","地址":"凤阳路358弄","lng":121.46901269914076,"lat":31.234130588843644,"确诊日期36":"n"},{"SH_ID_36":"10fs62s","区36":"1","地址":"抚安街27号","lng":121.4965912634028,"lat":31.220851743886847,"确诊日期36":"n"},{"SH_ID_36":"10fs60y","区36":"1","地址":"复兴东路886号","lng":121.4882124644314,"lat":31.22073641220116,"确诊日期36":"n"},{"SH_ID_36":"10fs62k","区36":"1","地址":"复兴中路485号","lng":121.47127121840484,"lat":31.215115728468493,"确诊日期36":"n"},{"SH_ID_36":"10fs62o","区36":"1","地址":"复兴中路565弄","lng":121.46608336013941,"lat":31.214389042827104,"确诊日期36":"n"},{"SH_ID_36":"10fs62l","区36":"1","地址":"傅家街92弄","lng":121.4934200940539,"lat":31.223423111199246,"确诊日期36":"n"},{"SH_ID_36":"10fs62p","区36":"1","地址":"高家横弄18弄","lng":121.48904491853206,"lat":31.22056896018751,"确诊日期36":"n"},{"SH_ID_36":"10fs624","区36":"1","地址":"高家弄37弄","lng":121.4891598827403,"lat":31.221383852868044,"确诊日期36":"n"},{"SH_ID_36":"10fs61h","区36":"1","地址":"国货路236号","lng":121.49498693161775,"lat":31.20894959510495,"确诊日期36":"n"},{"SH_ID_36":"10fs62j","区36":"1","地址":"海潮路256弄","lng":121.49676815127617,"lat":31.207225284966515,"确诊日期36":"n"},{"SH_ID_36":"10fs632","区36":"1","地址":"汉口路457号","lng":121.48162054813355,"lat":31.234857292276374,"确诊日期36":"n"},{"SH_ID_36":"10fs62w","区36":"1","地址":"河南南路612弄","lng":121.49058269360899,"lat":31.219447757049654,"确诊日期36":"n"},{"SH_ID_36":"10fs62r","区36":"1","地址":"黄家路88弄","lng":121.49617898443543,"lat":31.215453595575735,"确诊日期36":"n"},{"SH_ID_36":"10fs62d","区36":"1","地址":"建国西路192号","lng":121.46211546875806,"lat":31.2069245214229,"确诊日期36":"n"},{"SH_ID_36":"10fs60z","区36":"1","地址":"静修路114弄","lng":121.48733555880858,"lat":31.219003207158416,"确诊日期36":"n"},{"SH_ID_36":"10fs619","区36":"1","地址":"静修路126弄","lng":121.48657895596625,"lat":31.219290219454837,"确诊日期36":"n"},{"SH_ID_36":"10fs61r","区36":"1","地址":"静修路37弄","lng":121.48783944294567,"lat":31.22023178955,"确诊日期36":"n"},{"SH_ID_36":"10fs62g","区36":"1","地址":"静修路64弄","lng":121.48776640173836,"lat":31.219777342905008,"确诊日期36":"n"},{"SH_ID_36":"10fs60t","区36":"1","地址":"静修路79弄","lng":121.48714520149984,"lat":31.21997771685187,"确诊日期36":"n"},{"SH_ID_36":"10fs613","区36":"1","地址":"静修路85号","lng":121.48714770045382,"lat":31.219941839978475,"确诊日期36":"n"},{"SH_ID_36":"10fs622","区36":"1","地址":"局门路434弄","lng":121.48107970827233,"lat":31.202749925828297,"确诊日期36":"n"},{"SH_ID_36":"10fs61s","区36":"1","地址":"巨鹿路4号","lng":121.45025607903801,"lat":31.220104168530593,"确诊日期36":"n"},{"SH_ID_36":"10fs61t","区36":"1","地址":"丽园路710弄","lng":121.47930361864489,"lat":31.206534874427184,"确诊日期36":"n"},{"SH_ID_36":"10fs61o","区36":"1","地址":"丽园路871号","lng":121.47606379928669,"lat":31.20668675806065,"确诊日期36":"n"},{"SH_ID_36":"10fs61x","区36":"1","地址":"龙华东路927号","lng":121.47082746482529,"lat":31.1934999219082,"确诊日期36":"n"},{"SH_ID_36":"10fs62i","区36":"1","地址":"鲁班路738弄","lng":121.47774802527367,"lat":31.19422296211378,"确诊日期36":"n"},{"SH_ID_36":"10fs628","区36":"1","地址":"陆家浜路468弄","lng":121.49758813414574,"lat":31.210406646439246,"确诊日期36":"n"},{"SH_ID_36":"10fs61k","区36":"1","地址":"蒙自西路10号","lng":121.47476692979087,"lat":31.207209394068087,"确诊日期36":"n"},{"SH_ID_36":"10fs61q","区36":"1","地址":"蒙自西路28弄3号","lng":121.47578795182234,"lat":31.206853212774934,"确诊日期36":"n"},{"SH_ID_36":"10fs61m","区36":"1","地址":"蒙自西路78号","lng":121.47460778839167,"lat":31.20730848418365,"确诊日期36":"n"},{"SH_ID_36":"10fs61j","区36":"1","地址":"梦花街13弄","lng":121.48898770030486,"lat":31.21997849042009,"确诊日期36":"n"},{"SH_ID_36":"10fs626","区36":"1","地址":"梦花街64号","lng":121.4884806314497,"lat":31.218995060938152,"确诊日期36":"n"},{"SH_ID_36":"10fs62v","区36":"1","地址":"面筋弄60弄","lng":121.49789398827096,"lat":31.220084990200284,"确诊日期36":"n"},{"SH_ID_36":"10fs61w","区36":"1","地址":"蓬莱路257号","lng":121.48996918269228,"lat":31.21743667929575,"确诊日期36":"n"},{"SH_ID_36":"10fs618","区36":"1","地址":"普育东路101弄","lng":121.49629709280386,"lat":31.20990855649175,"确诊日期36":"n"},{"SH_ID_36":"10fs610","区36":"1","地址":"瞿溪路1072弄","lng":121.47424626188554,"lat":31.19884792755924,"确诊日期36":"n"},{"SH_ID_36":"10fs61z","区36":"1","地址":"瞿溪路1200弄","lng":121.4728338123414,"lat":31.197488164090025,"确诊日期36":"n"},{"SH_ID_36":"10fs615","区36":"1","地址":"瞿溪路937弄","lng":121.47781188287757,"lat":31.200258337865826,"确诊日期36":"n"},{"SH_ID_36":"10fs629","区36":"1","地址":"人民路777弄","lng":121.48484861802665,"lat":31.22734864236136,"确诊日期36":"n"},{"SH_ID_36":"10fs61f","区36":"1","地址":"瑞金二路410弄","lng":121.46570000538817,"lat":31.20698545957134,"确诊日期36":"n"},{"SH_ID_36":"10fs62y","区36":"1","地址":"瑞金南路1号","lng":121.46777709991089,"lat":31.20439269021637,"确诊日期36":"n"},{"SH_ID_36":"10fs62b","区36":"1","地址":"尚文路133弄","lng":121.49128628244627,"lat":31.215893249809643,"确诊日期36":"n"},{"SH_ID_36":"10fs61c","区36":"1","地址":"顺昌路550弄","lng":121.47913777439021,"lat":31.21163175206134,"确诊日期36":"n"},{"SH_ID_36":"10fs61a","区36":"1","地址":"四牌楼路147号","lng":121.49521831824835,"lat":31.224937066921054,"确诊日期36":"n"},{"SH_ID_36":"10fs62m","区36":"1","地址":"泰康路316弄","lng":121.46753472985716,"lat":31.207197753798933,"确诊日期36":"n"},{"SH_ID_36":"10fs62e","区36":"1","地址":"文庙路60弄","lng":121.49032267795782,"lat":31.21883265265822,"确诊日期36":"n"},{"SH_ID_36":"10fs61v","区36":"1","地址":"五里桥路256号","lng":121.47981989493611,"lat":31.20336001883173,"确诊日期36":"n"},{"SH_ID_36":"10fs62c","区36":"1","地址":"西仓桥街112弄","lng":121.48974520403415,"lat":31.220479785831294,"确诊日期36":"n"},{"SH_ID_36":"10fs61b","区36":"1","地址":"西仓桥街129号","lng":121.48960087452245,"lat":31.22051870976413,"确诊日期36":"n"},{"SH_ID_36":"10fs60u","区36":"1","地址":"西仓桥街161弄","lng":121.48896382231555,"lat":31.220061918947618,"确诊日期36":"n"},{"SH_ID_36":"10fs60w","区36":"1","地址":"县左街20弄","lng":121.49494575402903,"lat":31.224249006029734,"确诊日期36":"n"},{"SH_ID_36":"10fs62u","区36":"1","地址":"县左街24号","lng":121.4945784164359,"lat":31.224411907930424,"确诊日期36":"n"},{"SH_ID_36":"10fs61y","区36":"1","地址":"斜土路251弄","lng":121.4804685537972,"lat":31.20599499487601,"确诊日期36":"n"},{"SH_ID_36":"10fs623","区36":"1","地址":"新闸路200号","lng":121.46994971822927,"lat":31.238723393006968,"确诊日期36":"n"},{"SH_ID_36":"10fs61u","区36":"1","地址":"学前街58号","lng":121.4887687396793,"lat":31.216784410078436,"确诊日期36":"n"},{"SH_ID_36":"10fs620","区36":"1","地址":"延安中路545弄","lng":121.45934929875378,"lat":31.223379788052576,"确诊日期36":"n"},{"SH_ID_36":"10fs60s","区36":"1","地址":"永年路149弄","lng":121.47882250941255,"lat":31.21137522137563,"确诊日期36":"n"},{"SH_ID_36":"10fs61e","区36":"1","地址":"肇周路356号","lng":121.48136153412202,"lat":31.213045959600397,"确诊日期36":"n"},{"SH_ID_36":"10fs61g","区36":"1","地址":"制造局路455弄","lng":121.48469155719931,"lat":31.204820385375307,"确诊日期36":"n"},{"SH_ID_36":"10fs61i","区36":"1","地址":"中山南路1667号","lng":121.49497012497979,"lat":31.204622657483498,"确诊日期36":"n"},{"SH_ID_36":"10fs62n","区36":"1","地址":"中山南路1669弄","lng":121.49531451356567,"lat":31.205021403046683,"确诊日期36":"n"},{"SH_ID_36":"10fs61p","区36":"1","地址":"中山南路1726弄","lng":121.49334193750977,"lat":31.204364118628856,"确诊日期36":"n"},{"SH_ID_36":"10fs61n","区36":"1","地址":"中山南路1729弄","lng":121.49029627623354,"lat":31.202376127114235,"确诊日期36":"n"},{"SH_ID_36":"10fs616","区36":"1","地址":"中山南一路1065号","lng":121.47201295035352,"lat":31.196097117731632,"确诊日期36":"n"},{"SH_ID_36":"10fs62f","区36":"1","地址":"庄家街18弄","lng":121.48771116808894,"lat":31.220717125042444,"确诊日期36":"n"},{"SH_ID_36":"10fs625","区36":"1","地址":"庄家街34号","lng":121.48842063862372,"lat":31.220512148697985,"确诊日期36":"n"},{"SH_ID_36":"10fs611","区36":"1","地址":"庄家街49号","lng":121.48846005689475,"lat":31.22035914478978,"确诊日期36":"n"},{"SH_ID_36":"10fs6tb","区36":"e","地址":"爱特路185弄","lng":121.31633579751967,"lat":31.232038633894124,"确诊日期36":"n"},{"SH_ID_36":"10fs6vd","区36":"e","地址":"安亭镇联群村","lng":121.2464353163147,"lat":31.276702180881497,"确诊日期36":"n"},{"SH_ID_36":"10fs6ve","区36":"e","地址":"安亭镇罗家村","lng":121.2097197915699,"lat":31.26740816674817,"确诊日期36":"n"},{"SH_ID_36":"10fs6vg","区36":"e","地址":"安亭镇玉兰三村","lng":121.16028114397128,"lat":31.299486276581202,"确诊日期36":"n"},{"SH_ID_36":"10fs6vh","区36":"e","地址":"安亭镇玉兰四村","lng":121.16603790811781,"lat":31.297505584544222,"确诊日期36":"n"},{"SH_ID_36":"10fs6vf","区36":"e","地址":"安亭镇玉兰一村","lng":121.16125482835291,"lat":31.297399579097302,"确诊日期36":"n"},{"SH_ID_36":"10fs6uf","区36":"e","地址":"宝安公路2466号","lng":121.32699584010153,"lat":31.348235372130862,"确诊日期36":"n"},{"SH_ID_36":"10fs6t5","区36":"e","地址":"北和公路1650号","lng":121.17899886063059,"lat":31.42456993692948,"确诊日期36":"n"},{"SH_ID_36":"10fs6uy","区36":"e","地址":"曹安公路1685号","lng":121.3658640026781,"lat":31.252311457702966,"确诊日期36":"n"},{"SH_ID_36":"10fs6uv","区36":"e","地址":"曹安公路1936号","lng":121.35902894743047,"lat":31.25615516977617,"确诊日期36":"n"},{"SH_ID_36":"10fs6uw","区36":"e","地址":"曹安公路1978号","lng":121.35707810683286,"lat":31.25583720172091,"确诊日期36":"n"},{"SH_ID_36":"10fs6ux","区36":"e","地址":"曹安公路1980号","lng":121.35647781467128,"lat":31.25608994006603,"确诊日期36":"n"},{"SH_ID_36":"10fs6tc","区36":"e","地址":"曹安公路1986号","lng":121.35368603258063,"lat":31.257441018510555,"确诊日期36":"n"},{"SH_ID_36":"10fs6td","区36":"e","地址":"曹安公路1991号","lng":121.21508863960507,"lat":31.273967923178354,"确诊日期36":"n"},{"SH_ID_36":"10fs6te","区36":"e","地址":"曹安公路2019弄","lng":121.34906244453363,"lat":31.257594401685406,"确诊日期36":"n"},{"SH_ID_36":"10fs6tf","区36":"e","地址":"曹安公路2258号","lng":121.3439670145357,"lat":31.260678942377833,"确诊日期36":"n"},{"SH_ID_36":"10fs6tg","区36":"e","地址":"曹安公路3055弄","lng":121.26944464668485,"lat":31.273361240833626,"确诊日期36":"n"},{"SH_ID_36":"10fs6up","区36":"e","地址":"曹王路158弄","lng":121.30373492598297,"lat":31.43334448266355,"确诊日期36":"n"},{"SH_ID_36":"10fs6ub","区36":"e","地址":"陈家山路388号","lng":121.24076058949946,"lat":31.392276956313996,"确诊日期36":"n"},{"SH_ID_36":"10fs6uq","区36":"e","地址":"澄浏公路108号","lng":121.27325013854457,"lat":31.402644781648892,"确诊日期36":"n"},{"SH_ID_36":"10fs6sr","区36":"e","地址":"春海路400弄","lng":121.36412900122104,"lat":31.21644853315262,"确诊日期36":"n"},{"SH_ID_36":"10fs6ss","区36":"e","地址":"春荣路799弄","lng":121.22579072166502,"lat":31.268048854290683,"确诊日期36":"n"},{"SH_ID_36":"10fs6uz","区36":"e","地址":"定边路99弄","lng":121.36397885211453,"lat":31.25717914081913,"确诊日期36":"n"},{"SH_ID_36":"10fs6uh","区36":"e","地址":"芳林路333弄","lng":121.31959542020887,"lat":31.301374743717638,"确诊日期36":"n"},{"SH_ID_36":"10fs6th","区36":"e","地址":"丰华公路1469弄","lng":121.3291935026598,"lat":31.232854403034427,"确诊日期36":"n"},{"SH_ID_36":"10fs6v0","区36":"e","地址":"丰江路188弄","lng":121.35093518605298,"lat":31.254821858169233,"确诊日期36":"n"},{"SH_ID_36":"10fs6v1","区36":"e","地址":"丰庄北路5弄","lng":121.35528609563367,"lat":31.249596139082964,"确诊日期36":"n"},{"SH_ID_36":"10fs6v2","区36":"e","地址":"丰庄路540号","lng":121.36484064846341,"lat":31.250133085686883,"确诊日期36":"n"},{"SH_ID_36":"10fs6st","区36":"e","地址":"阜康西路36号","lng":121.1619576398427,"lat":31.29868221140513,"确诊日期36":"n"},{"SH_ID_36":"10fs6ti","区36":"e","地址":"海波路1000号","lng":121.32726372564102,"lat":31.270181556252666,"确诊日期36":"n"},{"SH_ID_36":"10fs6tj","区36":"e","地址":"海川路16号","lng":121.3493360389386,"lat":31.264142131623426,"确诊日期36":"n"},{"SH_ID_36":"10fs6tk","区36":"e","地址":"海川路58弄","lng":121.349287038263,"lat":31.264613938150944,"确诊日期36":"n"},{"SH_ID_36":"10fs6tl","区36":"e","地址":"海兰路318弄","lng":121.3390146672632,"lat":31.263249416056773,"确诊日期36":"n"},{"SH_ID_36":"10fs6su","区36":"e","地址":"和静路1585弄","lng":121.15174780554997,"lat":31.300620844562125,"确诊日期36":"n"},{"SH_ID_36":"10fs6sv","区36":"e","地址":"和静路288号","lng":121.18108577950353,"lat":31.30146729414971,"确诊日期36":"n"},{"SH_ID_36":"10fs6tn","区36":"e","地址":"鹤望路268号","lng":121.32754283064091,"lat":31.24743573832018,"确诊日期36":"n"},{"SH_ID_36":"10fs6tm","区36":"e","地址":"鹤望路365弄","lng":121.32705081517506,"lat":31.24614484106021,"确诊日期36":"n"},{"SH_ID_36":"10fs6v3","区36":"e","地址":"鹤霞路555弄","lng":121.29714241153965,"lat":31.285903788703276,"确诊日期36":"n"},{"SH_ID_36":"10fs6to","区36":"e","地址":"鹤霞路600弄","lng":121.3079761654554,"lat":31.245588932877226,"确诊日期36":"n"},{"SH_ID_36":"10fs6tp","区36":"e","地址":"鹤旋东路188号","lng":121.32693083783141,"lat":31.2386175502554,"确诊日期36":"n"},{"SH_ID_36":"10fs6um","区36":"e","地址":"沪宜公路5060弄","lng":121.20774352610836,"lat":31.370380993646755,"确诊日期36":"n"},{"SH_ID_36":"10fs6t9","区36":"e","地址":"华博路1155号","lng":121.24798571666676,"lat":31.45050924163805,"确诊日期36":"n"},{"SH_ID_36":"10fs6tq","区36":"e","地址":"华江路107弄","lng":121.33357693056382,"lat":31.247272198089533,"确诊日期36":"n"},{"SH_ID_36":"10fs6tr","区36":"e","地址":"华江路126号","lng":121.3336685076217,"lat":31.247337741288035,"确诊日期36":"n"},{"SH_ID_36":"10fs6ts","区36":"e","地址":"华江路1481弄","lng":121.32723452684696,"lat":31.2318859588691,"确诊日期36":"n"},{"SH_ID_36":"10fs6vl","区36":"e","地址":"华亭镇金吕村","lng":121.29312435449494,"lat":31.453855298272565,"确诊日期36":"n"},{"SH_ID_36":"10fs6vm","区36":"e","地址":"华亭镇联一村","lng":121.30642139909324,"lat":31.480378169999327,"确诊日期36":"n"},{"SH_ID_36":"10fs6vn","区36":"e","地址":"华亭镇毛桥村","lng":121.2514416674395,"lat":31.472173872171386,"确诊日期36":"n"},{"SH_ID_36":"10fs6uc","区36":"e","地址":"环城路612号","lng":121.25154719014131,"lat":31.394289041926545,"确诊日期36":"n"},{"SH_ID_36":"10fs6t6","区36":"e","地址":"汇源路288号","lng":121.2029806764473,"lat":31.415290747627743,"确诊日期36":"n"},{"SH_ID_36":"10fs6ui","区36":"e","地址":"火车站路221号","lng":121.30590858179042,"lat":31.284063100376436,"确诊日期36":"n"},{"SH_ID_36":"10fs6tt","区36":"e","地址":"吉镇路445弄","lng":121.37205399450372,"lat":31.245136411777985,"确诊日期36":"n"},{"SH_ID_36":"10fs6vi","区36":"e","地址":"嘉定工业区草庵村","lng":121.21450100016386,"lat":31.450030232267025,"确诊日期36":"n"},{"SH_ID_36":"10fs6vj","区36":"e","地址":"嘉定工业区陆渡村","lng":121.19755710803683,"lat":31.46194567438329,"确诊日期36":"n"},{"SH_ID_36":"10fs6vk","区36":"e","地址":"嘉定工业区南苑二村","lng":121.24756775005154,"lat":31.371883228313887,"确诊日期36":"n"},{"SH_ID_36":"10fs6uj","区36":"e","地址":"嘉吉路60弄","lng":121.26548808618223,"lat":31.37572338450124,"确诊日期36":"n"},{"SH_ID_36":"10fs6un","区36":"e","地址":"嘉戬公路301弄","lng":121.27584749248598,"lat":31.37721951627151,"确诊日期36":"n"},{"SH_ID_36":"10fs6ur","区36":"e","地址":"嘉罗公路2718号","lng":121.33244982712904,"lat":31.41393091453044,"确诊日期36":"n"},{"SH_ID_36":"10fs6sw","区36":"e","地址":"嘉松北路7222弄","lng":121.20774890800482,"lat":31.272228449409337,"确诊日期36":"n"},{"SH_ID_36":"10fs6ud","区36":"e","地址":"嘉唐公路169弄","lng":121.24081013290804,"lat":31.39985578746643,"确诊日期36":"n"},{"SH_ID_36":"10fs6tu","区36":"e","地址":"嘉涛路60弄","lng":121.3297762859429,"lat":31.265950688031836,"确诊日期36":"n"},{"SH_ID_36":"10fs6tv","区36":"e","地址":"嘉涌路88弄","lng":121.33691950697458,"lat":31.269240640578214,"确诊日期36":"n"},{"SH_ID_36":"10fs6tw","区36":"e","地址":"嘉峪关路380弄","lng":121.31707636297968,"lat":31.270993755926316,"确诊日期36":"n"},{"SH_ID_36":"10fs6tx","区36":"e","地址":"嘉峪关路600弄","lng":121.31317747337295,"lat":31.27234362512523,"确诊日期36":"n"},{"SH_ID_36":"10fs6vo","区36":"e","地址":"江桥镇高潮七村","lng":121.3336736564139,"lat":31.252149205188072,"确诊日期36":"n"},{"SH_ID_36":"10fs6vp","区36":"e","地址":"江桥镇年丰村","lng":121.27232070159359,"lat":31.25849410474712,"确诊日期36":"n"},{"SH_ID_36":"10fs6vq","区36":"e","地址":"江桥镇田旺村","lng":121.3316214119155,"lat":31.238845955824893,"确诊日期36":"n"},{"SH_ID_36":"10fs6vr","区36":"e","地址":"江桥镇五四村","lng":121.32682164167045,"lat":31.250086082171528,"确诊日期36":"n"},{"SH_ID_36":"10fs6vs","区36":"e","地址":"江桥镇新江村","lng":121.2572279090491,"lat":31.260498189776236,"确诊日期36":"n"},{"SH_ID_36":"10fs6vt","区36":"e","地址":"江桥镇星火村","lng":121.31690616816118,"lat":31.263609708898095,"确诊日期36":"n"},{"SH_ID_36":"10fs6vu","区36":"e","地址":"江桥镇增建村","lng":121.29025782554444,"lat":31.241889470090474,"确诊日期36":"n"},{"SH_ID_36":"10fs6v4","区36":"e","地址":"金鼎路2388弄","lng":121.36288048388118,"lat":31.25923619157011,"确诊日期36":"n"},{"SH_ID_36":"10fs6v5","区36":"e","地址":"金鼎路2588弄","lng":121.35992110512014,"lat":31.260976968241984,"确诊日期36":"n"},{"SH_ID_36":"10fs6v6","区36":"e","地址":"金沙江路2892号","lng":121.35843623841254,"lat":31.242104221096728,"确诊日期36":"n"},{"SH_ID_36":"10fs6ty","区36":"e","地址":"金沙江支路200号","lng":121.35205189071398,"lat":31.24132073034116,"确诊日期36":"n"},{"SH_ID_36":"10fs6tz","区36":"e","地址":"金耀路555弄","lng":121.30932678494098,"lat":31.248499526191065,"确诊日期36":"n"},{"SH_ID_36":"10fs6u0","区36":"e","地址":"金耀南路299弄","lng":121.30919527278762,"lat":31.23574338442208,"确诊日期36":"n"},{"SH_ID_36":"10fs6u1","区36":"e","地址":"金耀南路300弄","lng":121.31303576721146,"lat":31.236717231471243,"确诊日期36":"n"},{"SH_ID_36":"10fs6u2","区36":"e","地址":"金园六路555号","lng":121.30948464288309,"lat":31.256553168922835,"确诊日期36":"n"},{"SH_ID_36":"10fs6u3","区36":"e","地址":"金园一路1115弄","lng":121.31947088787493,"lat":31.24496024976396,"确诊日期36":"n"},{"SH_ID_36":"10fs6uo","区36":"e","地址":"练祁岛餐厅","lng":121.27171277515194,"lat":31.395363043944187,"确诊日期36":"n"},{"SH_ID_36":"10fs6u4","区36":"e","地址":"临夏路256号","lng":121.3334753150235,"lat":31.259153534094768,"确诊日期36":"n"},{"SH_ID_36":"10fs6vv","区36":"e","地址":"马陆镇仓场村","lng":121.27629410081718,"lat":31.361371298340764,"确诊日期36":"n"},{"SH_ID_36":"10fs6vw","区36":"e","地址":"马陆镇彭赵村","lng":121.28435983215208,"lat":31.34688668823436,"确诊日期36":"n"},{"SH_ID_36":"10fs6uk","区36":"e","地址":"民主街185弄","lng":121.30922132243849,"lat":31.2909376814615,"确诊日期36":"n"},{"SH_ID_36":"10fs6sx","区36":"e","地址":"墨玉路158号","lng":121.1630781000943,"lat":31.296268124386316,"确诊日期36":"n"},{"SH_ID_36":"10fs6sy","区36":"e","地址":"墨玉路183号","lng":121.16341090391057,"lat":31.29700031723371,"确诊日期36":"n"},{"SH_ID_36":"10fs6sz","区36":"e","地址":"墨玉路63弄","lng":121.16603185662336,"lat":31.29185062991574,"确诊日期36":"n"},{"SH_ID_36":"10fs6ul","区36":"e","地址":"南华路101弄","lng":121.30803398143568,"lat":31.28829125894968,"确诊日期36":"n"},{"SH_ID_36":"10fs6vx","区36":"e","地址":"南翔镇红翔村","lng":121.30604511743736,"lat":31.287706462356038,"确诊日期36":"n"},{"SH_ID_36":"10fs6vy","区36":"e","地址":"南翔镇新丰村","lng":121.30171149005051,"lat":31.32066448121925,"确诊日期36":"n"},{"SH_ID_36":"10fs6us","区36":"e","地址":"启宁路456弄","lng":121.27926693673004,"lat":31.409446572177693,"确诊日期36":"n"},{"SH_ID_36":"10fs6ta","区36":"e","地址":"清河路205弄","lng":121.24066216500924,"lat":31.380450711735726,"确诊日期36":"n"},{"SH_ID_36":"10fs6t0","区36":"e","地址":"曲惠路666弄","lng":121.14653147880742,"lat":31.30839276115347,"确诊日期36":"n"},{"SH_ID_36":"10fs6u5","区36":"e","地址":"曲江路100弄","lng":121.34562596714942,"lat":31.254992951777325,"确诊日期36":"n"},{"SH_ID_36":"10fs6t7","区36":"e","地址":"世盛路777号","lng":121.18494248238854,"lat":31.400898284846217,"确诊日期36":"n"},{"SH_ID_36":"10fs6ug","区36":"e","地址":"双单路1509弄","lng":121.25216780375013,"lat":31.326926241976235,"确诊日期36":"n"},{"SH_ID_36":"10fs6t1","区36":"e","地址":"泰顺路475弄","lng":121.2122560911286,"lat":31.309448364850045,"确诊日期36":"n"},{"SH_ID_36":"10fs6v7","区36":"e","地址":"铜川路2395弄","lng":121.37109902153676,"lat":31.25437678498754,"确诊日期36":"n"},{"SH_ID_36":"10fs6v8","区36":"e","地址":"铜川路2555弄","lng":121.36968149721949,"lat":31.254729181985414,"确诊日期36":"n"},{"SH_ID_36":"10fs6v9","区36":"e","地址":"铜川路2655弄","lng":121.36582427986326,"lat":31.255254791925573,"确诊日期36":"n"},{"SH_ID_36":"10fs6va","区36":"e","地址":"铜川路2688弄","lng":121.3657631156877,"lat":31.25713889308774,"确诊日期36":"n"},{"SH_ID_36":"10fs6vb","区36":"e","地址":"万镇路1177弄","lng":121.37831459502377,"lat":31.253434576217895,"确诊日期36":"n"},{"SH_ID_36":"10fs6u6","区36":"e","地址":"吴扬东路333弄","lng":121.31192816234469,"lat":31.27051091524463,"确诊日期36":"n"},{"SH_ID_36":"10fs6u7","区36":"e","地址":"吴杨东路101弄","lng":121.30546347009688,"lat":31.274183498387302,"确诊日期36":"n"},{"SH_ID_36":"10fs6u8","区36":"e","地址":"翔江公路3588号","lng":121.2739303946994,"lat":31.256500401381253,"确诊日期36":"n"},{"SH_ID_36":"10fs6u9","区36":"e","地址":"翔铁中路219号","lng":121.3172558679095,"lat":31.276894797022102,"确诊日期36":"n"},{"SH_ID_36":"10fs6t8","区36":"e","地址":"新和路789号","lng":121.19002798556575,"lat":31.433948971370768,"确诊日期36":"n"},{"SH_ID_36":"10fs6ut","区36":"e","地址":"新木桥2067号","lng":121.26544937301972,"lat":31.375666621900727,"确诊日期36":"n"},{"SH_ID_36":"10fs6vc","区36":"e","地址":"新郁路199弄","lng":121.35690791447999,"lat":31.24395159658878,"确诊日期36":"n"},{"SH_ID_36":"10fs6t2","区36":"e","地址":"新源路1288弄","lng":121.15250467623791,"lat":31.30874880853465,"确诊日期36":"n"},{"SH_ID_36":"10fs6t3","区36":"e","地址":"新源路588弄","lng":121.15609706656802,"lat":31.296790325527837,"确诊日期36":"n"},{"SH_ID_36":"10fs6uu","区36":"e","地址":"徐曹路1103号","lng":121.2910669067858,"lat":31.426742248742254,"确诊日期36":"n"},{"SH_ID_36":"10fs6vz","区36":"e","地址":"徐行镇伏虎村","lng":121.26078720389582,"lat":31.4452426620549,"确诊日期36":"n"},{"SH_ID_36":"10fs6w0","区36":"e","地址":"徐行镇和桥村","lng":121.32923192812135,"lat":31.41720365383977,"确诊日期36":"n"},{"SH_ID_36":"10fs6ue","区36":"e","地址":"永靖路501弄","lng":121.25788480204947,"lat":31.40130122210091,"确诊日期36":"n"},{"SH_ID_36":"10fs6ua","区36":"e","地址":"榆中路1099弄","lng":121.32618640598184,"lat":31.26223375265587,"确诊日期36":"n"},{"SH_ID_36":"10fs6t4","区36":"e","地址":"泽普路588弄","lng":121.15592066358802,"lat":31.290652591727863,"确诊日期36":"n"},{"SH_ID_36":"10fs6w2","区36":"e","地址":"真新街道丰庄四村","lng":121.3693603636514,"lat":31.247844733311364,"确诊日期36":"n"},{"SH_ID_36":"10fs6w1","区36":"e","地址":"真新街道丰庄一村","lng":121.36570262468496,"lat":31.247379297187088,"确诊日期36":"n"},{"SH_ID_36":"10fs6w9","区36":"g","地址":"红光村","lng":121.36057663834771,"lat":30.84763394213896,"确诊日期36":"n"},{"SH_ID_36":"10fs6w3","区36":"g","地址":"金南街801弄","lng":121.16192980516551,"lat":30.87916551005665,"确诊日期36":"n"},{"SH_ID_36":"10fs6w4","区36":"g","地址":"九工路2005弄","lng":121.33085413341693,"lat":30.8333987881201,"确诊日期36":"n"},{"SH_ID_36":"10fs6w6","区36":"g","地址":"龙泉村","lng":121.3589552010603,"lat":30.884522540380857,"确诊日期36":"n"},{"SH_ID_36":"10fs6w8","区36":"g","地址":"新巷村","lng":121.30466731931124,"lat":30.84614528150371,"确诊日期36":"n"},{"SH_ID_36":"10fs6wa","区36":"g","地址":"胥浦村","lng":121.30086359040232,"lat":30.828253717050895,"确诊日期36":"n"},{"SH_ID_36":"10fs6w7","区36":"g","地址":"油车村","lng":121.29226413096829,"lat":30.852217274403216,"确诊日期36":"n"},{"SH_ID_36":"10fs6w5","区36":"g","地址":"周栅村","lng":121.26489117635349,"lat":30.87257281190899,"确诊日期36":"n"},{"SH_ID_36":"10fs652","区36":"6","地址":"宝山路499弄","lng":121.47805985261122,"lat":31.257935660679806,"确诊日期36":"n"},{"SH_ID_36":"10fs63y","区36":"6","地址":"保德路213号","lng":121.46256950528524,"lat":31.3176189993423,"确诊日期36":"n"},{"SH_ID_36":"10fs65i","区36":"6","地址":"北京西路1818号","lng":121.44250720466123,"lat":31.224341644680223,"确诊日期36":"n"},{"SH_ID_36":"10fs65d","区36":"6","地址":"场中路2251弄","lng":121.44668405416064,"lat":31.306129418571015,"确诊日期36":"n"},{"SH_ID_36":"10fs63o","区36":"6","地址":"场中路2600弄","lng":121.4410732268496,"lat":31.30786021348831,"确诊日期36":"n"},{"SH_ID_36":"10fs65l","区36":"6","地址":"大宁路667弄","lng":121.44719423400068,"lat":31.273146048147495,"确诊日期36":"n"},{"SH_ID_36":"10fs64v","区36":"6","地址":"大田路158号","lng":121.46445555530083,"lat":31.232910796123345,"确诊日期36":"n"},{"SH_ID_36":"10fs64d","区36":"6","地址":"大统路757号","lng":121.45931384560643,"lat":31.251697364939247,"确诊日期36":"n"},{"SH_ID_36":"10fs636","区36":"6","地址":"汾西路400弄","lng":121.45841721754216,"lat":31.314231338115967,"确诊日期36":"n"},{"SH_ID_36":"10fs63h","区36":"6","地址":"共和新路2399弄","lng":121.45433055173069,"lat":31.28049873028657,"确诊日期36":"n"},{"SH_ID_36":"10fs63z","区36":"6","地址":"光复路921号","lng":121.456556456785,"lat":31.238983325107473,"确诊日期36":"n"},{"SH_ID_36":"10fs63p","区36":"6","地址":"海宁路1399号","lng":121.46831297055074,"lat":31.24409931768735,"确诊日期36":"n"},{"SH_ID_36":"10fs65h","区36":"6","地址":"沪太路631弄","lng":121.44850774442257,"lat":31.260669694279176,"确诊日期36":"n"},{"SH_ID_36":"10fs63b","区36":"6","地址":"华山路251弄","lng":121.44639292111647,"lat":31.219465271461903,"确诊日期36":"n"},{"SH_ID_36":"10fs63e","区36":"6","地址":"华山路421弄","lng":121.44516830710327,"lat":31.217281924368287,"确诊日期36":"n"},{"SH_ID_36":"10fs65g","区36":"6","地址":"淮安路687弄","lng":121.45185369762787,"lat":31.240006525841718,"确诊日期36":"n"},{"SH_ID_36":"10fs63i","区36":"6","地址":"交城路229弄","lng":121.42910636659882,"lat":31.29393357470054,"确诊日期36":"n"},{"SH_ID_36":"10fs64k","区36":"6","地址":"康定东路13弄","lng":121.45731533597184,"lat":31.23698898637747,"确诊日期36":"n"},{"SH_ID_36":"10fs64p","区36":"6","地址":"康定东路23号","lng":121.45712483947628,"lat":31.23705428830237,"确诊日期36":"n"},{"SH_ID_36":"10fs64q","区36":"6","地址":"康定东路25号","lng":121.4572674091757,"lat":31.237159660557843,"确诊日期36":"n"},{"SH_ID_36":"10fs650","区36":"6","地址":"康定东路27号","lng":121.45716856334705,"lat":31.237180303800333,"确诊日期36":"n"},{"SH_ID_36":"10fs64t","区36":"6","地址":"康定东路31号","lng":121.4571502818653,"lat":31.237064151553948,"确诊日期36":"n"},{"SH_ID_36":"10fs64r","区36":"6","地址":"康定东路3弄","lng":121.45797895263071,"lat":31.236572271445375,"确诊日期36":"n"},{"SH_ID_36":"10fs64s","区36":"6","地址":"康定东路9号","lng":121.4573207713279,"lat":31.23692804814726,"确诊日期36":"n"},{"SH_ID_36":"10fs63u","区36":"6","地址":"康定路307号","lng":121.45050205036914,"lat":31.23472578176187,"确诊日期36":"n"},{"SH_ID_36":"10fs649","区36":"6","地址":"康定路367弄","lng":121.44953873607243,"lat":31.23457999421318,"确诊日期36":"n"},{"SH_ID_36":"10fs642","区36":"6","地址":"康定路389号","lng":121.44862445000047,"lat":31.23444604387122,"确诊日期36":"n"},{"SH_ID_36":"10fs64x","区36":"6","地址":"康定路400号","lng":121.44894563905741,"lat":31.234548870929835,"确诊日期36":"n"},{"SH_ID_36":"10fs63v","区36":"6","地址":"康定路501弄","lng":121.44287933977621,"lat":31.232130280271768,"确诊日期36":"n"},{"SH_ID_36":"10fs643","区36":"6","地址":"康定路716弄","lng":121.44332919895584,"lat":31.232234460257,"确诊日期36":"n"},{"SH_ID_36":"10fs63w","区36":"6","地址":"康定路775号","lng":121.44236840204499,"lat":31.231547775734725,"确诊日期36":"n"},{"SH_ID_36":"10fs637","区36":"6","地址":"临汾路380弄","lng":121.45814012986557,"lat":31.311862185410316,"确诊日期36":"n"},{"SH_ID_36":"10fs65a","区36":"6","地址":"临汾路809弄","lng":121.45089473941636,"lat":31.309218791878262,"确诊日期36":"n"},{"SH_ID_36":"10fs64w","区36":"6","地址":"灵石路697号","lng":121.43164200352595,"lat":31.27626506105028,"确诊日期36":"n"},{"SH_ID_36":"10fs63l","区36":"6","地址":"灵石路737弄","lng":121.4383615944652,"lat":31.2850732009288,"确诊日期36":"n"},{"SH_ID_36":"10fs63m","区36":"6","地址":"岭南路338弄","lng":121.45555230152941,"lat":31.311836592329716,"确诊日期36":"n"},{"SH_ID_36":"10fs64b","区36":"6","地址":"柳营路205弄","lng":121.46693093093421,"lat":31.270335594618402,"确诊日期36":"n"},{"SH_ID_36":"10fs63f","区36":"6","地址":"柳营路319弄","lng":121.46290227241126,"lat":31.26767790316853,"确诊日期36":"n"},{"SH_ID_36":"10fs64z","区36":"6","地址":"洛川东路161号","lng":121.46446080898687,"lat":31.271787469595605,"确诊日期36":"n"},{"SH_ID_36":"10fs64l","区36":"6","地址":"洛川东路37号","lng":121.46571041697023,"lat":31.27254651358602,"确诊日期36":"n"},{"SH_ID_36":"10fs634","区36":"6","地址":"洛川中路1100弄","lng":121.45001259650974,"lat":31.264105994570752,"确诊日期36":"n"},{"SH_ID_36":"10fs63d","区36":"6","地址":"南京西路1856号","lng":121.44293253081648,"lat":31.222067690072077,"确诊日期36":"n"},{"SH_ID_36":"10fs63s","区36":"6","地址":"南山路35弄","lng":121.46652452361121,"lat":31.256991134419145,"确诊日期36":"n"},{"SH_ID_36":"10fs656","区36":"6","地址":"彭江路399弄","lng":121.4518187792359,"lat":31.285749369248105,"确诊日期36":"n"},{"SH_ID_36":"10fs63k","区36":"6","地址":"平顺路721弄","lng":121.45136586328412,"lat":31.317383569782923,"确诊日期36":"n"},{"SH_ID_36":"10fs65f","区36":"6","地址":"普善路128弄","lng":121.45591842860513,"lat":31.25584736332328,"确诊日期36":"n"},{"SH_ID_36":"10fs64j","区36":"6","地址":"普善路239弄","lng":121.45602174231404,"lat":31.25797408582661,"确诊日期36":"n"},{"SH_ID_36":"10fs64m","区36":"6","地址":"普善路390弄","lng":121.45367213508548,"lat":31.26007573649107,"确诊日期36":"n"},{"SH_ID_36":"10fs63g","区36":"6","地址":"普善路661号","lng":121.45307000224426,"lat":31.26271450423739,"确诊日期36":"n"},{"SH_ID_36":"10fs65k","区36":"6","地址":"通阁路181号","lng":121.47069288098659,"lat":31.259816686455366,"确诊日期36":"n"},{"SH_ID_36":"10fs65j","区36":"6","地址":"通阁路188号","lng":121.47050330251142,"lat":31.26010669713663,"确诊日期36":"n"},{"SH_ID_36":"10fs65e","区36":"6","地址":"铜仁路278号","lng":121.4500617392188,"lat":31.227239889288416,"确诊日期36":"n"},{"SH_ID_36":"10fs64c","区36":"6","地址":"万航渡路174号","lng":121.44117147791736,"lat":31.22513720270804,"确诊日期36":"n"},{"SH_ID_36":"10fs64y","区36":"6","地址":"武定路1128弄","lng":121.43895539365062,"lat":31.229140769659093,"确诊日期36":"n"},{"SH_ID_36":"10fs651","区36":"6","地址":"武定路44弄","lng":121.45812365941,"lat":31.236966568854864,"确诊日期36":"n"},{"SH_ID_36":"10fs647","区36":"6","地址":"武定路458号","lng":121.4513282669378,"lat":31.234567104498364,"确诊日期36":"n"},{"SH_ID_36":"10fs64n","区36":"6","地址":"武定路530号","lng":121.44984875394482,"lat":31.233401095601852,"确诊日期36":"n"},{"SH_ID_36":"10fs644","区36":"6","地址":"武定路540弄","lng":121.44970198137186,"lat":31.233221080082195,"确诊日期36":"n"},{"SH_ID_36":"10fs645","区36":"6","地址":"武定路600弄","lng":121.44935314741964,"lat":31.23331944477865,"确诊日期36":"n"},{"SH_ID_36":"10fs648","区36":"6","地址":"武定路650弄","lng":121.45540239784108,"lat":31.235326187552417,"确诊日期36":"n"},{"SH_ID_36":"10fs638","区36":"6","地址":"武定西路1398弄","lng":121.42948841909788,"lat":31.224891984278393,"确诊日期36":"n"},{"SH_ID_36":"10fs63t","区36":"6","地址":"西藏北路1071弄","lng":121.46611305124122,"lat":31.260679151940177,"确诊日期36":"n"},{"SH_ID_36":"10fs63n","区36":"6","地址":"西藏北路225弄","lng":121.47047707330887,"lat":31.244118213098,"确诊日期36":"n"},{"SH_ID_36":"10fs64a","区36":"6","地址":"西康路520号","lng":121.44724542470729,"lat":31.234137217051856,"确诊日期36":"n"},{"SH_ID_36":"10fs63j","区36":"6","地址":"襄阳北路44弄","lng":121.45463539687037,"lat":31.219459184861254,"确诊日期36":"n"},{"SH_ID_36":"10fs63q","区36":"6","地址":"新马路258弄","lng":121.46829113380309,"lat":31.24809507099976,"确诊日期36":"n"},{"SH_ID_36":"10fs64u","区36":"6","地址":"新闸路1051号","lng":121.45607161172751,"lat":31.233025254420117,"确诊日期36":"n"},{"SH_ID_36":"10fs64o","区36":"6","地址":"新闸路1309弄","lng":121.4516443266452,"lat":31.231790884367832,"确诊日期36":"n"},{"SH_ID_36":"10fs646","区36":"6","地址":"新闸路1550弄","lng":121.4588815171621,"lat":31.234407805564793,"确诊日期36":"n"},{"SH_ID_36":"10fs63a","区36":"6","地址":"新闸路1910弄","lng":121.44043204553195,"lat":31.22666857601253,"确诊日期36":"n"},{"SH_ID_36":"10fs640","区36":"6","地址":"延安中路877弄","lng":121.45418654854531,"lat":31.221620478169825,"确诊日期36":"n"},{"SH_ID_36":"10fs655","区36":"6","地址":"延平路260号","lng":121.43970376921705,"lat":31.231032402164136,"确诊日期36":"n"},{"SH_ID_36":"10fs654","区36":"6","地址":"延平路85号","lng":121.44122292611146,"lat":31.22793145713772,"确诊日期36":"n"},{"SH_ID_36":"10fs653","区36":"6","地址":"延长路152弄","lng":121.45877216443435,"lat":31.272607054209654,"确诊日期36":"n"},{"SH_ID_36":"10fs659","区36":"6","地址":"阳曲路190弄","lng":121.46171182307882,"lat":31.31039196619076,"确诊日期36":"n"},{"SH_ID_36":"10fs658","区36":"6","地址":"银都二村15号","lng":121.44008719081737,"lat":31.31806868509798,"确诊日期36":"n"},{"SH_ID_36":"10fs639","区36":"6","地址":"永兴路37弄","lng":121.47651048624314,"lat":31.255735574650302,"确诊日期36":"n"},{"SH_ID_36":"10fs64f","区36":"6","地址":"永兴路595弄","lng":121.46685076131534,"lat":31.251108651272073,"确诊日期36":"n"},{"SH_ID_36":"10fs64g","区36":"6","地址":"永兴小马路70号","lng":121.46428662707105,"lat":31.251266118917165,"确诊日期36":"n"},{"SH_ID_36":"10fs635","区36":"6","地址":"原平路918弄","lng":121.43177265197984,"lat":31.295625930150266,"确诊日期36":"n"},{"SH_ID_36":"10fs63c","区36":"6","地址":"镇宁路404弄","lng":121.4359621030597,"lat":31.2225117343044,"确诊日期36":"n"},{"SH_ID_36":"10fs64i","区36":"6","地址":"芷江西路393弄","lng":121.45817679684566,"lat":31.257600902545526,"确诊日期36":"n"},{"SH_ID_36":"10fs64e","区36":"6","地址":"芷江西路429号","lng":121.45794860485573,"lat":31.257207106880692,"确诊日期36":"n"},{"SH_ID_36":"10fs63x","区36":"6","地址":"芷江西路521弄","lng":121.4565132633271,"lat":31.256939630095076,"确诊日期36":"n"},{"SH_ID_36":"10fs657","区36":"6","地址":"芷江中路660弄","lng":121.46912311083801,"lat":31.258347888453134,"确诊日期36":"n"},{"SH_ID_36":"10fs63r","区36":"6","地址":"中华新路455弄","lng":121.46779830667792,"lat":31.25481125310646,"确诊日期36":"n"},{"SH_ID_36":"10fs65c","区36":"6","地址":"中华新路793弄","lng":121.45716229308373,"lat":31.254719987217758,"确诊日期36":"n"},{"SH_ID_36":"10fs65b","区36":"6","地址":"中华新路940号","lng":121.45433651845511,"lat":31.25418841001336,"确诊日期36":"n"},{"SH_ID_36":"10fs641","区36":"6","地址":"中山北路198号","lng":121.47052047555877,"lat":31.264665253129053,"确诊日期36":"n"},{"SH_ID_36":"10fs64h","区36":"6","地址":"中兴路1395弄","lng":121.46018767089751,"lat":31.25270361649733,"确诊日期36":"n"},{"SH_ID_36":"10fs6nd","区36":"c","地址":"安乐村","lng":121.41078576293158,"lat":31.02939194239487,"确诊日期36":"n"},{"SH_ID_36":"10fs6ne","区36":"c","地址":"白樟路99弄","lng":121.36781644308405,"lat":31.173618549940674,"确诊日期36":"n"},{"SH_ID_36":"10fs6nf","区36":"c","地址":"报春路388弄","lng":121.38819808292592,"lat":31.125237922671168,"确诊日期36":"n"},{"SH_ID_36":"10fs6ng","区36":"c","地址":"报春路558弄","lng":121.38403342512417,"lat":31.124004759280222,"确诊日期36":"n"},{"SH_ID_36":"10fs6nh","区36":"c","地址":"北翟路2000弄70支弄","lng":121.33469679328978,"lat":31.226238462190743,"确诊日期36":"n"},{"SH_ID_36":"10fs6ni","区36":"c","地址":"碧江路401弄","lng":121.40292327516782,"lat":31.011930469864403,"确诊日期36":"n"},{"SH_ID_36":"10fs6nj","区36":"c","地址":"碧江路501弄","lng":121.39996742832949,"lat":31.015074264281257,"确诊日期36":"n"},{"SH_ID_36":"10fs6nk","区36":"c","地址":"碧江路502弄","lng":121.39964105462792,"lat":31.014810723240455,"确诊日期36":"n"},{"SH_ID_36":"10fs6nl","区36":"c","地址":"碧秀路98弄","lng":121.38451815574163,"lat":31.113193977770212,"确诊日期36":"n"},{"SH_ID_36":"10fs6nm","区36":"c","地址":"宾川路380弄","lng":121.41179348313572,"lat":31.00502330727146,"确诊日期36":"n"},{"SH_ID_36":"10fs6no","区36":"c","地址":"曹建路201弄","lng":121.43852422828792,"lat":31.09139279283396,"确诊日期36":"n"},{"SH_ID_36":"10fs6nn","区36":"c","地址":"曹行村","lng":121.44570453026185,"lat":31.095504366490946,"确诊日期36":"n"},{"SH_ID_36":"10fs6np","区36":"c","地址":"曹中村","lng":121.43286677985898,"lat":31.088475111278875,"确诊日期36":"n"},{"SH_ID_36":"10fs6nq","区36":"c","地址":"漕宝路1467弄","lng":121.3834757459173,"lat":31.160769912845907,"确诊日期36":"n"},{"SH_ID_36":"10fs6nr","区36":"c","地址":"漕宝路1555号","lng":121.37753058382629,"lat":31.162498327074005,"确诊日期36":"n"},{"SH_ID_36":"10fs6ns","区36":"c","地址":"澄江路1290弄","lng":121.44156432693536,"lat":31.083277573181167,"确诊日期36":"n"},{"SH_ID_36":"10fs6nt","区36":"c","地址":"春都路358弄","lng":121.4141311035525,"lat":31.0838170190895,"确诊日期36":"n"},{"SH_ID_36":"10fs6nu","区36":"c","地址":"春都路75弄","lng":121.41998388895595,"lat":31.08280356809102,"确诊日期36":"n"},{"SH_ID_36":"10fs6nv","区36":"c","地址":"春都路88弄","lng":121.41931424124549,"lat":31.084446203220004,"确诊日期36":"n"},{"SH_ID_36":"10fs6nw","区36":"c","地址":"春申路1580弄","lng":121.43196735934407,"lat":31.11568046501661,"确诊日期36":"n"},{"SH_ID_36":"10fs6nx","区36":"c","地址":"春申路1888弄","lng":121.4223097779325,"lat":31.11352719474855,"确诊日期36":"n"},{"SH_ID_36":"10fs6ny","区36":"c","地址":"灯辉路1169弄","lng":121.41779593571488,"lat":31.028537621022902,"确诊日期36":"n"},{"SH_ID_36":"10fs6nz","区36":"c","地址":"东风村","lng":121.544504657697,"lat":31.10269288581235,"确诊日期36":"n"},{"SH_ID_36":"10fs6o0","区36":"c","地址":"东兰路1111弄","lng":121.3855916737727,"lat":31.151986726335707,"确诊日期36":"n"},{"SH_ID_36":"10fs6o1","区36":"c","地址":"东兰路258号","lng":121.40074175982828,"lat":31.157510980579843,"确诊日期36":"n"},{"SH_ID_36":"10fs6o2","区36":"c","地址":"都会路258号","lng":121.43139755663178,"lat":31.036887951782933,"确诊日期36":"n"},{"SH_ID_36":"10fs6o3","区36":"c","地址":"都会路2799弄","lng":121.41024081147549,"lat":31.080131391519227,"确诊日期36":"n"},{"SH_ID_36":"10fs6o4","区36":"c","地址":"都会路3199弄","lng":121.40942589792718,"lat":31.08462368905512,"确诊日期36":"n"},{"SH_ID_36":"10fs6o5","区36":"c","地址":"都会路3799号","lng":121.40866992099416,"lat":31.087723277925516,"确诊日期36":"n"},{"SH_ID_36":"10fs6o6","区36":"c","地址":"都市路1900弄","lng":121.41511188692444,"lat":31.05730144736521,"确诊日期36":"n"},{"SH_ID_36":"10fs6o7","区36":"c","地址":"都市路3588弄","lng":121.40231630642208,"lat":31.084174488712705,"确诊日期36":"n"},{"SH_ID_36":"10fs6o8","区36":"c","地址":"放鹤路2323弄","lng":121.42208412304936,"lat":31.045246984719004,"确诊日期36":"n"},{"SH_ID_36":"10fs6o9","区36":"c","地址":"凤庆路150弄","lng":121.41472634223175,"lat":31.021398089441153,"确诊日期36":"n"},{"SH_ID_36":"10fs6oa","区36":"c","地址":"富国路355弄","lng":121.37825727551356,"lat":31.02396501252107,"确诊日期36":"n"},{"SH_ID_36":"10fs6ob","区36":"c","地址":"富岩路328弄","lng":121.37106844855998,"lat":31.032586095281474,"确诊日期36":"n"},{"SH_ID_36":"10fs6oc","区36":"c","地址":"高兴路666弄","lng":121.39635693902747,"lat":31.10859672660197,"确诊日期36":"n"},{"SH_ID_36":"10fs6od","区36":"c","地址":"共和村","lng":121.46448416199304,"lat":31.049620720880686,"确诊日期36":"n"},{"SH_ID_36":"10fs6oe","区36":"c","地址":"古龙路287弄","lng":121.4015327909777,"lat":31.15007959980446,"确诊日期36":"n"},{"SH_ID_36":"10fs6of","区36":"c","地址":"古美路1455弄","lng":121.39838782959728,"lat":31.158052957744452,"确诊日期36":"n"},{"SH_ID_36":"10fs6og","区36":"c","地址":"古美西路744号","lng":121.38710141053174,"lat":31.131870721803146,"确诊日期36":"n"},{"SH_ID_36":"10fs6oh","区36":"c","地址":"古美西路752弄","lng":121.38569195873357,"lat":31.13156268839201,"确诊日期36":"n"},{"SH_ID_36":"10fs6oj","区36":"c","地址":"航北路228弄","lng":121.35376636476087,"lat":31.173632279266727,"确诊日期36":"n"},{"SH_ID_36":"10fs6ok","区36":"c","地址":"航东路750弄","lng":121.35340229591803,"lat":31.18068866738085,"确诊日期36":"n"},{"SH_ID_36":"10fs6ol","区36":"c","地址":"航华二村","lng":121.34967414396714,"lat":31.171657461235686,"确诊日期36":"n"},{"SH_ID_36":"10fs6om","区36":"c","地址":"航华四村","lng":121.35937108982901,"lat":31.171901135610298,"确诊日期36":"n"},{"SH_ID_36":"10fs6on","区36":"c","地址":"航华一村","lng":121.3572414046706,"lat":31.177332982944385,"确诊日期36":"n"},{"SH_ID_36":"10fs6oo","区36":"c","地址":"鹤庆路136弄","lng":121.419177684611,"lat":31.01172840201608,"确诊日期36":"n"},{"SH_ID_36":"10fs6op","区36":"c","地址":"鹤庆路352弄","lng":121.40344571388195,"lat":31.005741674288103,"确诊日期36":"n"},{"SH_ID_36":"10fs6oq","区36":"c","地址":"鹤庆路358弄","lng":121.41368960099946,"lat":31.009959688115853,"确诊日期36":"n"},{"SH_ID_36":"10fs6or","区36":"c","地址":"鹤庆路411弄","lng":121.41510320361334,"lat":31.007039628021978,"确诊日期36":"n"},{"SH_ID_36":"10fs6os","区36":"c","地址":"红松路319弄","lng":121.36826238010177,"lat":31.181080008238823,"确诊日期36":"n"},{"SH_ID_36":"10fs6ot","区36":"c","地址":"红松路700弄","lng":121.36128327609154,"lat":31.179680978878554,"确诊日期36":"n"},{"SH_ID_36":"10fs6ou","区36":"c","地址":"虹井路618弄","lng":121.37114173845885,"lat":31.185118056097785,"确诊日期36":"n"},{"SH_ID_36":"10fs6ov","区36":"c","地址":"虹梅路1111弄","lng":121.40305635700703,"lat":31.159173013960643,"确诊日期36":"n"},{"SH_ID_36":"10fs6ow","区36":"c","地址":"虹梅路999弄","lng":121.40315273254157,"lat":31.155025026231865,"确诊日期36":"n"},{"SH_ID_36":"10fs6ox","区36":"c","地址":"虹梅南路1005号","lng":121.42334052461602,"lat":31.123564614946464,"确诊日期36":"n"},{"SH_ID_36":"10fs6oy","区36":"c","地址":"虹梅南路1526弄","lng":121.43370498648467,"lat":31.118315926037063,"确诊日期36":"n"},{"SH_ID_36":"10fs6oz","区36":"c","地址":"虹梅南路1555弄","lng":121.4253683291747,"lat":31.116854897677463,"确诊日期36":"n"},{"SH_ID_36":"10fs6p0","区36":"c","地址":"虹梅南路1728弄","lng":121.42907543828777,"lat":31.11326912285213,"确诊日期36":"n"},{"SH_ID_36":"10fs6p1","区36":"c","地址":"虹梅南路2288弄","lng":121.43341756366821,"lat":31.100658293633344,"确诊日期36":"n"},{"SH_ID_36":"10fs6p2","区36":"c","地址":"虹梅南路2555弄","lng":121.43000491166579,"lat":31.098294778709132,"确诊日期36":"n"},{"SH_ID_36":"10fs6p3","区36":"c","地址":"虹梅南路3509弄","lng":121.43774522451801,"lat":31.083252066184727,"确诊日期36":"n"},{"SH_ID_36":"10fs6p4","区36":"c","地址":"虹莘路1955弄","lng":121.38062479311995,"lat":31.135833098521058,"确诊日期36":"n"},{"SH_ID_36":"10fs6p5","区36":"c","地址":"虹莘路2288弄","lng":121.38310098624794,"lat":31.1430297218247,"确诊日期36":"n"},{"SH_ID_36":"10fs6p6","区36":"c","地址":"虹莘路2448弄","lng":121.38258124921103,"lat":31.146661583548784,"确诊日期36":"n"},{"SH_ID_36":"10fs6p7","区36":"c","地址":"虹莘路3333弄","lng":121.37481403751966,"lat":31.161826350959974,"确诊日期36":"n"},{"SH_ID_36":"10fs6p8","区36":"c","地址":"虹莘路3500弄","lng":121.38139042881825,"lat":31.138359173251363,"确诊日期36":"n"},{"SH_ID_36":"10fs6p9","区36":"c","地址":"虹莘路3799弄","lng":121.37054499225617,"lat":31.167069775023805,"确诊日期36":"n"},{"SH_ID_36":"10fs6pa","区36":"c","地址":"沪光东路128号","lng":121.42596687734373,"lat":31.081320677582166,"确诊日期36":"n"},{"SH_ID_36":"10fs6pb","区36":"c","地址":"沪光路39弄","lng":121.42106814429407,"lat":31.079146027921304,"确诊日期36":"n"},{"SH_ID_36":"10fs6pc","区36":"c","地址":"沪闵路3131弄","lng":121.4099317187774,"lat":31.0554644417164,"确诊日期36":"n"},{"SH_ID_36":"10fs6pd","区36":"c","地址":"沪青平公路101弄","lng":121.35281710243774,"lat":31.18081245866847,"确诊日期36":"n"},{"SH_ID_36":"10fs6pe","区36":"c","地址":"沪松公路565弄","lng":121.3452530589048,"lat":31.151636799712794,"确诊日期36":"n"},{"SH_ID_36":"10fs6pf","区36":"c","地址":"华美路100弄","lng":121.33321424243753,"lat":31.22190797665891,"确诊日期36":"n"},{"SH_ID_36":"10fs6pg","区36":"c","地址":"华宁路1399弄","lng":121.39034992454425,"lat":31.023619068277227,"确诊日期36":"n"},{"SH_ID_36":"10fs6ph","区36":"c","地址":"华宁路191弄","lng":121.398028916944,"lat":31.010666614171146,"确诊日期36":"n"},{"SH_ID_36":"10fs6pi","区36":"c","地址":"华友路260弄","lng":121.35643599400052,"lat":31.13674811660052,"确诊日期36":"n"},{"SH_ID_36":"10fs6pj","区36":"c","地址":"黄桦路422弄","lng":121.36555265199596,"lat":31.184603694161442,"确诊日期36":"n"},{"SH_ID_36":"10fs6pk","区36":"c","地址":"建中村","lng":121.51469820933156,"lat":31.10224761565994,"确诊日期36":"n"},{"SH_ID_36":"10fs6pl","区36":"c","地址":"剑川路198弄","lng":121.46241082896017,"lat":31.041984537958033,"确诊日期36":"n"},{"SH_ID_36":"10fs6pm","区36":"c","地址":"剑川路201弄","lng":121.4644237959709,"lat":31.038643891140094,"确诊日期36":"n"},{"SH_ID_36":"10fs6pn","区36":"c","地址":"剑川路50弄","lng":121.47610215635386,"lat":31.04409832490753,"确诊日期36":"n"},{"SH_ID_36":"10fs6po","区36":"c","地址":"江川路248弄","lng":121.41978476507416,"lat":31.00830728114608,"确诊日期36":"n"},{"SH_ID_36":"10fs6pp","区36":"c","地址":"江汉路751弄","lng":121.49214426711238,"lat":31.062685354746147,"确诊日期36":"n"},{"SH_ID_36":"10fs6pq","区36":"c","地址":"金光路699弄","lng":121.27371549221812,"lat":31.200149198817076,"确诊日期36":"n"},{"SH_ID_36":"10fs6pr","区36":"c","地址":"金平路328弄","lng":121.40804758027235,"lat":31.013198613047745,"确诊日期36":"n"},{"SH_ID_36":"10fs6ps","区36":"c","地址":"金平路788弄","lng":121.40564114637401,"lat":31.020306103497028,"确诊日期36":"n"},{"SH_ID_36":"10fs6pt","区36":"c","地址":"金阳路116弄","lng":121.42345061707333,"lat":31.039352808298737,"确诊日期36":"n"},{"SH_ID_36":"10fs6pu","区36":"c","地址":"锦梅路1500弄","lng":121.408289395614,"lat":31.111336017109174,"确诊日期36":"n"},{"SH_ID_36":"10fs6pv","区36":"c","地址":"景福路189弄","lng":121.40978263705817,"lat":31.122525495493658,"确诊日期36":"n"},{"SH_ID_36":"10fs6pw","区36":"c","地址":"景谷中路58弄","lng":121.41730070008445,"lat":31.02256048230757,"确诊日期36":"n"},{"SH_ID_36":"10fs6px","区36":"c","地址":"景联路388号","lng":121.44575260398094,"lat":31.100810641723545,"确诊日期36":"n"},{"SH_ID_36":"10fs6py","区36":"c","地址":"老沪闵路1111弄","lng":121.43572457286086,"lat":31.125903781072473,"确诊日期36":"n"},{"SH_ID_36":"10fs6pz","区36":"c","地址":"立跃路1758号","lng":121.53315139646294,"lat":31.09707451241462,"确诊日期36":"n"},{"SH_ID_36":"10fs6q0","区36":"c","地址":"立跃路3800弄","lng":121.49784243782436,"lat":31.086467998428578,"确诊日期36":"n"},{"SH_ID_36":"10fs6q1","区36":"c","地址":"莲花路1058弄","lng":121.39879738025193,"lat":31.151527879977444,"确诊日期36":"n"},{"SH_ID_36":"10fs6q2","区36":"c","地址":"莲花南路1388弄","lng":121.41097592811758,"lat":31.100785171217918,"确诊日期36":"n"},{"SH_ID_36":"10fs6q3","区36":"c","地址":"莲花南路431弄","lng":121.40819427582824,"lat":31.123068624988903,"确诊日期36":"n"},{"SH_ID_36":"10fs6q4","区36":"c","地址":"莲花南路565弄","lng":121.40680584662941,"lat":31.12006690921864,"确诊日期36":"n"},{"SH_ID_36":"10fs6q5","区36":"c","地址":"联航路2165弄","lng":121.50208752363707,"lat":31.07168000246997,"确诊日期36":"n"},{"SH_ID_36":"10fs6q6","区36":"c","地址":"联盛花苑","lng":121.34864259765325,"lat":31.143886023258595,"确诊日期36":"n"},{"SH_ID_36":"10fs6q7","区36":"c","地址":"龙柏二村","lng":121.36219170509395,"lat":31.181683622463538,"确诊日期36":"n"},{"SH_ID_36":"10fs6q8","区36":"c","地址":"龙柏七村","lng":121.36253431405761,"lat":31.173743558116847,"确诊日期36":"n"},{"SH_ID_36":"10fs6q9","区36":"c","地址":"龙柏三村","lng":121.3657827271725,"lat":31.180475216248595,"确诊日期36":"n"},{"SH_ID_36":"10fs6qa","区36":"c","地址":"龙柏四村","lng":121.36334484756848,"lat":31.178560985682164,"确诊日期36":"n"},{"SH_ID_36":"10fs6qb","区36":"c","地址":"龙柏五村","lng":121.36831101915817,"lat":31.175558015102954,"确诊日期36":"n"},{"SH_ID_36":"10fs6qc","区36":"c","地址":"龙柏一村","lng":121.36782035777935,"lat":31.183038341234344,"确诊日期36":"n"},{"SH_ID_36":"10fs6qd","区36":"c","地址":"龙茗路1699弄","lng":121.38191763284914,"lat":31.150491470021738,"确诊日期36":"n"},{"SH_ID_36":"10fs6qe","区36":"c","地址":"龙吴路3355号","lng":121.45535470677106,"lat":31.094014694381375,"确诊日期36":"n"},{"SH_ID_36":"10fs6qf","区36":"c","地址":"龙吴路4787弄","lng":121.46016783405436,"lat":31.06624817789625,"确诊日期36":"n"},{"SH_ID_36":"10fs6qg","区36":"c","地址":"龙州南路58弄","lng":121.43031168842818,"lat":31.123822749134945,"确诊日期36":"n"},{"SH_ID_36":"10fs6qh","区36":"c","地址":"芦恒路378弄","lng":121.49099589587324,"lat":31.11682651945735,"确诊日期36":"n"},{"SH_ID_36":"10fs6qi","区36":"c","地址":"芦胜村","lng":121.48045367497186,"lat":31.108022456292684,"确诊日期36":"n"},{"SH_ID_36":"10fs6qj","区36":"c","地址":"罗锦路111弄","lng":121.4159630315731,"lat":31.12442507142266,"确诊日期36":"n"},{"SH_ID_36":"10fs6qk","区36":"c","地址":"罗锦路69号","lng":121.42031919237839,"lat":31.124403788170515,"确诊日期36":"n"},{"SH_ID_36":"10fs6ql","区36":"c","地址":"罗锦路85号","lng":121.41848191958746,"lat":31.123441708714555,"确诊日期36":"n"},{"SH_ID_36":"10fs6qm","区36":"c","地址":"罗阳路258弄","lng":121.41086503292604,"lat":31.124453895959697,"确诊日期36":"n"},{"SH_ID_36":"10fs6qn","区36":"c","地址":"罗阳路568弄","lng":121.40400644082588,"lat":31.12131395503459,"确诊日期36":"n"},{"SH_ID_36":"10fs6qo","区36":"c","地址":"绿莲路100弄","lng":121.41327472014443,"lat":31.094813733014256,"确诊日期36":"n"},{"SH_ID_36":"10fs6qp","区36":"c","地址":"绿莲路99弄","lng":121.41438288325551,"lat":31.093727777323867,"确诊日期36":"n"},{"SH_ID_36":"10fs6qq","区36":"c","地址":"梅陇一村","lng":121.41240963007868,"lat":31.136275531823106,"确诊日期36":"n"},{"SH_ID_36":"10fs6qr","区36":"c","地址":"民建村","lng":121.4552247608473,"lat":31.095484805117867,"确诊日期36":"n"},{"SH_ID_36":"10fs6qs","区36":"c","地址":"名都路20弄","lng":121.3912654469228,"lat":31.10754198278387,"确诊日期36":"n"},{"SH_ID_36":"10fs6qt","区36":"c","地址":"平阳路1465弄","lng":121.38417997127436,"lat":31.133795298839352,"确诊日期36":"n"},{"SH_ID_36":"10fs6qu","区36":"c","地址":"平阳路360弄","lng":121.4020734704365,"lat":31.14166664414508,"确诊日期36":"n"},{"SH_ID_36":"10fs6qv","区36":"c","地址":"浦驰路235弄","lng":121.5024782305039,"lat":31.075197479403762,"确诊日期36":"n"},{"SH_ID_36":"10fs6qw","区36":"c","地址":"浦航路36弄","lng":121.54599790757618,"lat":31.044172248414938,"确诊日期36":"n"},{"SH_ID_36":"10fs6qx","区36":"c","地址":"浦江路58弄","lng":121.42717805399816,"lat":31.00016068666008,"确诊日期36":"n"},{"SH_ID_36":"10fs6qy","区36":"c","地址":"浦锦路2159弄","lng":121.48399493280084,"lat":31.113353646680274,"确诊日期36":"n"},{"SH_ID_36":"10fs6qz","区36":"c","地址":"浦秀路499弄","lng":121.49400087926976,"lat":31.078522682144044,"确诊日期36":"n"},{"SH_ID_36":"10fs6r0","区36":"c","地址":"普杰路26号","lng":121.42292535907272,"lat":31.115466941164474,"确诊日期36":"n"},{"SH_ID_36":"10fs6r1","区36":"c","地址":"七莘路3333号","lng":121.34355531148982,"lat":31.158522745994325,"确诊日期36":"n"},{"SH_ID_36":"10fs6r2","区36":"c","地址":"七莘路3885弄","lng":121.33859527479193,"lat":31.170132830243574,"确诊日期36":"n"},{"SH_ID_36":"10fs6r3","区36":"c","地址":"沁春路168弄","lng":121.37948984588792,"lat":31.099134320575992,"确诊日期36":"n"},{"SH_ID_36":"10fs6r4","区36":"c","地址":"上中西路1011弄","lng":121.41124108140954,"lat":31.128925787871033,"确诊日期36":"n"},{"SH_ID_36":"10fs6r5","区36":"c","地址":"上中西路738弄","lng":121.41705589703322,"lat":31.132266693168724,"确诊日期36":"n"},{"SH_ID_36":"10fs6r6","区36":"c","地址":"上中西路855弄","lng":121.41548785455252,"lat":31.129380411753573,"确诊日期36":"n"},{"SH_ID_36":"10fs6r7","区36":"c","地址":"上中西路925弄","lng":121.41244077061386,"lat":31.12899188226383,"确诊日期36":"n"},{"SH_ID_36":"10fs6r8","区36":"c","地址":"申北路350弄","lng":121.3799002478244,"lat":31.091362556571124,"确诊日期36":"n"},{"SH_ID_36":"10fs6r9","区36":"c","地址":"莘北路388号","lng":121.36667632323608,"lat":31.111922091287177,"确诊日期36":"n"},{"SH_ID_36":"10fs6ra","区36":"c","地址":"莘南花苑二村","lng":121.39824816573025,"lat":31.109634329424942,"确诊日期36":"n"},{"SH_ID_36":"10fs6rb","区36":"c","地址":"莘松路958弄","lng":121.35394512669068,"lat":31.106367022439066,"确诊日期36":"n"},{"SH_ID_36":"10fs6rc","区36":"c","地址":"莘谭路411弄","lng":121.37092689900122,"lat":31.10741291203524,"确诊日期36":"n"},{"SH_ID_36":"10fs6rd","区36":"c","地址":"莘朱路1760弄","lng":121.4200727336282,"lat":31.12192046327349,"确诊日期36":"n"},{"SH_ID_36":"10fs6re","区36":"c","地址":"莘朱路651弄","lng":121.39474180390607,"lat":31.110692100349542,"确诊日期36":"n"},{"SH_ID_36":"10fs6rf","区36":"c","地址":"石屏路399弄","lng":121.41864740528551,"lat":31.016774555519778,"确诊日期36":"n"},{"SH_ID_36":"10fs6rg","区36":"c","地址":"疏影路1020弄","lng":121.36290967966018,"lat":31.11945667461806,"确诊日期36":"n"},{"SH_ID_36":"10fs6rh","区36":"c","地址":"曙建路185弄","lng":121.41929794932115,"lat":31.09088630957334,"确诊日期36":"n"},{"SH_ID_36":"10fs6ri","区36":"c","地址":"曙建路51弄","lng":121.42129635305369,"lat":31.092663839505644,"确诊日期36":"n"},{"SH_ID_36":"10fs6rj","区36":"c","地址":"曙建路78弄","lng":121.41862794421442,"lat":31.092322621049327,"确诊日期36":"n"},{"SH_ID_36":"10fs6rk","区36":"c","地址":"双柏路1688弄","lng":121.42277826490617,"lat":31.086196964344676,"确诊日期36":"n"},{"SH_ID_36":"10fs6rl","区36":"c","地址":"双柏路1710弄","lng":121.42315044034831,"lat":31.084990109330334,"确诊日期36":"n"},{"SH_ID_36":"10fs6rm","区36":"c","地址":"苏民村","lng":121.53272952999855,"lat":31.108917865297975,"确诊日期36":"n"},{"SH_ID_36":"10fs6rn","区36":"c","地址":"塘口村","lng":121.48070524394025,"lat":31.088309311003314,"确诊日期36":"n"},{"SH_ID_36":"10fs6ro","区36":"c","地址":"塘浦路1070号","lng":121.47381816557154,"lat":31.10591010296413,"确诊日期36":"n"},{"SH_ID_36":"10fs6rp","区36":"c","地址":"塘湾村","lng":121.4424691899626,"lat":31.055162124000727,"确诊日期36":"n"},{"SH_ID_36":"10fs6rq","区36":"c","地址":"同乐路151弄","lng":121.41860035080079,"lat":31.12442704841911,"确诊日期36":"n"},{"SH_ID_36":"10fs6rr","区36":"c","地址":"同心村","lng":121.34532968741736,"lat":30.99241224700635,"确诊日期36":"n"},{"SH_ID_36":"10fs6rs","区36":"c","地址":"畹町路100弄","lng":121.40549689874241,"lat":31.105142844894182,"确诊日期36":"n"},{"SH_ID_36":"10fs6rt","区36":"c","地址":"畹町路99弄","lng":121.40130288705822,"lat":31.102327828874134,"确诊日期36":"n"},{"SH_ID_36":"10fs6ru","区36":"c","地址":"万源路580弄","lng":121.39759402889624,"lat":31.14418501116237,"确诊日期36":"n"},{"SH_ID_36":"10fs6rv","区36":"c","地址":"万源路986弄","lng":121.3968052611917,"lat":31.149194112118643,"确诊日期36":"n"},{"SH_ID_36":"10fs6rw","区36":"c","地址":"吴中路830弄","lng":121.39263588091852,"lat":31.17977262888175,"确诊日期36":"n"},{"SH_ID_36":"10fs6rx","区36":"c","地址":"西环路301号","lng":121.36631928324645,"lat":31.10717810349991,"确诊日期36":"n"},{"SH_ID_36":"10fs6ry","区36":"c","地址":"先进村","lng":121.53061111922685,"lat":31.035441411968222,"确诊日期36":"n"},{"SH_ID_36":"10fs6rz","区36":"c","地址":"向阳路1289号","lng":121.43582235949124,"lat":31.07537372316623,"确诊日期36":"n"},{"SH_ID_36":"10fs6s0","区36":"c","地址":"新建村","lng":121.44418821347855,"lat":31.06434938364262,"确诊日期36":"n"},{"SH_ID_36":"10fs6s1","区36":"c","地址":"新龙路1333弄","lng":121.33645505969315,"lat":31.151149205751448,"确诊日期36":"n"},{"SH_ID_36":"10fs6oi","区36":"c","地址":"行南村","lng":121.42764059643969,"lat":31.116089068928147,"确诊日期36":"n"},{"SH_ID_36":"10fs6s2","区36":"c","地址":"许泾村","lng":121.437465769575,"lat":31.0799681852384,"确诊日期36":"n"},{"SH_ID_36":"10fs6s3","区36":"c","地址":"许浦村","lng":121.33701341030412,"lat":31.224408060528294,"确诊日期36":"n"},{"SH_ID_36":"10fs6s4","区36":"c","地址":"杨家巷村","lng":121.30225369736513,"lat":31.223918615156673,"确诊日期36":"n"},{"SH_ID_36":"10fs6s5","区36":"c","地址":"业祥路111弄","lng":121.43602789825958,"lat":31.123795378498883,"确诊日期36":"n"},{"SH_ID_36":"10fs6s6","区36":"c","地址":"银春路1799弄","lng":121.3936875009414,"lat":31.02456766452151,"确诊日期36":"n"},{"SH_ID_36":"10fs6s7","区36":"c","地址":"银春路1800弄","lng":121.39458823379728,"lat":31.027641550191646,"确诊日期36":"n"},{"SH_ID_36":"10fs6s8","区36":"c","地址":"银春路2200弄","lng":121.38677101089844,"lat":31.02582900673316,"确诊日期36":"n"},{"SH_ID_36":"10fs6s9","区36":"c","地址":"银都路2688弄","lng":121.40660604863129,"lat":31.098021309405574,"确诊日期36":"n"},{"SH_ID_36":"10fs6sa","区36":"c","地址":"银都路3118弄","lng":121.39486152602042,"lat":31.093759877301014,"确诊日期36":"n"},{"SH_ID_36":"10fs6sb","区36":"c","地址":"银林路100弄","lng":121.38875697567933,"lat":31.021065047891867,"确诊日期36":"n"},{"SH_ID_36":"10fs6sc","区36":"c","地址":"永高路255弄","lng":121.49747752885914,"lat":31.03146613730367,"确诊日期36":"n"},{"SH_ID_36":"10fs6sd","区36":"c","地址":"永联村","lng":121.44257567026955,"lat":31.105468024422795,"确诊日期36":"n"},{"SH_ID_36":"10fs6se","区36":"c","地址":"永平南路198弄","lng":121.43397966523143,"lat":31.01283266913062,"确诊日期36":"n"},{"SH_ID_36":"10fs6sf","区36":"c","地址":"永跃路555弄","lng":121.50993538299858,"lat":31.03095635693903,"确诊日期36":"n"},{"SH_ID_36":"10fs6sg","区36":"c","地址":"元和路181弄","lng":121.3832391586212,"lat":31.051334539036347,"确诊日期36":"n"},{"SH_ID_36":"10fs6sh","区36":"c","地址":"元江路4805弄","lng":121.37311014142468,"lat":31.039242693522485,"确诊日期36":"n"},{"SH_ID_36":"10fs6si","区36":"c","地址":"中春路6689弄","lng":121.34954561788399,"lat":31.132289311291384,"确诊日期36":"n"},{"SH_ID_36":"10fs6sj","区36":"c","地址":"中春路6785号","lng":121.34919234472778,"lat":31.1339095884529,"确诊日期36":"n"},{"SH_ID_36":"10fs6sk","区36":"c","地址":"中心村","lng":121.40638583926476,"lat":31.035074741337286,"确诊日期36":"n"},{"SH_ID_36":"10fs6sl","区36":"c","地址":"颛兴路345弄","lng":121.39425000058534,"lat":31.0654565807729,"确诊日期36":"n"},{"SH_ID_36":"10fs6sm","区36":"c","地址":"颛兴路358弄","lng":121.39367423015416,"lat":31.06637566348196,"确诊日期36":"n"},{"SH_ID_36":"10fs6sn","区36":"c","地址":"颛兴路666弄","lng":121.38899466198214,"lat":31.06499061412881,"确诊日期36":"n"},{"SH_ID_36":"10fs6so","区36":"c","地址":"颛兴路748弄","lng":121.38630252261103,"lat":31.064870843853484,"确诊日期36":"n"},{"SH_ID_36":"10fs6sp","区36":"c","地址":"紫藤二村","lng":121.41123719531498,"lat":31.130675904951147,"确诊日期36":"n"},{"SH_ID_36":"10fs6sq","区36":"c","地址":"紫薇新村","lng":121.2978698942705,"lat":31.202066103453078,"确诊日期36":"n"},{"SH_ID_36":"10fs5rv","区36":"f","地址":"八灶村郭家宅","lng":121.71572859311304,"lat":31.153177165147696,"确诊日期36":"n"},{"SH_ID_36":"10fs5i3","区36":"f","地址":"白莲泾路与浦东南路交界口工地生活区","lng":121.54858265342249,"lat":31.204742981145955,"确诊日期36":"n"},{"SH_ID_36":"10fs5wq","区36":"f","地址":"板泉路1201弄","lng":121.50544616436078,"lat":31.16273470240234,"确诊日期36":"n"},{"SH_ID_36":"10fs5nb","区36":"f","地址":"板泉路1567弄","lng":121.5130561564093,"lat":31.16317735673835,"确诊日期36":"n"},{"SH_ID_36":"10fs5v4","区36":"f","地址":"板泉路2101弄","lng":121.53172782126985,"lat":31.1683884249043,"确诊日期36":"n"},{"SH_ID_36":"10fs5tt","区36":"f","地址":"北艾路1077弄","lng":121.53633430613564,"lat":31.18117434948926,"确诊日期36":"n"},{"SH_ID_36":"10fs5wo","区36":"f","地址":"北艾路155弄","lng":121.54309715221106,"lat":31.18568141735106,"确诊日期36":"n"},{"SH_ID_36":"10fs5u0","区36":"f","地址":"北艾路1765弄","lng":121.52327598743811,"lat":31.17790306503873,"确诊日期36":"n"},{"SH_ID_36":"10fs5u6","区36":"f","地址":"北艾路73弄","lng":121.54476068269807,"lat":31.18531788122987,"确诊日期36":"n"},{"SH_ID_36":"10fs5w0","区36":"f","地址":"北蔡大街","lng":121.55380758514836,"lat":31.187506468120407,"确诊日期36":"n"},{"SH_ID_36":"10fs5tn","区36":"f","地址":"北蔡麦家宅","lng":121.54761114221311,"lat":31.164008961814588,"确诊日期36":"n"},{"SH_ID_36":"10fs5u4","区36":"f","地址":"北蔡镇北中路周家宅","lng":121.55369315831084,"lat":31.182723011200164,"确诊日期36":"n"},{"SH_ID_36":"10fs5xm","区36":"f","地址":"北蔡镇杨莲路李家宅","lng":121.54976805941725,"lat":31.16494725312368,"确诊日期36":"n"},{"SH_ID_36":"10fs5tm","区36":"f","地址":"北蔡镇杨莲路张家宅","lng":121.54992688872771,"lat":31.164930326478892,"确诊日期36":"n"},{"SH_ID_36":"10fs5u3","区36":"f","地址":"北蔡周家宅","lng":121.7695034135917,"lat":31.190289324279775,"确诊日期36":"n"},{"SH_ID_36":"10fs5vz","区36":"f","地址":"北市街308弄","lng":121.7017844781445,"lat":31.19918289328679,"确诊日期36":"n"},{"SH_ID_36":"10fs608","区36":"f","地址":"北新村","lng":121.53902344022268,"lat":31.35331355823262,"确诊日期36":"n"},{"SH_ID_36":"10fs5li","区36":"f","地址":"北洋泾路601号","lng":121.55089148598034,"lat":31.243423049992614,"确诊日期36":"n"},{"SH_ID_36":"10fs5pd","区36":"f","地址":"北油车弄","lng":121.57888232129912,"lat":31.117043856185035,"确诊日期36":"n"},{"SH_ID_36":"10fs5ja","区36":"f","地址":"博华路930弄","lng":121.55080707408597,"lat":31.17402713665526,"确诊日期36":"n"},{"SH_ID_36":"10fs5lf","区36":"f","地址":"博华路999弄","lng":121.5499414324223,"lat":31.170208604331474,"确诊日期36":"n"},{"SH_ID_36":"10fs5ki","区36":"f","地址":"博山东路20弄","lng":121.5599761700136,"lat":31.245460105780612,"确诊日期36":"n"},{"SH_ID_36":"10fs5kc","区36":"f","地址":"博山东路440弄","lng":121.5685340095258,"lat":31.252015305448435,"确诊日期36":"n"},{"SH_ID_36":"10fs60g","区36":"f","地址":"博山东路556弄","lng":121.56074345117653,"lat":31.24766419995734,"确诊日期36":"n"},{"SH_ID_36":"10fs5ze","区36":"f","地址":"博兴路1185弄","lng":121.59477754662477,"lat":31.267532593406656,"确诊日期36":"n"},{"SH_ID_36":"10fs5jr","区36":"f","地址":"博兴路1383弄","lng":121.5986260935116,"lat":31.26935812881635,"确诊日期36":"n"},{"SH_ID_36":"10fs5w2","区36":"f","地址":"博兴路1768弄","lng":121.60178999650097,"lat":31.277515622646035,"确诊日期36":"n"},{"SH_ID_36":"10fs5up","区36":"f","地址":"博兴路250弄","lng":121.57868632111251,"lat":31.268902281069757,"确诊日期36":"n"},{"SH_ID_36":"10fs5ls","区36":"f","地址":"博兴路462弄","lng":121.58198593831807,"lat":31.265349803272702,"确诊日期36":"n"},{"SH_ID_36":"10fs5qw","区36":"f","地址":"博兴路465弄","lng":121.58550570236751,"lat":31.26605204583347,"确诊日期36":"n"},{"SH_ID_36":"10fs5qx","区36":"f","地址":"博兴路616弄","lng":121.58501106392502,"lat":31.263404488251208,"确诊日期36":"n"},{"SH_ID_36":"10fs5lb","区36":"f","地址":"博兴路799弄","lng":121.59038977424915,"lat":31.26607728861874,"确诊日期36":"n"},{"SH_ID_36":"10fs5zk","区36":"f","地址":"博兴路986弄","lng":121.59324208826858,"lat":31.265332042115634,"确诊日期36":"n"},{"SH_ID_36":"10fs5zp","区36":"f","地址":"曹黄村","lng":121.69068047447995,"lat":31.26933362821714,"确诊日期36":"n"},{"SH_ID_36":"10fs5n2","区36":"f","地址":"曹路民建村北邵家宅","lng":121.64902398112103,"lat":31.274499875436288,"确诊日期36":"n"},{"SH_ID_36":"10fs5r7","区36":"f","地址":"草高支路938弄","lng":121.56663078343925,"lat":31.351562407509437,"确诊日期36":"n"},{"SH_ID_36":"10fs5gd","区36":"f","地址":"昌里东路650弄","lng":121.51765487461869,"lat":31.178969925673005,"确诊日期36":"n"},{"SH_ID_36":"10fs5gt","区36":"f","地址":"昌里东路71弄","lng":121.50610646998403,"lat":31.17618430872037,"确诊日期36":"n"},{"SH_ID_36":"10fs5iq","区36":"f","地址":"昌里路167弄","lng":121.49773755183375,"lat":31.1751442769779,"确诊日期36":"n"},{"SH_ID_36":"10fs5jd","区36":"f","地址":"昌里路340弄","lng":121.49180067397123,"lat":31.17199707215112,"确诊日期36":"n"},{"SH_ID_36":"10fs5g9","区36":"f","地址":"朝农新村","lng":121.83575108238816,"lat":31.09724628633351,"确诊日期36":"n"},{"SH_ID_36":"10fs5pm","区36":"f","地址":"车站新村","lng":121.64331174545354,"lat":31.026554842989647,"确诊日期36":"n"},{"SH_ID_36":"10fs5zu","区36":"f","地址":"陈行村","lng":121.49821234030246,"lat":31.092169241637205,"确诊日期36":"n"},{"SH_ID_36":"10fs5yc","区36":"f","地址":"陈行公路158号","lng":121.52423381492616,"lat":31.122392466248662,"确诊日期36":"n"},{"SH_ID_36":"10fs5wl","区36":"f","地址":"成山路1728弄","lng":121.53182651125346,"lat":31.176902018769976,"确诊日期36":"n"},{"SH_ID_36":"10fs5sz","区36":"f","地址":"成山路1850弄","lng":121.53254561193182,"lat":31.17689112875493,"确诊日期36":"n"},{"SH_ID_36":"10fs5pt","区36":"f","地址":"成山路2388弄","lng":121.5459573454685,"lat":31.17943120156483,"确诊日期36":"n"},{"SH_ID_36":"10fs5pc","区36":"f","地址":"成山路24弄","lng":121.48582357094008,"lat":31.168159549150705,"确诊日期36":"n"},{"SH_ID_36":"10fs5mo","区36":"f","地址":"诚礼路298弄","lng":121.6671048349595,"lat":31.224798488270423,"确诊日期36":"n"},{"SH_ID_36":"10fs5pi","区36":"f","地址":"城丰路15弄","lng":121.69038107120915,"lat":31.191239532193517,"确诊日期36":"n"},{"SH_ID_36":"10fs5mg","区36":"f","地址":"城丰路288弄","lng":121.68401438367793,"lat":31.19008476689029,"确诊日期36":"n"},{"SH_ID_36":"10fs5zw","区36":"f","地址":"城丰路599弄","lng":121.68044740688953,"lat":31.18619926999911,"确诊日期36":"n"},{"SH_ID_36":"10fs5tq","区36":"f","地址":"城南路1111弄","lng":121.77254781685976,"lat":31.04289544649929,"确诊日期36":"n"},{"SH_ID_36":"10fs5ut","区36":"f","地址":"城南路267弄","lng":121.70630247072279,"lat":31.191947839111645,"确诊日期36":"n"},{"SH_ID_36":"10fs5rx","区36":"f","地址":"城南路627弄","lng":121.69426539030957,"lat":31.189136399810447,"确诊日期36":"n"},{"SH_ID_36":"10fs5i2","区36":"f","地址":"城西路195弄","lng":121.69333194443246,"lat":31.194204349798664,"确诊日期36":"n"},{"SH_ID_36":"10fs5tk","区36":"f","地址":"川北公路2820号","lng":121.61190779856763,"lat":31.204761495624375,"确诊日期36":"n"},{"SH_ID_36":"10fs5vn","区36":"f","地址":"川环南路1049弄","lng":121.6941126044979,"lat":31.184564858659037,"确诊日期36":"n"},{"SH_ID_36":"10fs5vg","区36":"f","地址":"川黄路248弄","lng":121.70483463148356,"lat":31.190090810713222,"确诊日期36":"n"},{"SH_ID_36":"10fs5mp","区36":"f","地址":"川沙路3639号","lng":121.69014939912975,"lat":31.216337241153493,"确诊日期36":"n"},{"SH_ID_36":"10fs5qh","区36":"f","地址":"川沙路5015弄","lng":121.6992556493659,"lat":31.191832255789357,"确诊日期36":"n"},{"SH_ID_36":"10fs5mh","区36":"f","地址":"川沙路5122弄","lng":121.6976615606066,"lat":31.190131110392805,"确诊日期36":"n"},{"SH_ID_36":"10fs5il","区36":"f","地址":"川沙路5245弄","lng":121.69911213665745,"lat":31.188552277892782,"确诊日期36":"n"},{"SH_ID_36":"10fs5yg","区36":"f","地址":"川银路81弄","lng":121.68622822563998,"lat":31.19286371047477,"确诊日期36":"n"},{"SH_ID_36":"10fs5hk","区36":"f","地址":"川周公路3010弄","lng":121.61182741406668,"lat":31.14381907684877,"确诊日期36":"n"},{"SH_ID_36":"10fs5v2","区36":"f","地址":"川周公路3078号","lng":121.61046322827286,"lat":31.140179026520567,"确诊日期36":"n"},{"SH_ID_36":"10fs5ne","区36":"f","地址":"川周公路4293弄","lng":121.58142442012276,"lat":31.12042145472076,"确诊日期36":"n"},{"SH_ID_36":"10fs5ni","区36":"f","地址":"川周公路4318弄","lng":121.57982693491577,"lat":31.121878902118656,"确诊日期36":"n"},{"SH_ID_36":"10fs5pj","区36":"f","地址":"川周公路8288弄","lng":121.70975771807349,"lat":31.178483370437895,"确诊日期36":"n"},{"SH_ID_36":"10fs5mf","区36":"f","地址":"川周公路8682号","lng":121.70949815446231,"lat":31.184259330209784,"确诊日期36":"n"},{"SH_ID_36":"10fs5nz","区36":"f","地址":"川周路8828弄","lng":121.7097343826828,"lat":31.187482223312998,"确诊日期36":"n"},{"SH_ID_36":"10fs5q8","区36":"f","地址":"创新西路75弄","lng":121.65593268487943,"lat":31.202453603161725,"确诊日期36":"n"},{"SH_ID_36":"10fs5m9","区36":"f","地址":"春晖路276弄","lng":121.58452410824891,"lat":31.341425784027575,"确诊日期36":"n"},{"SH_ID_36":"10fs5h1","区36":"f","地址":"春晖路368弄","lng":121.58243595388328,"lat":31.339529991468826,"确诊日期36":"n"},{"SH_ID_36":"10fs5gu","区36":"f","地址":"大道站路94弄","lng":121.5392894931342,"lat":31.15939467157554,"确诊日期36":"n"},{"SH_ID_36":"10fs5rh","区36":"f","地址":"大陆家宅","lng":121.5458273984516,"lat":31.240105980346893,"确诊日期36":"n"},{"SH_ID_36":"10fs5q7","区36":"f","地址":"大众村","lng":121.60310282727981,"lat":31.200920141379406,"确诊日期36":"n"},{"SH_ID_36":"10fs5y1","区36":"f","地址":"德平路1125弄","lng":121.56972844240443,"lat":31.241878362666007,"确诊日期36":"n"},{"SH_ID_36":"10fs5s7","区36":"f","地址":"德平路1134弄","lng":121.56976737135625,"lat":31.239085613302116,"确诊日期36":"n"},{"SH_ID_36":"10fs5me","区36":"f","地址":"德平路1189弄","lng":121.57165736872122,"lat":31.240160916931,"确诊日期36":"n"},{"SH_ID_36":"10fs5md","区36":"f","地址":"德平路24弄","lng":121.5568180544862,"lat":31.253552180311996,"确诊日期36":"n"},{"SH_ID_36":"10fs5kf","区36":"f","地址":"德平路25弄","lng":121.55771043003837,"lat":31.254190753320305,"确诊日期36":"n"},{"SH_ID_36":"10fs5r8","区36":"f","地址":"德平路778号","lng":121.56579590886629,"lat":31.243568643463945,"确诊日期36":"n"},{"SH_ID_36":"10fs5pg","区36":"f","地址":"德州路220弄","lng":121.49551555329583,"lat":31.168259666694613,"确诊日期36":"n"},{"SH_ID_36":"10fs5vc","区36":"f","地址":"德州路26号","lng":121.4998107060915,"lat":31.168617398539244,"确诊日期36":"n"},{"SH_ID_36":"10fs5m4","区36":"f","地址":"叠桥村","lng":121.61633746673367,"lat":31.1279295496365,"确诊日期36":"n"},{"SH_ID_36":"10fs5ly","区36":"f","地址":"东波路195弄","lng":121.57987013975861,"lat":31.285049755175166,"确诊日期36":"n"},{"SH_ID_36":"10fs5y3","区36":"f","地址":"东波路325弄","lng":121.58332253604864,"lat":31.284868763762187,"确诊日期36":"n"},{"SH_ID_36":"10fs5ka","区36":"f","地址":"东波路585弄","lng":121.58663643401407,"lat":31.285054222905156,"确诊日期36":"n"},{"SH_ID_36":"10fs603","区36":"f","地址":"东方路1365号","lng":121.52982126671024,"lat":31.212722911048573,"确诊日期36":"n"},{"SH_ID_36":"10fs5mu","区36":"f","地址":"东方路1800弄","lng":121.52246337927153,"lat":31.2028323784339,"确诊日期36":"n"},{"SH_ID_36":"10fs5sp","区36":"f","地址":"东方路1881弄","lng":121.52175015337315,"lat":31.19914932354566,"确诊日期36":"n"},{"SH_ID_36":"10fs5hd","区36":"f","地址":"东风村","lng":121.69867976200787,"lat":31.227520395083733,"确诊日期36":"n"},{"SH_ID_36":"10fs5yw","区36":"f","地址":"东高路30弄","lng":121.57484981311175,"lat":31.288262134129905,"确诊日期36":"n"},{"SH_ID_36":"10fs5tx","区36":"f","地址":"东海村","lng":121.81857065825423,"lat":31.083086652665767,"确诊日期36":"n"},{"SH_ID_36":"10fs5ot","区36":"f","地址":"东靖路669弄","lng":121.58628010772556,"lat":31.293982379929897,"确诊日期36":"n"},{"SH_ID_36":"10fs5px","区36":"f","地址":"东康名苑","lng":121.5442027051804,"lat":31.22139599020665,"确诊日期36":"n"},{"SH_ID_36":"10fs5jo","区36":"f","地址":"东陆路1018弄","lng":121.5927116838994,"lat":31.27280028060184,"确诊日期36":"n"},{"SH_ID_36":"10fs602","区36":"f","地址":"东陆路1182弄","lng":121.59573171482616,"lat":31.270721427702902,"确诊日期36":"n"},{"SH_ID_36":"10fs5hy","区36":"f","地址":"东陆路1221号","lng":121.59775076475647,"lat":31.27101799372392,"确诊日期36":"n"},{"SH_ID_36":"10fs5hw","区36":"f","地址":"东陆路1268弄","lng":121.59612313919563,"lat":31.26847417358679,"确诊日期36":"n"},{"SH_ID_36":"10fs5jp","区36":"f","地址":"东陆路1301号","lng":121.59876951867643,"lat":31.270293086377656,"确诊日期36":"n"},{"SH_ID_36":"10fs5jq","区36":"f","地址":"东陆路1350弄","lng":121.60159681312678,"lat":31.267136598505996,"确诊日期36":"n"},{"SH_ID_36":"10fs5ql","区36":"f","地址":"东陆路898弄","lng":121.59150604256929,"lat":31.273310411056922,"确诊日期36":"n"},{"SH_ID_36":"10fs5ts","区36":"f","地址":"东三街102弄","lng":121.50972003484101,"lat":31.20142648986606,"确诊日期36":"n"},{"SH_ID_36":"10fs5sm","区36":"f","地址":"东三里桥路160弄","lng":121.51030305203908,"lat":31.199435385036928,"确诊日期36":"n"},{"SH_ID_36":"10fs5gk","区36":"f","地址":"东书房路560弄","lng":121.53465028769581,"lat":31.161487248513367,"确诊日期36":"n"},{"SH_ID_36":"10fs5gs","区36":"f","地址":"东泰林路799弄","lng":121.54338378413273,"lat":31.143079072252082,"确诊日期36":"n"},{"SH_ID_36":"10fs5hh","区36":"f","地址":"东绣路1155弄","lng":121.53512231256732,"lat":31.19880703760592,"确诊日期36":"n"},{"SH_ID_36":"10fs5zr","区36":"f","地址":"东绣路999弄","lng":121.53662622185958,"lat":31.20262224699932,"确诊日期36":"n"},{"SH_ID_36":"10fs5l3","区36":"f","地址":"东窑新村","lng":121.64127331428335,"lat":31.197155107698837,"确诊日期36":"n"},{"SH_ID_36":"10fs5jn","区36":"f","地址":"东园三村","lng":121.514815024391,"lat":31.230583862448853,"确诊日期36":"n"},{"SH_ID_36":"10fs5uw","区36":"f","地址":"繁荣东路150弄","lng":121.58769923597816,"lat":31.1059880887715,"确诊日期36":"n"},{"SH_ID_36":"10fs5v0","区36":"f","地址":"芳华路310弄","lng":121.55769305974516,"lat":31.19473701375151,"确诊日期36":"n"},{"SH_ID_36":"10fs5t3","区36":"f","地址":"芳华路371弄","lng":121.55762941181077,"lat":31.19626240866121,"确诊日期36":"n"},{"SH_ID_36":"10fs5v1","区36":"f","地址":"芳华路478弄","lng":121.56001609376439,"lat":31.195015152158348,"确诊日期36":"n"},{"SH_ID_36":"10fs5wc","区36":"f","地址":"芳华路580弄","lng":121.56201288930312,"lat":31.195977288845725,"确诊日期36":"n"},{"SH_ID_36":"10fs5ku","区36":"f","地址":"芳华路630弄","lng":121.56413823336837,"lat":31.196563953668534,"确诊日期36":"n"},{"SH_ID_36":"10fs5sj","区36":"f","地址":"芳华路673弄","lng":121.55985711721362,"lat":31.19614939059082,"确诊日期36":"n"},{"SH_ID_36":"10fs5uz","区36":"f","地址":"芳华路916弄","lng":121.5680835880892,"lat":31.19623285413291,"确诊日期36":"n"},{"SH_ID_36":"10fs5t6","区36":"f","地址":"芳华路933弄","lng":121.568532279405,"lat":31.19803768713267,"确诊日期36":"n"},{"SH_ID_36":"10fs5ok","区36":"f","地址":"福山路100弄","lng":121.52711008427076,"lat":31.23238319179373,"确诊日期36":"n"},{"SH_ID_36":"10fs5no","区36":"f","地址":"福山路307号","lng":121.52917025228686,"lat":31.229597287427758,"确诊日期36":"n"},{"SH_ID_36":"10fs5so","区36":"f","地址":"港机新村","lng":121.50819723763583,"lat":31.191076921168655,"确诊日期36":"n"},{"SH_ID_36":"10fs5xw","区36":"f","地址":"高宝路528弄","lng":121.62811783753733,"lat":31.293003583296066,"确诊日期36":"n"},{"SH_ID_36":"10fs5i0","区36":"f","地址":"高科西路3030弄","lng":121.56295029062336,"lat":31.189373015898955,"确诊日期36":"n"},