[{"SH_ID_36":"10g8y68","区36":"d","地址":"爱辉路213号","lng":121.4545960573188,"lat":31.33290271295219,"确诊日期36":"w"},{"SH_ID_36":"10g8y69","区36":"d","地址":"白杨村","lng":121.39621880838429,"lat":31.342103979576326,"确诊日期36":"w"},{"SH_ID_36":"10g8y6a","区36":"d","地址":"宝安公路251弄","lng":121.38152082065797,"lat":31.359418463125074,"确诊日期36":"w"},{"SH_ID_36":"10g8y6b","区36":"d","地址":"宝钢八村","lng":121.47905648473144,"lat":31.408011532739238,"确诊日期36":"w"},{"SH_ID_36":"10g8y6d","区36":"d","地址":"宝林六村","lng":121.4989706607212,"lat":31.402747071791048,"确诊日期36":"w"},{"SH_ID_36":"10g8y6c","区36":"d","地址":"宝林三村","lng":121.49365501106716,"lat":31.40200999941557,"确诊日期36":"w"},{"SH_ID_36":"10g8y6e","区36":"d","地址":"宝泉路32号","lng":121.42976564058027,"lat":31.415072773559995,"确诊日期36":"w"},{"SH_ID_36":"10g8y6f","区36":"d","地址":"宝杨路1850号","lng":121.47606046906931,"lat":31.392079405650048,"确诊日期36":"w"},{"SH_ID_36":"10g8y6g","区36":"d","地址":"宝杨路2000号","lng":121.47106201318195,"lat":31.39123802553686,"确诊日期36":"w"},{"SH_ID_36":"10g8y6j","区36":"d","地址":"陈家行村","lng":121.35078494291105,"lat":31.327562865800065,"确诊日期36":"w"},{"SH_ID_36":"10g8y6k","区36":"d","地址":"陈巷村","lng":121.47380741259404,"lat":31.376684973792642,"确诊日期36":"w"},{"SH_ID_36":"10g8y6l","区36":"d","地址":"城银路655弄","lng":121.34915238094275,"lat":31.31588921570631,"确诊日期36":"w"},{"SH_ID_36":"10g8y6m","区36":"d","地址":"川念路58号","lng":121.37658568624663,"lat":31.482080705716758,"确诊日期36":"w"},{"SH_ID_36":"10g8y6n","区36":"d","地址":"川念路888号","lng":121.37686455972622,"lat":31.481728738243227,"确诊日期36":"w"},{"SH_ID_36":"10g8y6o","区36":"d","地址":"德都路165弄","lng":121.4266322502273,"lat":31.408900615116465,"确诊日期36":"w"},{"SH_ID_36":"10g8y6p","区36":"d","地址":"东街村","lng":121.43769670238173,"lat":31.38226854354049,"确诊日期36":"w"},{"SH_ID_36":"10g8y6r","区36":"d","地址":"东太路219弄","lng":121.36365932086663,"lat":31.385940822404923,"确诊日期36":"w"},{"SH_ID_36":"10g8y6q","区36":"d","地址":"东太路80弄","lng":121.36725658280047,"lat":31.386306349328457,"确诊日期36":"w"},{"SH_ID_36":"10g8y6s","区36":"d","地址":"鄂尔多斯路67弄","lng":121.39062167072044,"lat":31.29492944756753,"确诊日期36":"w"},{"SH_ID_36":"10g8y6t","区36":"d","地址":"鄂尔多斯路98弄","lng":121.39133284750952,"lat":31.295782734901714,"确诊日期36":"w"},{"SH_ID_36":"10g8y6u","区36":"d","地址":"繁荣村","lng":121.36155270564542,"lat":31.40811369637473,"确诊日期36":"w"},{"SH_ID_36":"10g8y6v","区36":"d","地址":"范家园新村","lng":121.34273650530977,"lat":31.410034079464037,"确诊日期36":"w"},{"SH_ID_36":"10g8y6w","区36":"d","地址":"丰皓路658弄","lng":121.38906600649409,"lat":31.30647565396121,"确诊日期36":"w"},{"SH_ID_36":"10g8y6x","区36":"d","地址":"丰明村","lng":121.38025431564843,"lat":31.303824942002375,"确诊日期36":"w"},{"SH_ID_36":"10g8y6y","区36":"d","地址":"抚远路1872号","lng":121.35817966919984,"lat":31.418021642878802,"确诊日期36":"w"},{"SH_ID_36":"10g8y6z","区36":"d","地址":"富锦路5278弄","lng":121.36152949530093,"lat":31.382537099187463,"确诊日期36":"w"},{"SH_ID_36":"10g8y70","区36":"d","地址":"富南路199弄","lng":121.36589454254113,"lat":31.389839667900624,"确诊日期36":"w"},{"SH_ID_36":"10g8y71","区36":"d","地址":"富南路256弄","lng":121.36325518617109,"lat":31.38908589615794,"确诊日期36":"w"},{"SH_ID_36":"10g8y72","区36":"d","地址":"富强村","lng":121.35009004419838,"lat":31.39523531444787,"确诊日期36":"w"},{"SH_ID_36":"10g8y73","区36":"d","地址":"高境二村","lng":121.47890509192798,"lat":31.322553860790382,"确诊日期36":"w"},{"SH_ID_36":"10g8y74","区36":"d","地址":"高境路477弄","lng":121.47197400164498,"lat":31.323632467185398,"确诊日期36":"w"},{"SH_ID_36":"10g8y75","区36":"d","地址":"共富路99弄","lng":121.43301118118006,"lat":31.35135449016085,"确诊日期36":"w"},{"SH_ID_36":"10g8y76","区36":"d","地址":"共和二村","lng":121.46139565788594,"lat":31.321653607348576,"确诊日期36":"w"},{"SH_ID_36":"10g8y77","区36":"d","地址":"共和三村","lng":121.45860933055643,"lat":31.32217131729572,"确诊日期36":"w"},{"SH_ID_36":"10g8y78","区36":"d","地址":"共和五村","lng":121.46415970864443,"lat":31.32406275195221,"确诊日期36":"w"},{"SH_ID_36":"10g8y79","区36":"d","地址":"共和新路4703弄","lng":121.44881278750165,"lat":31.318877540949522,"确诊日期36":"w"},{"SH_ID_36":"10g8y7a","区36":"d","地址":"共和新路4719弄","lng":121.44925875880473,"lat":31.31938380253696,"确诊日期36":"w"},{"SH_ID_36":"10g8y7b","区36":"d","地址":"顾太路7号","lng":121.40073043841512,"lat":31.341581105823586,"确诊日期36":"w"},{"SH_ID_36":"10g8y7c","区36":"d","地址":"广福村","lng":121.3394662544289,"lat":31.348451948573132,"确诊日期36":"w"},{"SH_ID_36":"10g8y7d","区36":"d","地址":"国权北路290弄","lng":121.49430889701219,"lat":31.317030026677816,"确诊日期36":"w"},{"SH_ID_36":"10g8y7e","区36":"d","地址":"国权北路351弄","lng":121.4965060335852,"lat":31.315225565458512,"确诊日期36":"w"},{"SH_ID_36":"10g8y7f","区36":"d","地址":"国权北路460弄","lng":121.49386853460602,"lat":31.318451381201825,"确诊日期36":"w"},{"SH_ID_36":"10g8y7g","区36":"d","地址":"国权北路828弄","lng":121.49194224390762,"lat":31.329360728252766,"确诊日期36":"w"},{"SH_ID_36":"10g8y7h","区36":"d","地址":"海笛路333弄","lng":121.41995683002563,"lat":31.391489554036834,"确诊日期36":"w"},{"SH_ID_36":"10g8y7k","区36":"d","地址":"合建村","lng":121.3360761083413,"lat":31.466536610652085,"确诊日期36":"w"},{"SH_ID_36":"10g8y7m","区36":"d","地址":"鹤林路298弄","lng":121.39961177293021,"lat":31.453691956329006,"确诊日期36":"w"},{"SH_ID_36":"10g8y7l","区36":"d","地址":"鹤林路58弄","lng":121.4041740989798,"lat":31.446957559372855,"确诊日期36":"w"},{"SH_ID_36":"10g8y7o","区36":"d","地址":"恒高路127弄","lng":121.46891914449628,"lat":31.326156079045774,"确诊日期36":"w"},{"SH_ID_36":"10g8y7p","区36":"d","地址":"恒高路128弄","lng":121.47049842245768,"lat":31.32374093908257,"确诊日期36":"w"},{"SH_ID_36":"10g8y7n","区36":"d","地址":"恒高路83弄","lng":121.47126640243259,"lat":31.325870171522574,"确诊日期36":"w"},{"SH_ID_36":"10g8y7q","区36":"d","地址":"红林路99弄","lng":121.43219491285707,"lat":31.36689225153163,"确诊日期36":"w"},{"SH_ID_36":"10g8y7r","区36":"d","地址":"呼兰路455弄","lng":121.43971180652582,"lat":31.34079342346685,"确诊日期36":"w"},{"SH_ID_36":"10g8y7s","区36":"d","地址":"呼兰路515弄","lng":121.45011592179642,"lat":31.346916963485814,"确诊日期36":"w"},{"SH_ID_36":"10g8y7u","区36":"d","地址":"呼玛四村","lng":121.44546886044739,"lat":31.34405038972935,"确诊日期36":"w"},{"SH_ID_36":"10g8y7t","区36":"d","地址":"呼玛一村","lng":121.45184012359616,"lat":31.341683425639733,"确诊日期36":"w"},{"SH_ID_36":"10g8y7v","区36":"d","地址":"沪太路2611号","lng":121.41280987413244,"lat":31.308435732493102,"确诊日期36":"w"},{"SH_ID_36":"10g8y7w","区36":"d","地址":"沪太路2899弄","lng":121.4075168455412,"lat":31.31614386711776,"确诊日期36":"w"},{"SH_ID_36":"10g8y7x","区36":"d","地址":"沪太路6369号","lng":121.35999811866698,"lat":31.38266771581848,"确诊日期36":"w"},{"SH_ID_36":"10g8y7y","区36":"d","地址":"沪太路6387号","lng":121.35943976650691,"lat":31.38306073697727,"确诊日期36":"w"},{"SH_ID_36":"10g8y7z","区36":"d","地址":"华浜新村","lng":121.49352876236746,"lat":31.348843782897493,"确诊日期36":"w"},{"SH_ID_36":"10g8y80","区36":"d","地址":"华灵路1900弄","lng":121.40456309123596,"lat":31.277413074651314,"确诊日期36":"w"},{"SH_ID_36":"10g8y81","区36":"d","地址":"集贤路500弄","lng":121.34993406678313,"lat":31.420826995286514,"确诊日期36":"w"},{"SH_ID_36":"10g8y82","区36":"d","地址":"江杨南路1098号","lng":121.4655207470475,"lat":31.32639826723637,"确诊日期36":"w"},{"SH_ID_36":"10g8y83","区36":"d","地址":"江杨南路2550弄","lng":121.46073439340081,"lat":31.350984743506928,"确诊日期36":"w"},{"SH_ID_36":"10g8y84","区36":"d","地址":"蒋巷街54弄","lng":121.3481828975678,"lat":31.412676586076362,"确诊日期36":"w"},{"SH_ID_36":"10g8y85","区36":"d","地址":"解放村","lng":121.33375363047858,"lat":31.444697880979064,"确诊日期36":"w"},{"SH_ID_36":"10g8y86","区36":"d","地址":"锦秋路1188弄","lng":121.38390432953267,"lat":31.319389150038397,"确诊日期36":"w"},{"SH_ID_36":"10g8y87","区36":"d","地址":"锦秋路1384号","lng":121.37788659103722,"lat":31.31843784553005,"确诊日期36":"w"},{"SH_ID_36":"10g8y88","区36":"d","地址":"菊联路233弄","lng":121.36386542665834,"lat":31.346275061716614,"确诊日期36":"w"},{"SH_ID_36":"10g8y89","区36":"d","地址":"菊泉街1969弄","lng":121.37177019842245,"lat":31.364080898687245,"确诊日期36":"w"},{"SH_ID_36":"10g8y8a","区36":"d","地址":"菊盛路851弄","lng":121.36847891381417,"lat":31.359114242886715,"确诊日期36":"w"},{"SH_ID_36":"10g8y8b","区36":"d","地址":"菊太路1399弄","lng":121.35265077344818,"lat":31.346080432022163,"确诊日期36":"w"},{"SH_ID_36":"10g8y8c","区36":"d","地址":"聚丰园路188弄","lng":121.38279362452393,"lat":31.314677023920417,"确诊日期36":"w"},{"SH_ID_36":"10g8y8d","区36":"d","地址":"聚丰园路628弄","lng":121.37399764626045,"lat":31.31108254566383,"确诊日期36":"w"},{"SH_ID_36":"10g8y8e","区36":"d","地址":"聚源桥村","lng":121.38519357168066,"lat":31.43953848718556,"确诊日期36":"w"},{"SH_ID_36":"10g8y8f","区36":"d","地址":"兰岗路689号","lng":121.46126799075054,"lat":31.37862666315563,"确诊日期36":"w"},{"SH_ID_36":"10g8y8g","区36":"d","地址":"老安村","lng":121.37320353051305,"lat":31.36578101786328,"确诊日期36":"w"},{"SH_ID_36":"10g8y8h","区36":"d","地址":"联谊路649弄","lng":121.41853534612058,"lat":31.34324954277403,"确诊日期36":"w"},{"SH_ID_36":"10g8y8i","区36":"d","地址":"联长路69号","lng":121.46489554844901,"lat":31.337344870123285,"确诊日期36":"w"},{"SH_ID_36":"10g8y8j","区36":"d","地址":"陆翔路3489弄","lng":121.33755856916093,"lat":31.400655146857087,"确诊日期36":"w"},{"SH_ID_36":"10g8y8k","区36":"d","地址":"罗店路840弄","lng":121.34847224873087,"lat":31.397334444371467,"确诊日期36":"w"},{"SH_ID_36":"10g8y8l","区36":"d","地址":"罗东路50弄","lng":121.37779354250438,"lat":31.417671377143133,"确诊日期36":"w"},{"SH_ID_36":"10g8y8m","区36":"d","地址":"罗东路51弄","lng":121.37855403985117,"lat":31.418469157344344,"确诊日期36":"w"},{"SH_ID_36":"10g8y8n","区36":"d","地址":"罗东路52弄","lng":121.37629258360509,"lat":31.418913486289387,"确诊日期36":"w"},{"SH_ID_36":"10g8y8o","区36":"d","地址":"罗东路600弄","lng":121.3706929713967,"lat":31.43557966432288,"确诊日期36":"w"},{"SH_ID_36":"10g8y8p","区36":"d","地址":"罗芬路1199弄","lng":121.34900974848667,"lat":31.405127324841636,"确诊日期36":"w"},{"SH_ID_36":"10g8y8q","区36":"d","地址":"罗芬路98弄","lng":121.35803896729955,"lat":31.39210368660466,"确诊日期36":"w"},{"SH_ID_36":"10g8y8r","区36":"d","地址":"罗和路118弄","lng":121.34166868669963,"lat":31.381740981590028,"确诊日期36":"w"},{"SH_ID_36":"10g8y8s","区36":"d","地址":"罗南二村","lng":121.3662733348007,"lat":31.387718412689424,"确诊日期36":"w"},{"SH_ID_36":"10g8y8t","区36":"d","地址":"罗太路234弄","lng":121.3432594569761,"lat":31.407744340469822,"确诊日期36":"w"},{"SH_ID_36":"10g8y8u","区36":"d","地址":"罗太路258号","lng":121.34287906568373,"lat":31.408835183337327,"确诊日期36":"w"},{"SH_ID_36":"10g8y8v","区36":"d","地址":"罗太路449弄","lng":121.33921489800521,"lat":31.413729659490524,"确诊日期36":"w"},{"SH_ID_36":"10g8y8w","区36":"d","地址":"罗太路869弄","lng":121.33922617097055,"lat":31.427406022482955,"确诊日期36":"w"},{"SH_ID_36":"10g8y8z","区36":"d","地址":"罗溪路1001弄","lng":121.34335843601552,"lat":31.424762071878522,"确诊日期36":"w"},{"SH_ID_36":"10g8y90","区36":"d","地址":"罗溪路1079弄","lng":121.34209260456412,"lat":31.42783617889916,"确诊日期36":"w"},{"SH_ID_36":"10g8y8x","区36":"d","地址":"罗溪路121号","lng":121.3504484725201,"lat":31.412934340765634,"确诊日期36":"w"},{"SH_ID_36":"10g8y8y","区36":"d","地址":"罗溪路671弄","lng":121.34706887169972,"lat":31.418926826727382,"确诊日期36":"w"},{"SH_ID_36":"10g8y91","区36":"d","地址":"罗真路188弄","lng":121.34231059586634,"lat":31.395852763300663,"确诊日期36":"w"},{"SH_ID_36":"10g8y92","区36":"d","地址":"马泾桥二村","lng":121.41508782719231,"lat":31.418022626551014,"确诊日期36":"w"},{"SH_ID_36":"10g8y93","区36":"d","地址":"毛家路212弄","lng":121.38719610822163,"lat":31.426797823144383,"确诊日期36":"w"},{"SH_ID_36":"10g8y94","区36":"d","地址":"毛家路400弄","lng":121.38600662818482,"lat":31.42853645596943,"确诊日期36":"w"},{"SH_ID_36":"10g8y95","区36":"d","地址":"湄浦村","lng":121.42572968462927,"lat":31.387630941203057,"确诊日期36":"w"},{"SH_ID_36":"10g8y96","区36":"d","地址":"美安路217号","lng":121.34944102680625,"lat":31.388299434831406,"确诊日期36":"w"},{"SH_ID_36":"10g8y97","区36":"d","地址":"美安路398弄","lng":121.34620564794942,"lat":31.387945025190074,"确诊日期36":"w"},{"SH_ID_36":"10g8y98","区36":"d","地址":"美安路628弄","lng":121.34272919007945,"lat":31.387152926499105,"确诊日期36":"w"},{"SH_ID_36":"10g8y9b","区36":"d","地址":"美丹路1033弄","lng":121.33744487215834,"lat":31.392109855960797,"确诊日期36":"w"},{"SH_ID_36":"10g8y9a","区36":"d","地址":"美丹路188弄","lng":121.35179505371914,"lat":31.40368778780279,"确诊日期36":"w"},{"SH_ID_36":"10g8y99","区36":"d","地址":"美丹路18弄","lng":121.35465251154282,"lat":31.405417811706148,"确诊日期36":"w"},{"SH_ID_36":"10g8y9c","区36":"d","地址":"美平路428弄","lng":121.3454898055646,"lat":31.38973328624737,"确诊日期36":"w"},{"SH_ID_36":"10g8y9d","区36":"d","地址":"美平路500弄","lng":121.34249788010091,"lat":31.3898980033779,"确诊日期36":"w"},{"SH_ID_36":"10g8y9e","区36":"d","地址":"美平路696弄","lng":121.33873782035285,"lat":31.388565282599867,"确诊日期36":"w"},{"SH_ID_36":"10g8y9f","区36":"d","地址":"美平路745弄","lng":121.33928097900983,"lat":31.3875765110766,"确诊日期36":"w"},{"SH_ID_36":"10g8y9g","区36":"d","地址":"美秀路558弄","lng":121.34389377320052,"lat":31.382113633444227,"确诊日期36":"w"},{"SH_ID_36":"10g8y9h","区36":"d","地址":"牡丹江路1211号","lng":121.48753331984133,"lat":31.39404541461613,"确诊日期36":"w"},{"SH_ID_36":"10g8y9i","区36":"d","地址":"南大路146弄","lng":121.40213688970664,"lat":31.30079370038365,"确诊日期36":"w"},{"SH_ID_36":"10g8y9j","区36":"d","地址":"南大路363号","lng":121.38923980050518,"lat":31.299964316298226,"确诊日期36":"w"},{"SH_ID_36":"10g8y9k","区36":"d","地址":"南东路108弄","lng":121.36069051931203,"lat":31.386887449851418,"确诊日期36":"w"},{"SH_ID_36":"10g8y9l","区36":"d","地址":"南长路111弄","lng":121.36684691018958,"lat":31.384692012694202,"确诊日期36":"w"},{"SH_ID_36":"10g8y9m","区36":"d","地址":"南周村","lng":121.34039494256878,"lat":31.377694557810443,"确诊日期36":"w"},{"SH_ID_36":"10g8y9n","区36":"d","地址":"年吉路100弄","lng":121.34452553988434,"lat":31.402148984650676,"确诊日期36":"w"},{"SH_ID_36":"10g8y9o","区36":"d","地址":"年吉路220弄","lng":121.34330981336544,"lat":31.40162024461736,"确诊日期36":"w"},{"SH_ID_36":"10g8y9p","区36":"d","地址":"年吉路650弄","lng":121.334152015602,"lat":31.39923605714404,"确诊日期36":"w"},{"SH_ID_36":"10g8y9q","区36":"d","地址":"盘古路689弄","lng":121.47222237090118,"lat":31.40671444224215,"确诊日期36":"w"},{"SH_ID_36":"10g8y9s","区36":"d","地址":"祁北东路209号","lng":121.3501785257726,"lat":31.42265983553249,"确诊日期36":"w"},{"SH_ID_36":"10g8y9t","区36":"d","地址":"祁北东路211弄","lng":121.34942727440945,"lat":31.42295857999678,"确诊日期36":"w"},{"SH_ID_36":"10g8y9u","区36":"d","地址":"祁北东路361弄","lng":121.34655764612529,"lat":31.421084513115282,"确诊日期36":"w"},{"SH_ID_36":"10g8y9r","区36":"d","地址":"祁北东路85弄","lng":121.35331086062357,"lat":31.42463646133003,"确诊日期36":"w"},{"SH_ID_36":"10g8y9w","区36":"d","地址":"祁连三村","lng":121.3827544952941,"lat":31.31171506334177,"确诊日期36":"w"},{"SH_ID_36":"10g8y9v","区36":"d","地址":"祁连一村","lng":121.38044173602877,"lat":31.31340166517556,"确诊日期36":"w"},{"SH_ID_36":"10g8y9x","区36":"d","地址":"钱潘村","lng":121.39995413639879,"lat":31.432017924882775,"确诊日期36":"w"},{"SH_ID_36":"10g8y9y","区36":"d","地址":"勤丰村","lng":121.39263526853391,"lat":31.414548931111486,"确诊日期36":"w"},{"SH_ID_36":"10g8y9z","区36":"d","地址":"三门路485弄","lng":121.4943744935706,"lat":31.314038527866188,"确诊日期36":"w"},{"SH_ID_36":"10g8ya0","区36":"d","地址":"三门路497弄","lng":121.49315389933652,"lat":31.31180737445403,"确诊日期36":"w"},{"SH_ID_36":"10g8ya1","区36":"d","地址":"三门路559弄","lng":121.48868080778851,"lat":31.311824560929253,"确诊日期36":"w"},{"SH_ID_36":"10g8ya2","区36":"d","地址":"韶山路418弄","lng":121.36578498590103,"lat":31.365292494710477,"确诊日期36":"w"},{"SH_ID_36":"10g8ya3","区36":"d","地址":"沈巷村","lng":121.41117222914511,"lat":31.41980698783869,"确诊日期36":"w"},{"SH_ID_36":"10g8ya4","区36":"d","地址":"沈宅村","lng":121.3500194032914,"lat":31.364544346894323,"确诊日期36":"w"},{"SH_ID_36":"10g8ya5","区36":"d","地址":"盛桥东四村","lng":121.40461851681542,"lat":31.449168810621426,"确诊日期36":"w"},{"SH_ID_36":"10g8ya7","区36":"d","地址":"盛桥二村","lng":121.40188217082755,"lat":31.45173272537517,"确诊日期36":"w"},{"SH_ID_36":"10g8ya8","区36":"d","地址":"盛桥三村","lng":121.40092139588059,"lat":31.45027661087621,"确诊日期36":"w"},{"SH_ID_36":"10g8ya6","区36":"d","地址":"盛桥一村","lng":121.40412635876987,"lat":31.4532191243981,"确诊日期36":"w"},{"SH_ID_36":"10g8ya9","区36":"d","地址":"石驳岸路28弄","lng":121.34465965687833,"lat":31.415199236862723,"确诊日期36":"w"},{"SH_ID_36":"10g8yaa","区36":"d","地址":"石太路2888号","lng":121.35012896087333,"lat":31.432141012323644,"确诊日期36":"w"},{"SH_ID_36":"10g8yab","区36":"d","地址":"拾年村","lng":121.37174787961675,"lat":31.39184264424968,"确诊日期36":"w"},{"SH_ID_36":"10g8yac","区36":"d","地址":"市一东路18号","lng":121.3651555370796,"lat":31.42107011620472,"确诊日期36":"w"},{"SH_ID_36":"10g8yad","区36":"d","地址":"市一路153弄","lng":121.34910265433429,"lat":31.414265665837302,"确诊日期36":"w"},{"SH_ID_36":"10g8yae","区36":"d","地址":"市一路221号","lng":121.34550735167356,"lat":31.414777906760296,"确诊日期36":"w"},{"SH_ID_36":"10g8yaf","区36":"d","地址":"双城路803弄","lng":121.48526934766372,"lat":31.38902749738129,"确诊日期36":"w"},{"SH_ID_36":"10g8yag","区36":"d","地址":"水产路2399号","lng":121.44513447040424,"lat":31.36699494635875,"确诊日期36":"w"},{"SH_ID_36":"10g8yah","区36":"d","地址":"水产路2859号","lng":121.43518636137532,"lat":31.36436205949735,"确诊日期36":"w"},{"SH_ID_36":"10g8yai","区36":"d","地址":"四方村","lng":121.33909193234037,"lat":31.429271623145674,"确诊日期36":"w"},{"SH_ID_36":"10g8yak","区36":"d","地址":"泗塘八村","lng":121.45728325144043,"lat":31.329886993333073,"确诊日期36":"w"},{"SH_ID_36":"10g8yaj","区36":"d","地址":"泗塘一村","lng":121.45190390870002,"lat":31.337943912282505,"确诊日期36":"w"},{"SH_ID_36":"10g8yal","区36":"d","地址":"松兰路1166弄","lng":121.44371203278125,"lat":31.38508198935322,"确诊日期36":"w"},{"SH_ID_36":"10g8yam","区36":"d","地址":"淞宝路155弄","lng":121.50091611467117,"lat":31.380288968237426,"确诊日期36":"w"},{"SH_ID_36":"10g8yan","区36":"d","地址":"淞滨路110弄","lng":121.4945868973235,"lat":31.372601389087897,"确诊日期36":"w"},{"SH_ID_36":"10g8yao","区36":"d","地址":"淞南一村","lng":121.4846745010713,"lat":31.34258703449231,"确诊日期36":"w"},{"SH_ID_36":"10g8yap","区36":"d","地址":"淞兴西路121弄","lng":121.49061499440236,"lat":31.369793148629523,"确诊日期36":"w"},{"SH_ID_36":"10g8yaq","区36":"d","地址":"淞兴西路248号","lng":121.48868315830636,"lat":31.36758597312029,"确诊日期36":"w"},{"SH_ID_36":"10g8yas","区36":"d","地址":"塔源路150弄","lng":121.3981958228982,"lat":31.446075415916937,"确诊日期36":"w"},{"SH_ID_36":"10g8yat","区36":"d","地址":"塔源路258弄","lng":121.39980144932404,"lat":31.449206598862478,"确诊日期36":"w"},{"SH_ID_36":"10g8yau","区36":"d","地址":"塔源路302弄","lng":121.39787771773304,"lat":31.451445760166663,"确诊日期36":"w"},{"SH_ID_36":"10g8yar","区36":"d","地址":"塔源路58弄","lng":121.40264954927923,"lat":31.448503970195997,"确诊日期36":"w"},{"SH_ID_36":"10g8yav","区36":"d","地址":"泰和路1700号","lng":121.44850031897022,"lat":31.35472632187147,"确诊日期36":"w"},{"SH_ID_36":"10g8yaw","区36":"d","地址":"泰和路1810号","lng":121.44900928822773,"lat":31.350770066076056,"确诊日期36":"w"},{"SH_ID_36":"10g8yax","区36":"d","地址":"泰和西路3463弄","lng":121.40602352860729,"lat":31.349457734841835,"确诊日期36":"w"},{"SH_ID_36":"10g8yay","区36":"d","地址":"塘南街57号","lng":121.43093233433962,"lat":31.419406898744317,"确诊日期36":"w"},{"SH_ID_36":"10g8yaz","区36":"d","地址":"塘祁路679弄","lng":121.37377572770079,"lat":31.32496297824644,"确诊日期36":"w"},{"SH_ID_36":"10g8yb0","区36":"d","地址":"塘西街398弄","lng":121.33942918259812,"lat":31.42090192169946,"确诊日期36":"w"},{"SH_ID_36":"10g8yb1","区36":"d","地址":"铁城路1555号","lng":121.45175315391175,"lat":31.356301362646835,"确诊日期36":"w"},{"SH_ID_36":"10g8yb3","区36":"d","地址":"铁峰路2001弄","lng":121.45633060449076,"lat":31.397201770415933,"确诊日期36":"w"},{"SH_ID_36":"10g8yb2","区36":"d","地址":"铁峰路477号","lng":121.46994881587838,"lat":31.37179008666089,"确诊日期36":"w"},{"SH_ID_36":"10g8yb4","区36":"d","地址":"铁力路388号","lng":121.46941026301636,"lat":31.381251645346047,"确诊日期36":"w"},{"SH_ID_36":"10g8yb5","区36":"d","地址":"铁山路69号","lng":121.46961553099585,"lat":31.36417534524596,"确诊日期36":"w"},{"SH_ID_36":"10g8yb6","区36":"d","地址":"亭前街15号","lng":121.3464804958547,"lat":31.4129349220308,"确诊日期36":"w"},{"SH_ID_36":"10g8yb7","区36":"d","地址":"亭前街20弄","lng":121.3422416095479,"lat":31.41265104422398,"确诊日期36":"w"},{"SH_ID_36":"10g8yb8","区36":"d","地址":"亭前街27弄","lng":121.34570962804959,"lat":31.412838524324386,"确诊日期36":"w"},{"SH_ID_36":"10g8yb9","区36":"d","地址":"亭前街300弄","lng":121.34038526645313,"lat":31.4119827639805,"确诊日期36":"w"},{"SH_ID_36":"10g8yba","区36":"d","地址":"通河路438号","lng":121.4458463989785,"lat":31.33370227122527,"确诊日期36":"w"},{"SH_ID_36":"10g8ybb","区36":"d","地址":"通河七村","lng":121.45173659601016,"lat":31.329185297020448,"确诊日期36":"w"},{"SH_ID_36":"10g8ybc","区36":"d","地址":"同济路333号","lng":121.48764069608029,"lat":31.384042817209778,"确诊日期36":"w"},{"SH_ID_36":"10g8ybd","区36":"d","地址":"王家村","lng":121.3885569670075,"lat":31.38585381757403,"确诊日期36":"w"},{"SH_ID_36":"10g8yc5","区36":"d","地址":"蕰川路1498弄","lng":121.42519298171777,"lat":31.361039186016104,"确诊日期36":"w"},{"SH_ID_36":"10g8yc6","区36":"d","地址":"蕰川路1623弄","lng":121.43499665015332,"lat":31.368419029213335,"确诊日期36":"w"},{"SH_ID_36":"10g8yc7","区36":"d","地址":"蕰川路2222号","lng":121.4263278862891,"lat":31.386652453628965,"确诊日期36":"w"},{"SH_ID_36":"10g8yc4","区36":"d","地址":"蕰川路516号","lng":121.43317282631162,"lat":31.35290084949933,"确诊日期36":"w"},{"SH_ID_36":"10g8ybe","区36":"d","地址":"五星村","lng":121.34700693116255,"lat":31.30473034240799,"确诊日期36":"w"},{"SH_ID_36":"10g8ybf","区36":"d","地址":"西浜村","lng":121.44145801481812,"lat":31.358754555135228,"确诊日期36":"w"},{"SH_ID_36":"10g8ybg","区36":"d","地址":"西街村","lng":121.43240897630017,"lat":31.37225715989803,"确诊日期36":"w"},{"SH_ID_36":"10g8ybh","区36":"d","地址":"西埝村","lng":121.36479337132718,"lat":31.383988301917203,"确诊日期36":"w"},{"SH_ID_36":"10g8ybi","区36":"d","地址":"向阳新村","lng":121.34227103188066,"lat":31.41429047121142,"确诊日期36":"w"},{"SH_ID_36":"10g8ybl","区36":"d","地址":"新二路1295号","lng":121.47510443204796,"lat":31.33474611492959,"确诊日期36":"w"},{"SH_ID_36":"10g8ybj","区36":"d","地址":"新二路183弄","lng":121.47503759558927,"lat":31.32559564803543,"确诊日期36":"w"},{"SH_ID_36":"10g8ybk","区36":"d","地址":"新二路999弄","lng":121.47714678595993,"lat":31.326900838516224,"确诊日期36":"w"},{"SH_ID_36":"10g8ybm","区36":"d","地址":"星星村","lng":121.41206637530637,"lat":31.37370001470779,"确诊日期36":"w"},{"SH_ID_36":"10g8y7i","区36":"d","地址":"行知路572弄","lng":121.41236583968242,"lat":31.28448372619766,"确诊日期36":"w"},{"SH_ID_36":"10g8y7j","区36":"d","地址":"行知路760弄","lng":121.4078354976462,"lat":31.283722962424548,"确诊日期36":"w"},{"SH_ID_36":"10g8ybn","区36":"d","地址":"阳曲路1053号","lng":121.45955613608356,"lat":31.323439879952918,"确诊日期36":"w"},{"SH_ID_36":"10g8ybo","区36":"d","地址":"阳曲路1388弄","lng":121.46099428958445,"lat":31.326185044060775,"确诊日期36":"w"},{"SH_ID_36":"10g8ybq","区36":"d","地址":"杨泰路328弄","lng":121.44115969818212,"lat":31.371371778242807,"确诊日期36":"w"},{"SH_ID_36":"10g8ybp","区36":"d","地址":"杨泰路55弄","lng":121.45063291650395,"lat":31.36347674619414,"确诊日期36":"w"},{"SH_ID_36":"10g8ybr","区36":"d","地址":"杨泰三村","lng":121.44912078907528,"lat":31.362862716904957,"确诊日期36":"w"},{"SH_ID_36":"10g8ybs","区36":"d","地址":"逸仙路1258弄","lng":121.48446100830355,"lat":31.315326065778134,"确诊日期36":"w"},{"SH_ID_36":"10g8ybt","区36":"d","地址":"逸仙路1321弄","lng":121.48743320647574,"lat":31.315540818110925,"确诊日期36":"w"},{"SH_ID_36":"10g8ybu","区36":"d","地址":"殷高路21弄","lng":121.49052231394852,"lat":31.32230378960885,"确诊日期36":"w"},{"SH_ID_36":"10g8ybv","区36":"d","地址":"殷高路36号","lng":121.49008396491826,"lat":31.32219055850734,"确诊日期36":"w"},{"SH_ID_36":"10g8ybw","区36":"d","地址":"永顺路28弄","lng":121.35156698089244,"lat":31.41480283131692,"确诊日期36":"w"},{"SH_ID_36":"10g8ybx","区36":"d","地址":"永顺路81弄","lng":121.34883983236833,"lat":31.412051293672402,"确诊日期36":"w"},{"SH_ID_36":"10g8yby","区36":"d","地址":"月川路48号","lng":121.40637066926978,"lat":31.445850172457575,"确诊日期36":"w"},{"SH_ID_36":"10g8ybz","区36":"d","地址":"月富路55弄","lng":121.41218775812328,"lat":31.429504307520634,"确诊日期36":"w"},{"SH_ID_36":"10g8yc0","区36":"d","地址":"月罗路1116号","lng":121.38134954869582,"lat":31.415958370569445,"确诊日期36":"w"},{"SH_ID_36":"10g8yc1","区36":"d","地址":"月罗路1201弄","lng":121.38877923071088,"lat":31.41676666316904,"确诊日期36":"w"},{"SH_ID_36":"10g8yc2","区36":"d","地址":"月罗路2425弄","lng":121.34849781968255,"lat":31.4085928439806,"确诊日期36":"w"},{"SH_ID_36":"10g8yc3","区36":"d","地址":"月狮村","lng":121.40727780577478,"lat":31.44911012753669,"确诊日期36":"w"},{"SH_ID_36":"10g8yc8","区36":"d","地址":"张桥街5弄","lng":121.34749641598789,"lat":31.40866246879357,"确诊日期36":"w"},{"SH_ID_36":"10g8y6h","区36":"d","地址":"长春村","lng":121.38848413735178,"lat":31.40741965302412,"确诊日期36":"w"},{"SH_ID_36":"10g8y6i","区36":"d","地址":"长江路68弄","lng":121.49797085312174,"lat":31.35123018438485,"确诊日期36":"w"},{"SH_ID_36":"10g8yc9","区36":"d","地址":"真北路4333弄","lng":121.40490615497376,"lat":31.292867340458123,"确诊日期36":"w"},{"SH_ID_36":"10g8yca","区36":"d","地址":"真华路1988弄","lng":121.4114334241297,"lat":31.292875663177554,"确诊日期36":"w"},{"SH_ID_36":"10g8ycc","区36":"d","地址":"镇东新村","lng":121.34611913895891,"lat":31.413960229444562,"确诊日期36":"w"},{"SH_ID_36":"10g8ycb","区36":"d","地址":"镇泰路111弄","lng":121.44590146550186,"lat":31.379933062705142,"确诊日期36":"w"},{"SH_ID_36":"10g8ycd","区36":"d","地址":"朱家弄村","lng":121.38744441572965,"lat":31.340816824848584,"确诊日期36":"w"},{"SH_ID_36":"10g8ycf","区36":"d","地址":"竹韵路258弄","lng":121.44272505253201,"lat":31.367671903688297,"确诊日期36":"w"},{"SH_ID_36":"10g8yce","区36":"d","地址":"竹韵路58弄","lng":121.44522325605826,"lat":31.364078506239032,"确诊日期36":"w"},{"SH_ID_36":"10g8z7m","区36":"u","地址":"八滧村","lng":121.76342834259394,"lat":31.484700715997867,"确诊日期36":"w"},{"SH_ID_36":"10g8z7j","区36":"u","地址":"北沿公路1388号","lng":121.59777911318535,"lat":31.643969750770243,"确诊日期36":"w"},{"SH_ID_36":"10g8z7k","区36":"u","地址":"惠中村","lng":121.67215936204467,"lat":31.61020323177254,"确诊日期36":"w"},{"SH_ID_36":"10g8z7f","区36":"u","地址":"江南大道","lng":121.73761930793435,"lat":31.368356328726232,"确诊日期36":"w"},{"SH_ID_36":"10g8z7d","区36":"u","地址":"骏马村","lng":121.64306387162056,"lat":31.589081458384452,"确诊日期36":"w"},{"SH_ID_36":"10g8z7l","区36":"u","地址":"六滧村","lng":121.71824410863447,"lat":31.513285553320298,"确诊日期36":"w"},{"SH_ID_36":"10g8z7e","区36":"u","地址":"前卫支路171号","lng":121.72399869395193,"lat":31.389523841380573,"确诊日期36":"w"},{"SH_ID_36":"10g8z7h","区36":"u","地址":"新港村","lng":121.44330799267401,"lat":31.737247225514707,"确诊日期36":"w"},{"SH_ID_36":"10g8z7i","区36":"u","地址":"圆展路120弄","lng":121.7776089867063,"lat":31.3589438825535,"确诊日期36":"w"},{"SH_ID_36":"10g8z7g","区36":"u","地址":"长凯路277号","lng":121.73500568422693,"lat":31.375226441283214,"确诊日期36":"w"},{"SH_ID_36":"10g8z67","区36":"k","地址":"陈桥路299号","lng":121.45808870065545,"lat":30.927968678082497,"确诊日期36":"w"},{"SH_ID_36":"10g8z68","区36":"k","地址":"大桥村","lng":121.71187611811555,"lat":30.955908072596536,"确诊日期36":"w"},{"SH_ID_36":"10g8z69","区36":"k","地址":"大叶公路2058弄","lng":121.38676592207263,"lat":30.95152739691331,"确诊日期36":"w"},{"SH_ID_36":"10g8z6a","区36":"k","地址":"大叶公路6288弄","lng":121.55638698412058,"lat":30.975720382508985,"确诊日期36":"w"},{"SH_ID_36":"10g8z6b","区36":"k","地址":"灯塔村","lng":121.42471873251877,"lat":30.984794176889025,"确诊日期36":"w"},{"SH_ID_36":"10g8z6c","区36":"k","地址":"东新市村","lng":121.6515889892663,"lat":30.977508285985547,"确诊日期36":"w"},{"SH_ID_36":"10g8z6d","区36":"k","地址":"奉城东街45弄","lng":121.64721379827728,"lat":30.916218115990965,"确诊日期36":"w"},{"SH_ID_36":"10g8z6e","区36":"k","地址":"高桥村","lng":121.63166651802995,"lat":30.915007022774677,"确诊日期36":"w"},{"SH_ID_36":"10g8z6f","区36":"k","地址":"国顺路218弄","lng":121.46435528039382,"lat":30.93362790209494,"确诊日期36":"w"},{"SH_ID_36":"10g8z6g","区36":"k","地址":"海兴路479号","lng":121.59907979979312,"lat":30.863009208068785,"确诊日期36":"w"},{"SH_ID_36":"10g8z6h","区36":"k","地址":"航南公路5388弄","lng":121.56356746720884,"lat":30.987116610652407,"确诊日期36":"w"},{"SH_ID_36":"10g8z6i","区36":"k","地址":"沪杭公路113号","lng":121.43147671037613,"lat":30.99257555520382,"确诊日期36":"w"},{"SH_ID_36":"10g8z6j","区36":"k","地址":"沪杭公路149弄","lng":121.43203061285236,"lat":30.991735390509593,"确诊日期36":"w"},{"SH_ID_36":"10g8z6k","区36":"k","地址":"沪杭公路32弄","lng":121.4260066095934,"lat":30.992974986409788,"确诊日期36":"w"},{"SH_ID_36":"10g8z6l","区36":"k","地址":"化工路62弄","lng":121.45255135225877,"lat":30.91746903062919,"确诊日期36":"w"},{"SH_ID_36":"10g8z6m","区36":"k","地址":"环城南路1309弄","lng":121.44698005832836,"lat":30.901416485959675,"确诊日期36":"w"},{"SH_ID_36":"10g8z6n","区36":"k","地址":"汇安村","lng":121.40227868719273,"lat":30.960008458146344,"确诊日期36":"w"},{"SH_ID_36":"10g8z6o","区36":"k","地址":"江海村","lng":121.44481064288132,"lat":30.894404913559224,"确诊日期36":"w"},{"SH_ID_36":"10g8z6p","区36":"k","地址":"解放东路599弄","lng":121.47888051091513,"lat":30.918239371006248,"确诊日期36":"w"},{"SH_ID_36":"10g8z6q","区36":"k","地址":"金碧路1959弄","lng":121.51341064282556,"lat":30.97422762853665,"确诊日期36":"w"},{"SH_ID_36":"10g8z6r","区36":"k","地址":"金汇村","lng":121.50126644405658,"lat":30.988733202117615,"确诊日期36":"w"},{"SH_ID_36":"10g8z6s","区36":"k","地址":"聚秀路178弄","lng":121.50786822856078,"lat":30.965287079379852,"确诊日期36":"w"},{"SH_ID_36":"10g8z6t","区36":"k","地址":"乐善村","lng":121.57550134607074,"lat":30.97238068496216,"确诊日期36":"w"},{"SH_ID_36":"10g8z6u","区36":"k","地址":"明星村","lng":121.55301894009467,"lat":30.98169896371672,"确诊日期36":"w"},{"SH_ID_36":"10g8z6v","区36":"k","地址":"南渡村","lng":121.45137213601687,"lat":30.999610749498572,"确诊日期36":"w"},{"SH_ID_36":"10g8z6w","区36":"k","地址":"青村人民路219弄","lng":121.58314920153225,"lat":30.935059269711328,"确诊日期36":"w"},{"SH_ID_36":"10g8z6x","区36":"k","地址":"三团港村","lng":121.72197875039295,"lat":30.88382595054186,"确诊日期36":"w"},{"SH_ID_36":"10g8z6y","区36":"k","地址":"曙光村","lng":121.49100711651802,"lat":30.904399771277067,"确诊日期36":"w"},{"SH_ID_36":"10g8z6z","区36":"k","地址":"泰叶路159弄","lng":121.56113496521111,"lat":30.977806078426095,"确诊日期36":"w"},{"SH_ID_36":"10g8z70","区36":"k","地址":"吴塘路527弄","lng":121.44432595364952,"lat":30.95960458299122,"确诊日期36":"w"},{"SH_ID_36":"10g8z72","区36":"k","地址":"小荡村","lng":121.70403039260232,"lat":30.97774729249938,"确诊日期36":"w"},{"SH_ID_36":"10g8z71","区36":"k","地址":"肖塘路146弄","lng":121.43797826347404,"lat":30.962783857321522,"确诊日期36":"w"},{"SH_ID_36":"10g8z73","区36":"k","地址":"耀光小区","lng":121.39686694708259,"lat":30.961435400812594,"确诊日期36":"w"},{"SH_ID_36":"10g8z74","区36":"k","地址":"永南路1688号","lng":121.51662375207042,"lat":31.00622350914289,"确诊日期36":"w"},{"SH_ID_36":"10g8z75","区36":"k","地址":"永欣新村","lng":121.4503003435082,"lat":30.91405224791952,"确诊日期36":"w"},{"SH_ID_36":"10g8z76","区36":"k","地址":"岳和村","lng":121.57002491816291,"lat":30.93115600670496,"确诊日期36":"w"},{"SH_ID_36":"10g8z77","区36":"k","地址":"运河北路1351弄","lng":121.43959134873927,"lat":30.918246160806326,"确诊日期36":"w"},{"SH_ID_36":"10g8z78","区36":"k","地址":"展园路303弄","lng":121.4828408255934,"lat":30.92614287188149,"确诊日期36":"w"},{"SH_ID_36":"10g8z79","区36":"k","地址":"正旭路1058号","lng":121.74803744764824,"lat":30.88193689093416,"确诊日期36":"w"},{"SH_ID_36":"10g8z7a","区36":"k","地址":"周家村","lng":121.5987420865806,"lat":30.987395074118165,"确诊日期36":"w"},{"SH_ID_36":"10g8z7b","区36":"k","地址":"朱店村","lng":121.55416854796097,"lat":30.91948779757872,"确诊日期36":"w"},{"SH_ID_36":"10g8z7c","区36":"k","地址":"资福村","lng":121.6034091982352,"lat":30.966500460628033,"确诊日期36":"w"},{"SH_ID_36":"10g8xw1","区36":"9","地址":"安国路28弄","lng":121.50904106975302,"lat":31.25709525627749,"确诊日期36":"w"},{"SH_ID_36":"10g8xw2","区36":"9","地址":"安国路56号","lng":121.50804164310863,"lat":31.257390143592513,"确诊日期36":"w"},{"SH_ID_36":"10g8xw3","区36":"9","地址":"巴林路78号","lng":121.49465797758799,"lat":31.288162643977188,"确诊日期36":"w"},{"SH_ID_36":"10g8xw4","区36":"9","地址":"保定路427号","lng":121.50825070005656,"lat":31.2596012422617,"确诊日期36":"w"},{"SH_ID_36":"10g8xw5","区36":"9","地址":"保宁路44号","lng":121.48035496431548,"lat":31.301613397970073,"确诊日期36":"w"},{"SH_ID_36":"10g8xw6","区36":"9","地址":"场中路115弄","lng":121.48117334269713,"lat":31.311428227119027,"确诊日期36":"w"},{"SH_ID_36":"10g8xw7","区36":"9","地址":"车站北路507弄","lng":121.473580471525,"lat":31.296537929514884,"确诊日期36":"w"},{"SH_ID_36":"10g8xw8","区36":"9","地址":"车站北路625弄","lng":121.47016050855845,"lat":31.297084030008186,"确诊日期36":"w"},{"SH_ID_36":"10g8xw9","区36":"9","地址":"车站北路732弄","lng":121.46594459652027,"lat":31.298106754831558,"确诊日期36":"w"},{"SH_ID_36":"10g8xwa","区36":"9","地址":"车站西路301弄","lng":121.48299694894553,"lat":31.299982962236424,"确诊日期36":"w"},{"SH_ID_36":"10g8xwb","区36":"9","地址":"池沟路200弄","lng":121.47939784299926,"lat":31.30285959479941,"确诊日期36":"w"},{"SH_ID_36":"10g8xwc","区36":"9","地址":"池沟路300弄","lng":121.47917446695722,"lat":31.3010239015844,"确诊日期36":"w"},{"SH_ID_36":"10g8xwd","区36":"9","地址":"池沟路62弄","lng":121.47919243243228,"lat":31.30202272358322,"确诊日期36":"w"},{"SH_ID_36":"10g8xwe","区36":"9","地址":"大连西路165弄","lng":121.49572551429267,"lat":31.276274497939028,"确诊日期36":"w"},{"SH_ID_36":"10g8xwf","区36":"9","地址":"大连西路23号","lng":121.49877230905092,"lat":31.276233334353293,"确诊日期36":"w"},{"SH_ID_36":"10g8xwg","区36":"9","地址":"大连西路261号","lng":121.48707618113647,"lat":31.276366179696872,"确诊日期36":"w"},{"SH_ID_36":"10g8xwh","区36":"9","地址":"东宝兴路254弄","lng":121.48090015946033,"lat":31.25774772711843,"确诊日期36":"w"},{"SH_ID_36":"10g8xwi","区36":"9","地址":"东宝兴路272弄","lng":121.48102620028348,"lat":31.258106425151553,"确诊日期36":"w"},{"SH_ID_36":"10g8xwj","区36":"9","地址":"东宝兴路447弄","lng":121.47960054220432,"lat":31.259579110047554,"确诊日期36":"w"},{"SH_ID_36":"10g8xwk","区36":"9","地址":"东宝兴路465号","lng":121.47940565435705,"lat":31.25956436508447,"确诊日期36":"w"},{"SH_ID_36":"10g8xwl","区36":"9","地址":"东宝兴路895弄","lng":121.47306518709142,"lat":31.264547368436315,"确诊日期36":"w"},{"SH_ID_36":"10g8xwm","区36":"9","地址":"东江湾路456号","lng":121.48037741997034,"lat":31.272345614141457,"确诊日期36":"w"},{"SH_ID_36":"10g8xwn","区36":"9","地址":"东江湾路570弄","lng":121.4804351181356,"lat":31.273880264382353,"确诊日期36":"w"},{"SH_ID_36":"10g8xwo","区36":"9","地址":"东江湾路580弄","lng":121.48004450819653,"lat":31.27433951756834,"确诊日期36":"w"},{"SH_ID_36":"10g8xwp","区36":"9","地址":"东体育会路100弄","lng":121.48156853349087,"lat":31.274400559165922,"确诊日期36":"w"},{"SH_ID_36":"10g8xwq","区36":"9","地址":"东体育会路119弄","lng":121.48214069335606,"lat":31.27317359124981,"确诊日期36":"w"},{"SH_ID_36":"10g8xwr","区36":"9","地址":"东体育会路29号","lng":121.48067199719438,"lat":31.274588005034868,"确诊日期36":"w"},{"SH_ID_36":"10g8xws","区36":"9","地址":"东体育会路77号","lng":121.48104828491462,"lat":31.274003505950407,"确诊日期36":"w"},{"SH_ID_36":"10g8xwt","区36":"9","地址":"东体育会路83号","lng":121.48163847860987,"lat":31.27388276165824,"确诊日期36":"w"},{"SH_ID_36":"10g8xwu","区36":"9","地址":"东体育会路87号","lng":121.4816965327553,"lat":31.273838278242646,"确诊日期36":"w"},{"SH_ID_36":"10g8xwv","区36":"9","地址":"东余杭路1087号","lng":121.50589333998337,"lat":31.259311041380577,"确诊日期36":"w"},{"SH_ID_36":"10g8xww","区36":"9","地址":"东余杭路1320号","lng":121.50863892845837,"lat":31.260646651771246,"确诊日期36":"w"},{"SH_ID_36":"10g8xx2","区36":"9","地址":"东余杭路198弄","lng":121.49249192596305,"lat":31.251626382375427,"确诊日期36":"w"},{"SH_ID_36":"10g8xwx","区36":"9","地址":"东余杭路208号","lng":121.50045959697711,"lat":31.255179397922785,"确诊日期36":"w"},{"SH_ID_36":"10g8xwy","区36":"9","地址":"东余杭路211弄","lng":121.49288059409967,"lat":31.25231354199519,"确诊日期36":"w"},{"SH_ID_36":"10g8xwz","区36":"9","地址":"东余杭路218号","lng":121.49287865487592,"lat":31.251593214459287,"确诊日期36":"w"},{"SH_ID_36":"10g8xx0","区36":"9","地址":"东余杭路225号","lng":121.49324465443203,"lat":31.251883319147712,"确诊日期36":"w"},{"SH_ID_36":"10g8xx1","区36":"9","地址":"东余杭路869弄","lng":121.5032231071662,"lat":31.256354025187843,"确诊日期36":"w"},{"SH_ID_36":"10g8xx3","区36":"9","地址":"东长治路399号","lng":121.49620425672678,"lat":31.249954253229696,"确诊日期36":"w"},{"SH_ID_36":"10g8xx4","区36":"9","地址":"多伦路177弄","lng":121.48160736434829,"lat":31.263294015022158,"确诊日期36":"w"},{"SH_ID_36":"10g8xx5","区36":"9","地址":"丰镇路2弄","lng":121.48052734787161,"lat":31.3049766414641,"确诊日期36":"w"},{"SH_ID_36":"10g8xx6","区36":"9","地址":"丰镇路66号","lng":121.47535816899591,"lat":31.304604033809696,"确诊日期36":"w"},{"SH_ID_36":"10g8xx7","区36":"9","地址":"丰镇路85号","lng":121.47829398529035,"lat":31.30451179650879,"确诊日期36":"w"},{"SH_ID_36":"10g8xx8","区36":"9","地址":"公平路402弄","lng":121.50506988176855,"lat":31.255476126854813,"确诊日期36":"w"},{"SH_ID_36":"10g8xx9","区36":"9","地址":"沽源路113弄","lng":121.47787066685855,"lat":31.302360759958294,"确诊日期36":"w"},{"SH_ID_36":"10g8xxa","区36":"9","地址":"广灵二村","lng":121.47840027598086,"lat":31.286003729139154,"确诊日期36":"w"},{"SH_ID_36":"10g8xxb","区36":"9","地址":"广灵四路140弄","lng":121.47938312337173,"lat":31.28611922773889,"确诊日期36":"w"},{"SH_ID_36":"10g8xxc","区36":"9","地址":"广灵四路280弄","lng":121.47427144631645,"lat":31.287981613936978,"确诊日期36":"w"},{"SH_ID_36":"10g8xxd","区36":"9","地址":"广灵一村","lng":121.4778430498911,"lat":31.286931865151203,"确诊日期36":"w"},{"SH_ID_36":"10g8xxe","区36":"9","地址":"广灵一路265号","lng":121.47990632697476,"lat":31.285793487738825,"确诊日期36":"w"},{"SH_ID_36":"10g8xxf","区36":"9","地址":"广灵一路74弄","lng":121.47811549868659,"lat":31.28069685420635,"确诊日期36":"w"},{"SH_ID_36":"10g8xxg","区36":"9","地址":"广粤路577弄","lng":121.46673488175992,"lat":31.29411007776012,"确诊日期36":"w"},{"SH_ID_36":"10g8xxh","区36":"9","地址":"广中二村","lng":121.47882187495273,"lat":31.27894653921061,"确诊日期36":"w"},{"SH_ID_36":"10g8xxi","区36":"9","地址":"广中三村","lng":121.47643504497405,"lat":31.27899534966917,"确诊日期36":"w"},{"SH_ID_36":"10g8xxj","区36":"9","地址":"广中五村","lng":121.47644105018168,"lat":31.277951838850147,"确诊日期36":"w"},{"SH_ID_36":"10g8xxk","区36":"9","地址":"广中一村","lng":121.47769528651808,"lat":31.27713527770415,"确诊日期36":"w"},{"SH_ID_36":"10g8xxl","区36":"9","地址":"广中支路24弄","lng":121.47569450195316,"lat":31.274129338094202,"确诊日期36":"w"},{"SH_ID_36":"10g8xxm","区36":"9","地址":"海伦路178号","lng":121.49447098695816,"lat":31.257073004626374,"确诊日期36":"w"},{"SH_ID_36":"10g8xxn","区36":"9","地址":"海伦路555弄","lng":121.48699086555193,"lat":31.258601259098338,"确诊日期36":"w"},{"SH_ID_36":"10g8xxo","区36":"9","地址":"海宁路499弄","lng":121.48448747695431,"lat":31.24953288105731,"确诊日期36":"w"},{"SH_ID_36":"10g8xxp","区36":"9","地址":"横浜路206弄","lng":121.47744031866083,"lat":31.26416949279656,"确诊日期36":"w"},{"SH_ID_36":"10g8xxq","区36":"9","地址":"横浜路75号","lng":121.4801908826785,"lat":31.262890414070682,"确诊日期36":"w"},{"SH_ID_36":"10g8xxr","区36":"9","地址":"华昌路79号","lng":121.47750770484582,"lat":31.26183537155449,"确诊日期36":"w"},{"SH_ID_36":"10g8xxs","区36":"9","地址":"华昌路9号","lng":121.4783154517267,"lat":31.261158971341153,"确诊日期36":"w"},{"SH_ID_36":"10g8xxt","区36":"9","地址":"华严路98弄","lng":121.47342918649991,"lat":31.30350655587468,"确诊日期36":"w"},{"SH_ID_36":"10g8xxu","区36":"9","地址":"黄渡路103弄","lng":121.48134260783868,"lat":31.26789028998273,"确诊日期36":"w"},{"SH_ID_36":"10g8xxv","区36":"9","地址":"九龙路575号","lng":121.49128065944139,"lat":31.253320589684407,"确诊日期36":"w"},{"SH_ID_36":"10g8xxw","区36":"9","地址":"奎照路11弄","lng":121.47115585729838,"lat":31.300247240600697,"确诊日期36":"w"},{"SH_ID_36":"10g8xxx","区36":"9","地址":"奎照路786弄","lng":121.46939465030287,"lat":31.299726448087817,"确诊日期36":"w"},{"SH_ID_36":"10g8xxy","区36":"9","地址":"溧阳路491号","lng":121.49219788744917,"lat":31.252442237648975,"确诊日期36":"w"},{"SH_ID_36":"10g8xxz","区36":"9","地址":"溧阳路501弄","lng":121.48797632952154,"lat":31.26260292156833,"确诊日期36":"w"},{"SH_ID_36":"10g8xy0","区36":"9","地址":"凉城路1201弄","lng":121.46984970636801,"lat":31.30360136257232,"确诊日期36":"w"},{"SH_ID_36":"10g8xy1","区36":"9","地址":"凉城路847弄","lng":121.47053492677199,"lat":31.299302592787637,"确诊日期36":"w"},{"SH_ID_36":"10g8xy2","区36":"9","地址":"临平路133弄","lng":121.49929879415669,"lat":31.261092083532553,"确诊日期36":"w"},{"SH_ID_36":"10g8xy3","区36":"9","地址":"旅顺路199弄","lng":121.49436308672387,"lat":31.250074756928512,"确诊日期36":"w"},{"SH_ID_36":"10g8xy4","区36":"9","地址":"虬江支路216弄","lng":121.48305360359097,"lat":31.254084151917144,"确诊日期36":"w"},{"SH_ID_36":"10g8xy5","区36":"9","地址":"曲阳路118弄","lng":121.49440391835613,"lat":31.271168132694708,"确诊日期36":"w"},{"SH_ID_36":"10g8xy6","区36":"9","地址":"曲阳路801号","lng":121.49051240437387,"lat":31.290315753093534,"确诊日期36":"w"},{"SH_ID_36":"10g8xy7","区36":"9","地址":"仁德路390弄","lng":121.48321590728975,"lat":31.30408854964637,"确诊日期36":"w"},{"SH_ID_36":"10g8xy8","区36":"9","地址":"山阴路191弄","lng":121.4853929326944,"lat":31.267252856067635,"确诊日期36":"w"},{"SH_ID_36":"10g8xy9","区36":"9","地址":"山阴路216弄","lng":121.48456678987085,"lat":31.267764609025622,"确诊日期36":"w"},{"SH_ID_36":"10g8xya","区36":"9","地址":"商业二村","lng":121.48049867415817,"lat":31.28434547467372,"确诊日期36":"w"},{"SH_ID_36":"10g8xyb","区36":"9","地址":"商业一村","lng":121.4760444042,"lat":31.27556021430981,"确诊日期36":"w"},{"SH_ID_36":"10g8xyc","区36":"9","地址":"水电路1381弄","lng":121.47734541334005,"lat":31.29783718682238,"确诊日期36":"w"},{"SH_ID_36":"10g8xyd","区36":"9","地址":"水电路1600弄","lng":121.4755495567783,"lat":31.302490839795322,"确诊日期36":"w"},{"SH_ID_36":"10g8xye","区36":"9","地址":"水电路393弄","lng":121.47553122561176,"lat":31.276637766850666,"确诊日期36":"w"},{"SH_ID_36":"10g8xyf","区36":"9","地址":"水电路583弄","lng":121.47634613038724,"lat":31.28070654645894,"确诊日期36":"w"},{"SH_ID_36":"10g8xyg","区36":"9","地址":"四川北路1545弄","lng":121.48193804595417,"lat":31.25581770519295,"确诊日期36":"w"},{"SH_ID_36":"10g8xyh","区36":"9","地址":"四川北路1727弄","lng":121.48234408815019,"lat":31.258395427531447,"确诊日期36":"w"},{"SH_ID_36":"10g8xyi","区36":"9","地址":"四川北路1885号","lng":121.48345642487625,"lat":31.261775855624336,"确诊日期36":"w"},{"SH_ID_36":"10g8xyj","区36":"9","地址":"四川北路1906弄","lng":121.48420531577865,"lat":31.261834429233158,"确诊日期36":"w"},{"SH_ID_36":"10g8xyk","区36":"9","地址":"四川北路1926号","lng":121.48426082624492,"lat":31.262369319251064,"确诊日期36":"w"},{"SH_ID_36":"10g8xyl","区36":"9","地址":"四川北路1932号","lng":121.48410459477599,"lat":31.26275736817437,"确诊日期36":"w"},{"SH_ID_36":"10g8xym","区36":"9","地址":"四川北路1953弄","lng":121.48270728180276,"lat":31.262866217502257,"确诊日期36":"w"},{"SH_ID_36":"10g8xyn","区36":"9","地址":"四达路58弄","lng":121.49128904257077,"lat":31.267544029568295,"确诊日期36":"w"},{"SH_ID_36":"10g8xyo","区36":"9","地址":"四平路372号","lng":121.49224468899595,"lat":31.266292210311356,"确诊日期36":"w"},{"SH_ID_36":"10g8xyp","区36":"9","地址":"四平路421弄","lng":121.49200027061644,"lat":31.269082416999563,"确诊日期36":"w"},{"SH_ID_36":"10g8xyq","区36":"9","地址":"四平路52弄","lng":121.4884550121049,"lat":31.25757385337251,"确诊日期36":"w"},{"SH_ID_36":"10g8xyr","区36":"9","地址":"四平路621弄","lng":121.49654353415937,"lat":31.27222553764407,"确诊日期36":"w"},{"SH_ID_36":"10g8xys","区36":"9","地址":"唐山路577弄","lng":121.50529031453388,"lat":31.25605986513656,"确诊日期36":"w"},{"SH_ID_36":"10g8xyt","区36":"9","地址":"唐山路708弄","lng":121.50821139281656,"lat":31.256805661796736,"确诊日期36":"w"},{"SH_ID_36":"10g8xyu","区36":"9","地址":"唐山路818弄","lng":121.50927797589073,"lat":31.25893905479947,"确诊日期36":"w"},{"SH_ID_36":"10g8xyv","区36":"9","地址":"塘沽路300号","lng":121.48919229464595,"lat":31.24821016856037,"确诊日期36":"w"},{"SH_ID_36":"10g8xyw","区36":"9","地址":"通州路419弄","lng":121.49374717560292,"lat":31.25822248262031,"确诊日期36":"w"},{"SH_ID_36":"10g8xyx","区36":"9","地址":"同心路116弄","lng":121.4773988777131,"lat":31.266260237562133,"确诊日期36":"w"},{"SH_ID_36":"10g8xyy","区36":"9","地址":"同心路125弄","lng":121.47764471975272,"lat":31.267537593779394,"确诊日期36":"w"},{"SH_ID_36":"10g8xyz","区36":"9","地址":"同心路133弄","lng":121.4775350729138,"lat":31.26800718718567,"确诊日期36":"w"},{"SH_ID_36":"10g8xz0","区36":"9","地址":"同心路801弄","lng":121.47164758100823,"lat":31.271221287145615,"确诊日期36":"w"},{"SH_ID_36":"10g8xz1","区36":"9","地址":"万安路356号","lng":121.48368823914895,"lat":31.30191006172525,"确诊日期36":"w"},{"SH_ID_36":"10g8xz2","区36":"9","地址":"万安路409弄","lng":121.48344772705295,"lat":31.30185206157164,"确诊日期36":"w"},{"SH_ID_36":"10g8xz3","区36":"9","地址":"汶水东路541弄","lng":121.47939012444473,"lat":31.29016162219005,"确诊日期36":"w"},{"SH_ID_36":"10g8xz4","区36":"9","地址":"吴家湾路136弄","lng":121.4854685450156,"lat":31.29313843626916,"确诊日期36":"w"},{"SH_ID_36":"10g8xz5","区36":"9","地址":"吴家湾路200弄","lng":121.48493379287075,"lat":31.295084564530924,"确诊日期36":"w"},{"SH_ID_36":"10g8xz6","区36":"9","地址":"西宝兴路949弄","lng":121.46982412559464,"lat":31.270189607117867,"确诊日期36":"w"},{"SH_ID_36":"10g8xz7","区36":"9","地址":"西江湾路476弄","lng":121.47910654346906,"lat":31.272427696650748,"确诊日期36":"w"},{"SH_ID_36":"10g8xz8","区36":"9","地址":"祥德路143弄","lng":121.48818071545016,"lat":31.2710852664675,"确诊日期36":"w"},{"SH_ID_36":"10g8xz9","区36":"9","地址":"新市北路1501弄","lng":121.48165840764563,"lat":31.30486580843764,"确诊日期36":"w"},{"SH_ID_36":"10g8xza","区36":"9","地址":"新市路228号","lng":121.48043953184276,"lat":31.28629835415391,"确诊日期36":"w"},{"SH_ID_36":"10g8xzb","区36":"9","地址":"新市南路1133弄","lng":121.48091810506808,"lat":31.297505762622098,"确诊日期36":"w"},{"SH_ID_36":"10g8xzc","区36":"9","地址":"新市南路841弄","lng":121.48211571939201,"lat":31.296071985183932,"确诊日期36":"w"},{"SH_ID_36":"10g8xzd","区36":"9","地址":"逸仙路328号","lng":121.48619544510638,"lat":31.299600621456392,"确诊日期36":"w"},{"SH_ID_36":"10g8xze","区36":"9","地址":"银欣路38号","lng":121.49139727668953,"lat":31.262123315255522,"确诊日期36":"w"},{"SH_ID_36":"10g8xzf","区36":"9","地址":"邮电新村","lng":121.49429040378494,"lat":31.270372595860923,"确诊日期36":"w"},{"SH_ID_36":"10g8xzg","区36":"9","地址":"友谊一村","lng":121.4788538632444,"lat":31.28502954198795,"确诊日期36":"w"},{"SH_ID_36":"10g8xzh","区36":"9","地址":"玉田路333号","lng":121.49148630423727,"lat":31.27863832099912,"确诊日期36":"w"},{"SH_ID_36":"10g8xzi","区36":"9","地址":"岳州路50号","lng":121.49793683274908,"lat":31.256920741048035,"确诊日期36":"w"},{"SH_ID_36":"10g8xzj","区36":"9","地址":"运光路72号","lng":121.49604797235456,"lat":31.29058723459266,"确诊日期36":"w"},{"SH_ID_36":"10g8xzk","区36":"9","地址":"中山北一路131弄","lng":121.47656313199458,"lat":31.272710292035082,"确诊日期36":"w"},{"SH_ID_36":"10g8xzl","区36":"9","地址":"中山北一路280弄","lng":121.47891112254995,"lat":31.276910068591793,"确诊日期36":"w"},{"SH_ID_36":"10g8xzm","区36":"9","地址":"周家嘴路86号","lng":121.49388772552469,"lat":31.253242717344524,"确诊日期36":"w"},{"SH_ID_36":"10g8xzn","区36":"9","地址":"周家嘴路86弄","lng":121.49405753310725,"lat":31.253152313353933,"确诊日期36":"w"},{"SH_ID_36":"10g8xzo","区36":"9","地址":"株洲路258弄","lng":121.4649376227273,"lat":31.276523514051995,"确诊日期36":"w"},{"SH_ID_36":"10g8wm3","区36":"1","地址":"半淞园路178号","lng":121.49766580370908,"lat":31.205049986758176,"确诊日期36":"w"},{"SH_ID_36":"10g8wm4","区36":"1","地址":"半淞园路650号","lng":121.49453414105486,"lat":31.19859986289847,"确诊日期36":"w"},{"SH_ID_36":"10g8wm5","区36":"1","地址":"保屯路211弄","lng":121.49129373820564,"lat":31.20388710210188,"确诊日期36":"w"},{"SH_ID_36":"10g8wm6","区36":"1","地址":"保屯路221弄","lng":121.49199248500899,"lat":31.203102616719292,"确诊日期36":"w"},{"SH_ID_36":"10g8wm7","区36":"1","地址":"保屯路99弄","lng":121.49032783322632,"lat":31.20739535264218,"确诊日期36":"w"},{"SH_ID_36":"10g8wm8","区36":"1","地址":"北海路216号","lng":121.47821921554714,"lat":31.230306534059668,"确诊日期36":"w"},{"SH_ID_36":"10g8wm9","区36":"1","地址":"北海路267弄","lng":121.47823195986682,"lat":31.230289562185785,"确诊日期36":"w"},{"SH_ID_36":"10g8wma","区36":"1","地址":"北京东路121号","lng":121.48794553128035,"lat":31.240629052181802,"确诊日期36":"w"},{"SH_ID_36":"10g8wmb","区36":"1","地址":"北京东路316弄","lng":121.48389910522211,"lat":31.241410781107987,"确诊日期36":"w"},{"SH_ID_36":"10g8wmc","区36":"1","地址":"北京东路431弄","lng":121.47960539076568,"lat":31.239174692878123,"确诊日期36":"w"},{"SH_ID_36":"10g8wmd","区36":"1","地址":"北京西路240弄","lng":121.46904126607753,"lat":31.235875494961274,"确诊日期36":"w"},{"SH_ID_36":"10g8wme","区36":"1","地址":"北京西路256号","lng":121.46898464572546,"lat":31.235952095702554,"确诊日期36":"w"},{"SH_ID_36":"10g8wmf","区36":"1","地址":"北京西路280弄","lng":121.46553496734016,"lat":31.234265940126296,"确诊日期36":"w"},{"SH_ID_36":"10g8wmg","区36":"1","地址":"曹家街62号","lng":121.48640108975849,"lat":31.218476361502752,"确诊日期36":"w"},{"SH_ID_36":"10g8wmh","区36":"1","地址":"成都北路262弄","lng":121.46775280838376,"lat":31.228446703933933,"确诊日期36":"w"},{"SH_ID_36":"10g8wmi","区36":"1","地址":"成都北路782号","lng":121.466984446977,"lat":31.2272044993127,"确诊日期36":"w"},{"SH_ID_36":"10g8wmj","区36":"1","地址":"成都南路108弄","lng":121.46707111992163,"lat":31.221751084610577,"确诊日期36":"w"},{"SH_ID_36":"10g8wmk","区36":"1","地址":"成都南路132弄","lng":121.46800049559609,"lat":31.221080801820115,"确诊日期36":"w"},{"SH_ID_36":"10g8wmv","区36":"1","地址":"打浦路139弄","lng":121.4832810632901,"lat":31.17850313303278,"确诊日期36":"w"},{"SH_ID_36":"10g8wmw","区36":"1","地址":"打浦路299弄","lng":121.47229655856187,"lat":31.201423139163733,"确诊日期36":"w"},{"SH_ID_36":"10g8wmx","区36":"1","地址":"打浦路303弄","lng":121.47142198470112,"lat":31.199848234020752,"确诊日期36":"w"},{"SH_ID_36":"10g8wmy","区36":"1","地址":"打浦路316弄","lng":121.47127686778893,"lat":31.200153789795813,"确诊日期36":"w"},{"SH_ID_36":"10g8wmz","区36":"1","地址":"打浦路318号","lng":121.47144108533537,"lat":31.19938334315097,"确诊日期36":"w"},{"SH_ID_36":"10g8wn0","区36":"1","地址":"打浦路339弄","lng":121.4719285227625,"lat":31.199620693220727,"确诊日期36":"w"},{"SH_ID_36":"10g8wn1","区36":"1","地址":"打浦路38弄","lng":121.4689779399163,"lat":31.204826138996207,"确诊日期36":"w"},{"SH_ID_36":"10g8wn2","区36":"1","地址":"打浦路398弄","lng":121.47199600504764,"lat":31.197543820267672,"确诊日期36":"w"},{"SH_ID_36":"10g8wn3","区36":"1","地址":"打浦路399号","lng":121.47228184869256,"lat":31.198679177106065,"确诊日期36":"w"},{"SH_ID_36":"10g8wn4","区36":"1","地址":"打浦路457弄","lng":121.47352630021877,"lat":31.19766396709036,"确诊日期36":"w"},{"SH_ID_36":"10g8wn5","区36":"1","地址":"打浦路500弄","lng":121.47284892225484,"lat":31.196399059342887,"确诊日期36":"w"},{"SH_ID_36":"10g8wn7","区36":"1","地址":"大沽路141号","lng":121.47135060789354,"lat":31.226368177673375,"确诊日期36":"w"},{"SH_ID_36":"10g8wn6","区36":"1","地址":"大沽路183弄","lng":121.47141016917948,"lat":31.22594584688291,"确诊日期36":"w"},{"SH_ID_36":"10g8wn8","区36":"1","地址":"大沽路186弄","lng":121.47106459656558,"lat":31.22664941010865,"确诊日期36":"w"},{"SH_ID_36":"10g8wn9","区36":"1","地址":"大吉路173弄","lng":121.48384687341343,"lat":31.214410353212806,"确诊日期36":"w"},{"SH_ID_36":"10g8wna","区36":"1","地址":"大吉路26弄","lng":121.48663334145868,"lat":31.21514449421047,"确诊日期36":"w"},{"SH_ID_36":"10g8wnb","区36":"1","地址":"大吉路270号","lng":121.4825507460576,"lat":31.213131116110766,"确诊日期36":"w"},{"SH_ID_36":"10g8wnc","区36":"1","地址":"大吉路276号","lng":121.48251209289589,"lat":31.213134101080016,"确诊日期36":"w"},{"SH_ID_36":"10g8wnd","区36":"1","地址":"大吉路50号","lng":121.48632179345681,"lat":31.214814649529938,"确诊日期36":"w"},{"SH_ID_36":"10g8wne","区36":"1","地址":"大林路255号","lng":121.4835365871167,"lat":31.212587183616503,"确诊日期36":"w"},{"SH_ID_36":"10g8wnf","区36":"1","地址":"大林路31弄","lng":121.48728605347193,"lat":31.214539558870573,"确诊日期36":"w"},{"SH_ID_36":"10g8wng","区36":"1","地址":"大林路338号","lng":121.4836817068376,"lat":31.21226121577253,"确诊日期36":"w"},{"SH_ID_36":"10g8wnh","区36":"1","地址":"大林路78号","lng":121.48686627934042,"lat":31.21306291808768,"确诊日期36":"w"},{"SH_ID_36":"10g8wni","区36":"1","地址":"淡水路139号","lng":121.47417819591493,"lat":31.22046903505934,"确诊日期36":"w"},{"SH_ID_36":"10g8wnj","区36":"1","地址":"淡水路214弄","lng":121.4727622890305,"lat":31.217069215185678,"确诊日期36":"w"},{"SH_ID_36":"10g8wnk","区36":"1","地址":"淡水路222号","lng":121.47330764942569,"lat":31.21732571828493,"确诊日期36":"w"},{"SH_ID_36":"10g8wnl","区36":"1","地址":"淡水路256弄","lng":121.47289883781598,"lat":31.21653360509811,"确诊日期36":"w"},{"SH_ID_36":"10g8wnm","区36":"1","地址":"淡水路260号","lng":121.47321481649665,"lat":31.21670814501669,"确诊日期36":"w"},{"SH_ID_36":"10g8wnn","区36":"1","地址":"淡水路266弄","lng":121.47295466054226,"lat":31.215966509528215,"确诊日期36":"w"},{"SH_ID_36":"10g8wno","区36":"1","地址":"淡水路268号","lng":121.47311985193804,"lat":31.216316369434182,"确诊日期36":"w"},{"SH_ID_36":"10g8wnp","区36":"1","地址":"淡水路345弄","lng":121.47442879892249,"lat":31.213229304656835,"确诊日期36":"w"},{"SH_ID_36":"10g8wnq","区36":"1","地址":"淡水路89弄","lng":121.47277987504214,"lat":31.221596783320752,"确诊日期36":"w"},{"SH_ID_36":"10g8wnr","区36":"1","地址":"滇池路100号","lng":121.48805603882313,"lat":31.239559190835365,"确诊日期36":"w"},{"SH_ID_36":"10g8wns","区36":"1","地址":"滇池路119号","lng":121.48733799007626,"lat":31.239572500764965,"确诊日期36":"w"},{"SH_ID_36":"10g8wnt","区36":"1","地址":"滇池路199号","lng":121.48819398033379,"lat":31.23962809384096,"确诊日期36":"w"},{"SH_ID_36":"10g8wnu","区36":"1","地址":"定兴路24号","lng":121.47110183703586,"lat":31.23529816461994,"确诊日期36":"w"},{"SH_ID_36":"10g8wnv","区36":"1","地址":"东江阴街184号","lng":121.49707042695056,"lat":31.213886389774864,"确诊日期36":"w"},{"SH_ID_36":"10g8wnw","区36":"1","地址":"东江阴街194号","lng":121.49687828666279,"lat":31.21393092616462,"确诊日期36":"w"},{"SH_ID_36":"10g8wnx","区36":"1","地址":"东街159号","lng":121.49734026822443,"lat":31.222362122407322,"确诊日期36":"w"},{"SH_ID_36":"10g8wny","区36":"1","地址":"东街162弄","lng":121.49759625761133,"lat":31.22206390490175,"确诊日期36":"w"},{"SH_ID_36":"10g8wnz","区36":"1","地址":"东街167弄","lng":121.49707852265364,"lat":31.222226041709686,"确诊日期36":"w"},{"SH_ID_36":"10g8wo0","区36":"1","地址":"东街169号","lng":121.49742918768642,"lat":31.2220342828998,"确诊日期36":"w"},{"SH_ID_36":"10g8wo1","区36":"1","地址":"东台路277号","lng":121.48264193243062,"lat":31.218102853523543,"确诊日期36":"w"},{"SH_ID_36":"10g8wo2","区36":"1","地址":"东台路279号","lng":121.48269152319776,"lat":31.21752724767716,"确诊日期36":"w"},{"SH_ID_36":"10g8wo3","区36":"1","地址":"东唐家弄29号","lng":121.49571823435998,"lat":31.220895172910403,"确诊日期36":"w"},{"SH_ID_36":"10g8wo4","区36":"1","地址":"多稼路218号","lng":121.50142152076837,"lat":31.21249703866099,"确诊日期36":"w"},{"SH_ID_36":"10g8wo5","区36":"1","地址":"方浜西路63弄","lng":121.4827181890901,"lat":31.22035871325912,"确诊日期36":"w"},{"SH_ID_36":"10g8wo6","区36":"1","地址":"方斜路269号","lng":121.48484432740256,"lat":31.21577702750277,"确诊日期36":"w"},{"SH_ID_36":"10g8wo7","区36":"1","地址":"方斜路525弄","lng":121.48316208838038,"lat":31.212451761726403,"确诊日期36":"w"},{"SH_ID_36":"10g8wo8","区36":"1","地址":"方斜路6号","lng":121.48393759722879,"lat":31.220677813991276,"确诊日期36":"w"},{"SH_ID_36":"10g8wo9","区36":"1","地址":"方斜支路35弄","lng":121.48582475262145,"lat":31.21652780719733,"确诊日期36":"w"},{"SH_ID_36":"10g8woa","区36":"1","地址":"丰记码头街52号","lng":121.50446016128642,"lat":31.209251009420694,"确诊日期36":"w"},{"SH_ID_36":"10g8wob","区36":"1","地址":"凤阳路228弄","lng":121.47110907835632,"lat":31.234759325415997,"确诊日期36":"w"},{"SH_ID_36":"10g8woc","区36":"1","地址":"福建南路33号","lng":121.48367815839326,"lat":31.23031372588295,"确诊日期36":"w"},{"SH_ID_36":"10g8wod","区36":"1","地址":"福州路167弄","lng":121.47864376527656,"lat":31.23272323172799,"确诊日期36":"w"},{"SH_ID_36":"10g8woe","区36":"1","地址":"福州路424号","lng":121.48252576517119,"lat":31.23388272954776,"确诊日期36":"w"},{"SH_ID_36":"10g8wof","区36":"1","地址":"福州路614弄","lng":121.47881097946005,"lat":31.23299717046157,"确诊日期36":"w"},{"SH_ID_36":"10g8wog","区36":"1","地址":"福州路623号","lng":121.4788406992118,"lat":31.232077336733923,"确诊日期36":"w"},{"SH_ID_36":"10g8woh","区36":"1","地址":"抚安街9弄","lng":121.49700134134486,"lat":31.221261854656102,"确诊日期36":"w"},{"SH_ID_36":"10g8woi","区36":"1","地址":"复兴东路1055弄","lng":121.48537992556169,"lat":31.22005413614607,"确诊日期36":"w"},{"SH_ID_36":"10g8woj","区36":"1","地址":"复兴东路1188弄","lng":121.48464779809242,"lat":31.21863244576755,"确诊日期36":"w"},{"SH_ID_36":"10g8wok","区36":"1","地址":"复兴东路404弄","lng":121.49645013526441,"lat":31.221464617138405,"确诊日期36":"w"},{"SH_ID_36":"10g8wol","区36":"1","地址":"复兴东路443弄","lng":121.49629523134824,"lat":31.222250502304835,"确诊日期36":"w"},{"SH_ID_36":"10g8wom","区36":"1","地址":"复兴东路701弄","lng":121.49118870219303,"lat":31.222500310451714,"确诊日期36":"w"},{"SH_ID_36":"10g8won","区36":"1","地址":"复兴中路408弄","lng":121.4736506769477,"lat":31.21680230357998,"确诊日期36":"w"},{"SH_ID_36":"10g8woo","区36":"1","地址":"复兴中路480弄","lng":121.47721069653711,"lat":31.213758055790397,"确诊日期36":"w"},{"SH_ID_36":"10g8wop","区36":"1","地址":"复兴中路490号","lng":121.47246537734472,"lat":31.215498587707764,"确诊日期36":"w"},{"SH_ID_36":"10g8woq","区36":"1","地址":"复兴中路50号","lng":121.48193175664812,"lat":31.218694554144403,"确诊日期36":"w"},{"SH_ID_36":"10g8wor","区36":"1","地址":"复兴中路53号","lng":121.48163797472132,"lat":31.218255302993885,"确诊日期36":"w"},{"SH_ID_36":"10g8wos","区36":"1","地址":"复兴中路553弄","lng":121.46697530966335,"lat":31.21470692223604,"确诊日期36":"w"},{"SH_ID_36":"10g8wot","区36":"1","地址":"复兴中路565弄","lng":121.46645843669849,"lat":31.21458092027498,"确诊日期36":"w"},{"SH_ID_36":"10g8wou","区36":"1","地址":"复兴中路591号","lng":121.4650489172734,"lat":31.214750876742606,"确诊日期36":"w"},{"SH_ID_36":"10g8wov","区36":"1","地址":"牯岭路145弄","lng":121.47144070517989,"lat":31.235833027418046,"确诊日期36":"w"},{"SH_ID_36":"10g8wow","区36":"1","地址":"牯岭路147号","lng":121.47115759221238,"lat":31.236079918817904,"确诊日期36":"w"},{"SH_ID_36":"10g8wox","区36":"1","地址":"牯岭路176号","lng":121.47073119429874,"lat":31.23602606457949,"确诊日期36":"w"},{"SH_ID_36":"10g8woy","区36":"1","地址":"光启路105号","lng":121.49423027641384,"lat":31.22407987224943,"确诊日期36":"w"},{"SH_ID_36":"10g8woz","区36":"1","地址":"光启路111号","lng":121.49420472131729,"lat":31.223770184803175,"确诊日期36":"w"},{"SH_ID_36":"10g8wp0","区36":"1","地址":"光启路78弄","lng":121.49393608777176,"lat":31.224683449511218,"确诊日期36":"w"},{"SH_ID_36":"10g8wp1","区36":"1","地址":"光启南路16号","lng":121.49416005591937,"lat":31.22162545874604,"确诊日期36":"w"},{"SH_ID_36":"10g8wp2","区36":"1","地址":"光启南路363号","lng":121.49547040811477,"lat":31.216015167284823,"确诊日期36":"w"},{"SH_ID_36":"10g8wp3","区36":"1","地址":"广东路138号","lng":121.48823247190595,"lat":31.233988708225407,"确诊日期36":"w"},{"SH_ID_36":"10g8wp4","区36":"1","地址":"广东路154号","lng":121.48816786850443,"lat":31.233582601974458,"确诊日期36":"w"},{"SH_ID_36":"10g8wp5","区36":"1","地址":"广东路212号","lng":121.48664825160718,"lat":31.233333163348554,"确诊日期36":"w"},{"SH_ID_36":"10g8wp6","区36":"1","地址":"广东路339号","lng":121.484536061202,"lat":31.23225085328674,"确诊日期36":"w"},{"SH_ID_36":"10g8wp7","区36":"1","地址":"广东路554号","lng":121.4810831087793,"lat":31.232033320060427,"确诊日期36":"w"},{"SH_ID_36":"10g8wp8","区36":"1","地址":"广东路652号","lng":121.47932094957432,"lat":31.231278648831196,"确诊日期36":"w"},{"SH_ID_36":"10g8wp9","区36":"1","地址":"广东路658号","lng":121.47954512864108,"lat":31.23060173449119,"确诊日期36":"w"},{"SH_ID_36":"10g8wpa","区36":"1","地址":"广西北路118弄","lng":121.4788360889107,"lat":31.23135348669586,"确诊日期36":"w"},{"SH_ID_36":"10g8wpb","区36":"1","地址":"广西北路216号","lng":121.47805564016281,"lat":31.23275015128629,"确诊日期36":"w"},{"SH_ID_36":"10g8wpc","区36":"1","地址":"广西北路228号","lng":121.47845672171435,"lat":31.23338208624641,"确诊日期36":"w"},{"SH_ID_36":"10g8wpd","区36":"1","地址":"广西北路658号","lng":121.47686149181843,"lat":31.235915747609262,"确诊日期36":"w"},{"SH_ID_36":"10g8wpe","区36":"1","地址":"广西南路23号","lng":121.4808058858265,"lat":31.229193757267765,"确诊日期36":"w"},{"SH_ID_36":"10g8wpf","区36":"1","地址":"贵州路131弄","lng":121.47601520122261,"lat":31.23616713702434,"确诊日期36":"w"},{"SH_ID_36":"10g8wpg","区36":"1","地址":"贵州路198弄","lng":121.47563228404489,"lat":31.237244978476106,"确诊日期36":"w"},{"SH_ID_36":"10g8wph","区36":"1","地址":"国货路333弄","lng":121.49363983517858,"lat":31.21042214108662,"确诊日期36":"w"},{"SH_ID_36":"10g8wpi","区36":"1","地址":"海潮路168号","lng":121.49770573155735,"lat":31.209420840422574,"确诊日期36":"w"},{"SH_ID_36":"10g8wpj","区36":"1","地址":"海潮路240弄","lng":121.49725719113086,"lat":31.207703297230772,"确诊日期36":"w"},{"SH_ID_36":"10g8wpk","区36":"1","地址":"海潮路256弄","lng":121.49702349891251,"lat":31.207396672995863,"确诊日期36":"w"},{"SH_ID_36":"10g8wpl","区36":"1","地址":"海南西弄58号","lng":121.49994006550796,"lat":31.21367390167877,"确诊日期36":"w"},{"SH_ID_36":"10g8wpm","区36":"1","地址":"汉口路429弄","lng":121.4826548703125,"lat":31.234900767710528,"确诊日期36":"w"},{"SH_ID_36":"10g8wpn","区36":"1","地址":"汉口路441号","lng":121.48190874715402,"lat":31.234885496236995,"确诊日期36":"w"},{"SH_ID_36":"10g8wpo","区36":"1","地址":"汉口路457号","lng":121.48173407154417,"lat":31.234532006008557,"确诊日期36":"w"},{"SH_ID_36":"10g8wpp","区36":"1","地址":"汉口路559号","lng":121.47966852240586,"lat":31.234122728437026,"确诊日期36":"w"},{"SH_ID_36":"10g8wpq","区36":"1","地址":"汉口路689号","lng":121.4771673117653,"lat":31.232967202576567,"确诊日期36":"w"},{"SH_ID_36":"10g8wpr","区36":"1","地址":"合肥路223弄","lng":121.47615877493996,"lat":31.21442281448914,"确诊日期36":"w"},{"SH_ID_36":"10g8wps","区36":"1","地址":"合肥路349弄","lng":121.4733587826957,"lat":31.21378412389335,"确诊日期36":"w"},{"SH_ID_36":"10g8wpt","区36":"1","地址":"和顺街26弄","lng":121.49633441203606,"lat":31.220626346533507,"确诊日期36":"w"},{"SH_ID_36":"10g8wpu","区36":"1","地址":"河南南路600弄","lng":121.49049249312479,"lat":31.219908580507234,"确诊日期36":"w"},{"SH_ID_36":"10g8wpv","区36":"1","地址":"河南南路655弄","lng":121.4919927627039,"lat":31.21807806375871,"确诊日期36":"w"},{"SH_ID_36":"10g8wpw","区36":"1","地址":"河南中路166弄","lng":121.48496584470118,"lat":31.233752658214446,"确诊日期36":"w"},{"SH_ID_36":"10g8wpx","区36":"1","地址":"河南中路1号","lng":121.48611291373014,"lat":31.23202510519606,"确诊日期36":"w"},{"SH_ID_36":"10g8wpy","区36":"1","地址":"河南中路88号","lng":121.48673871019933,"lat":31.23225264183254,"确诊日期36":"w"},{"SH_ID_36":"10g8wpz","区36":"1","地址":"虹桥弄36弄","lng":121.4935883330805,"lat":31.22176004564855,"确诊日期36":"w"},{"SH_ID_36":"10g8wq0","区36":"1","地址":"湖滨路210号","lng":121.47609780984693,"lat":31.22080235747769,"确诊日期36":"w"},{"SH_ID_36":"10g8wq1","区36":"1","地址":"淮海东路668弄","lng":121.48199067497659,"lat":31.226205486428864,"确诊日期36":"w"},{"SH_ID_36":"10g8wq2","区36":"1","地址":"淮海东路89弄","lng":121.48183740651587,"lat":31.225347336258878,"确诊日期36":"w"},{"SH_ID_36":"10g8wq3","区36":"1","地址":"淮海中路494弄","lng":121.4697174440544,"lat":31.221544869001736,"确诊日期36":"w"},{"SH_ID_36":"10g8wq4","区36":"1","地址":"淮海中路542弄","lng":121.46877819315826,"lat":31.221200717456462,"确诊日期36":"w"},{"SH_ID_36":"10g8wq5","区36":"1","地址":"淮海中路558号","lng":121.46810277980697,"lat":31.220990566811096,"确诊日期36":"w"},{"SH_ID_36":"10g8wq6","区36":"1","地址":"淮海中路567弄","lng":121.46835505327266,"lat":31.22015366330279,"确诊日期36":"w"},{"SH_ID_36":"10g8wq7","区36":"1","地址":"淮海中路613弄","lng":121.46739381664793,"lat":31.21965984981888,"确诊日期36":"w"},{"SH_ID_36":"10g8wq8","区36":"1","地址":"淮海中路697弄","lng":121.46565629964618,"lat":31.21874499801969,"确诊日期36":"w"},{"SH_ID_36":"10g8wq9","区36":"1","地址":"淮海中路833弄","lng":121.4624381894409,"lat":31.218237150810225,"确诊日期36":"w"},{"SH_ID_36":"10g8wqa","区36":"1","地址":"淮海中路927弄","lng":121.4605684379345,"lat":31.21622709579602,"确诊日期36":"w"},{"SH_ID_36":"10g8wqb","区36":"1","地址":"黄陂南路685弄","lng":121.47791283891084,"lat":31.21422102199916,"确诊日期36":"w"},{"SH_ID_36":"10g8wqc","区36":"1","地址":"黄陂南路847弄","lng":121.47872710736755,"lat":31.211084247455254,"确诊日期36":"w"},{"SH_ID_36":"10g8wqd","区36":"1","地址":"黄河路110号","lng":121.47084825917749,"lat":31.23487652183301,"确诊日期36":"w"},{"SH_ID_36":"10g8wqe","区36":"1","地址":"黄河路111号","lng":121.47053493454001,"lat":31.234956763086846,"确诊日期36":"w"},{"SH_ID_36":"10g8wqf","区36":"1","地址":"黄河路253弄","lng":121.46724966137957,"lat":31.237248880225057,"确诊日期36":"w"},{"SH_ID_36":"10g8wqg","区36":"1","地址":"黄河路65号","lng":121.47056375340793,"lat":31.23408765205783,"确诊日期36":"w"},{"SH_ID_36":"10g8wqh","区36":"1","地址":"黄家路55弄","lng":121.49703776615979,"lat":31.21616172858998,"确诊日期36":"w"},{"SH_ID_36":"10g8wqi","区36":"1","地址":"黄家路88弄","lng":121.49605896227659,"lat":31.21538335012629,"确诊日期36":"w"},{"SH_ID_36":"10g8wqj","区36":"1","地址":"黄家路99弄","lng":121.49683785863469,"lat":31.215937636714955,"确诊日期36":"w"},{"SH_ID_36":"10g8wqk","区36":"1","地址":"黄家阙路68弄","lng":121.48742418584948,"lat":31.214918291487667,"确诊日期36":"w"},{"SH_ID_36":"10g8wql","区36":"1","地址":"黄家阙路76弄","lng":121.48755728837152,"lat":31.214628453840774,"确诊日期36":"w"},{"SH_ID_36":"10g8wqm","区36":"1","地址":"黄家阙路88弄","lng":121.48754671554973,"lat":31.21484672543217,"确诊日期36":"w"},{"SH_ID_36":"10g8wqn","区36":"1","地址":"徽宁路164号","lng":121.49334553181238,"lat":31.211621461059817,"确诊日期36":"w"},{"SH_ID_36":"10g8wqo","区36":"1","地址":"火腿弄11号","lng":121.49626667095458,"lat":31.221068492979516,"确诊日期36":"w"},{"SH_ID_36":"10g8wqp","区36":"1","地址":"火腿弄43号","lng":121.49577094930484,"lat":31.221275436470396,"确诊日期36":"w"},{"SH_ID_36":"10g8wqq","区36":"1","地址":"济南路8号","lng":121.47788465135632,"lat":31.221670110990505,"确诊日期36":"w"},{"SH_ID_36":"10g8wqr","区36":"1","地址":"建德路9号","lng":121.46733940294187,"lat":31.209667226109403,"确诊日期36":"w"},{"SH_ID_36":"10g8wqs","区36":"1","地址":"建国东路61弄","lng":121.4797441778537,"lat":31.21332001394888,"确诊日期36":"w"},{"SH_ID_36":"10g8wqt","区36":"1","地址":"建国西路110弄","lng":121.46504037772901,"lat":31.208196456557456,"确诊日期36":"w"},{"SH_ID_36":"10g8wqu","区36":"1","地址":"建国西路136号","lng":121.46458761074403,"lat":31.207432707482432,"确诊日期36":"w"},{"SH_ID_36":"10g8wqv","区36":"1","地址":"建国西路78弄","lng":121.46543810161678,"lat":31.20790050948718,"确诊日期36":"w"},{"SH_ID_36":"10g8wqw","区36":"1","地址":"建国新路1号","lng":121.48478120740067,"lat":31.21448477898394,"确诊日期36":"w"},{"SH_ID_36":"10g8wqx","区36":"1","地址":"建国中路103弄","lng":121.46940868602682,"lat":31.209541438998972,"确诊日期36":"w"},{"SH_ID_36":"10g8wqy","区36":"1","地址":"建国中路137弄","lng":121.4684200891785,"lat":31.209025278978636,"确诊日期36":"w"},{"SH_ID_36":"10g8wqz","区36":"1","地址":"建国中路155弄","lng":121.46769440484684,"lat":31.208768598289996,"确诊日期36":"w"},{"SH_ID_36":"10g8wr0","区36":"1","地址":"建国中路1号","lng":121.4715547211452,"lat":31.210442294678085,"确诊日期36":"w"},{"SH_ID_36":"10g8wr1","区36":"1","地址":"江西中路114号","lng":121.4876721587844,"lat":31.233643437772308,"确诊日期36":"w"},{"SH_ID_36":"10g8wr2","区36":"1","地址":"江西中路128号","lng":121.48758237644272,"lat":31.233847742115927,"确诊日期36":"w"},{"SH_ID_36":"10g8wr3","区36":"1","地址":"江西中路135弄","lng":121.48659415144049,"lat":31.233680089481872,"确诊日期36":"w"},{"SH_ID_36":"10g8wr4","区36":"1","地址":"江西中路141号","lng":121.48744284346341,"lat":31.23425771484029,"确诊日期36":"w"},{"SH_ID_36":"10g8wr5","区36":"1","地址":"江西中路412弄","lng":121.48591311880146,"lat":31.241504846631933,"确诊日期36":"w"},{"SH_ID_36":"10g8wr6","区36":"1","地址":"江西中路414号","lng":121.48536801750954,"lat":31.240993013257174,"确诊日期36":"w"},{"SH_ID_36":"10g8wr7","区36":"1","地址":"江西中路418号","lng":121.48547651329902,"lat":31.24108510220922,"确诊日期36":"w"},{"SH_ID_36":"10g8wr8","区36":"1","地址":"江西中路434号","lng":121.48540948142902,"lat":31.24140807028579,"确诊日期36":"w"},{"SH_ID_36":"10g8wr9","区36":"1","地址":"江西中路436号","lng":121.48519900020507,"lat":31.241546878703236,"确诊日期36":"w"},{"SH_ID_36":"10g8wra","区36":"1","地址":"江西中路440号","lng":121.48518415624376,"lat":31.241419748637128,"确诊日期36":"w"},{"SH_ID_36":"10g8wrb","区36":"1","地址":"江西中路442号","lng":121.48515016938612,"lat":31.2414018814543,"确诊日期36":"w"},{"SH_ID_36":"10g8wrc","区36":"1","地址":"江西中路451号","lng":121.48517092952822,"lat":31.241570326418046,"确诊日期36":"w"},{"SH_ID_36":"10g8wrd","区36":"1","地址":"江西中路452号","lng":121.48532773918576,"lat":31.241752404952706,"确诊日期36":"w"},{"SH_ID_36":"10g8wre","区36":"1","地址":"江西中路460弄","lng":121.48563436839665,"lat":31.241904194490044,"确诊日期36":"w"},{"SH_ID_36":"10g8wrf","区36":"1","地址":"江西中路467号","lng":121.48491271076564,"lat":31.24213236716941,"确诊日期36":"w"},{"SH_ID_36":"10g8wrg","区36":"1","地址":"江西中路473号","lng":121.48485025910267,"lat":31.242095368462582,"确诊日期36":"w"},{"SH_ID_36":"10g8wrh","区36":"1","地址":"江西中路481号","lng":121.48488904805859,"lat":31.24245825682058,"确诊日期36":"w"},{"SH_ID_36":"10g8wri","区36":"1","地址":"江阴路106弄","lng":121.468596881089,"lat":31.229903484128467,"确诊日期36":"w"},{"SH_ID_36":"10g8wrj","区36":"1","地址":"江阴路110号","lng":121.46844719905194,"lat":31.229510779688503,"确诊日期36":"w"},{"SH_ID_36":"10g8wrk","区36":"1","地址":"江阴路130弄","lng":121.46881671590678,"lat":31.229689181806265,"确诊日期36":"w"},{"SH_ID_36":"10g8wrl","区36":"1","地址":"金陵东路10号","lng":121.49119032035802,"lat":31.231531204429686,"确诊日期36":"w"},{"SH_ID_36":"10g8wrm","区36":"1","地址":"金陵东路117号","lng":121.48983389986903,"lat":31.231114665532214,"确诊日期36":"w"},{"SH_ID_36":"10g8wrn","区36":"1","地址":"金陵东路183弄","lng":121.48840111363589,"lat":31.230044282232953,"确诊日期36":"w"},{"SH_ID_36":"10g8wro","区36":"1","地址":"金陵东路67号","lng":121.49092368424658,"lat":31.231266265625546,"确诊日期36":"w"},{"SH_ID_36":"10g8wrp","区36":"1","地址":"金陵东路91弄","lng":121.48998403992407,"lat":31.231082411374746,"确诊日期36":"w"},{"SH_ID_36":"10g8wrq","区36":"1","地址":"金坛路35弄","lng":121.49807405819745,"lat":31.21950923382123,"确诊日期36":"w"},{"SH_ID_36":"10g8wrr","区36":"1","地址":"静修路126弄","lng":121.48635221033611,"lat":31.219416836609078,"确诊日期36":"w"},{"SH_ID_36":"10g8wrs","区36":"1","地址":"九江路595号","lng":121.47963335743914,"lat":31.234473564767704,"确诊日期36":"w"},{"SH_ID_36":"10g8wrt","区36":"1","地址":"局门路1弄","lng":121.4802341738411,"lat":31.208975135843474,"确诊日期36":"w"},{"SH_ID_36":"10g8wru","区36":"1","地址":"局门路241弄","lng":121.48037796033232,"lat":31.20788649101466,"确诊日期36":"w"},{"SH_ID_36":"10g8wrv","区36":"1","地址":"局门路295弄","lng":121.48192760894874,"lat":31.205125254117835,"确诊日期36":"w"},{"SH_ID_36":"10g8wrw","区36":"1","地址":"局门路402号","lng":121.48148037632717,"lat":31.20413723653248,"确诊日期36":"w"},{"SH_ID_36":"10g8wrx","区36":"1","地址":"局门路434弄","lng":121.4812196063615,"lat":31.202712496146315,"确诊日期36":"w"},{"SH_ID_36":"10g8wry","区36":"1","地址":"局门路620号","lng":121.48301142519333,"lat":31.19995061760033,"确诊日期36":"w"},{"SH_ID_36":"10g8wrz","区36":"1","地址":"巨鹿路260弄","lng":121.46206726420654,"lat":31.223156154395802,"确诊日期36":"w"},{"SH_ID_36":"10g8ws0","区36":"1","地址":"巨鹿路367号","lng":121.45972313072915,"lat":31.22255168622135,"确诊日期36":"w"},{"SH_ID_36":"10g8ws1","区36":"1","地址":"巨鹿路395弄","lng":121.45891925643005,"lat":31.22228290683741,"确诊日期36":"w"},{"SH_ID_36":"10g8ws2","区36":"1","地址":"巨鹿路403号","lng":121.45797803482134,"lat":31.22241439246789,"确诊日期36":"w"},{"SH_ID_36":"10g8ws3","区36":"1","地址":"巨鹿路4号","lng":121.45032778343524,"lat":31.22015201686565,"确诊日期36":"w"},{"SH_ID_36":"10g8ws4","区36":"1","地址":"聚奎新村","lng":121.49613673876719,"lat":31.22350641880177,"确诊日期36":"w"},{"SH_ID_36":"10g8ws5","区36":"1","地址":"丽园路1032弄","lng":121.47201203838816,"lat":31.20546233982475,"确诊日期36":"w"},{"SH_ID_36":"10g8ws6","区36":"1","地址":"丽园路43弄","lng":121.48920337472221,"lat":31.211396768646708,"确诊日期36":"w"},{"SH_ID_36":"10g8ws7","区36":"1","地址":"丽园路468号","lng":121.48243060910312,"lat":31.207995626501216,"确诊日期36":"w"},{"SH_ID_36":"10g8ws8","区36":"1","地址":"丽园路502号","lng":121.48198605500139,"lat":31.207643104552844,"确诊日期36":"w"},{"SH_ID_36":"10g8ws9","区36":"1","地址":"丽园路710弄","lng":121.47926443760159,"lat":31.206339814683307,"确诊日期36":"w"},{"SH_ID_36":"10g8wsa","区36":"1","地址":"丽园路842弄","lng":121.47613227556056,"lat":31.20594905272198,"确诊日期36":"w"},{"SH_ID_36":"10g8wsb","区36":"1","地址":"丽园路887号","lng":121.47517781819631,"lat":31.20661006893621,"确诊日期36":"w"},{"SH_ID_36":"10g8wsc","区36":"1","地址":"林荫路260弄","lng":121.4865073895405,"lat":31.212468553489423,"确诊日期36":"w"},{"SH_ID_36":"10g8wsd","区36":"1","地址":"灵济街43号","lng":121.49538783042871,"lat":31.22145895794878,"确诊日期36":"w"},{"SH_ID_36":"10g8wse","区36":"1","地址":"柳市路1弄","lng":121.49901452037437,"lat":31.213218572737127,"确诊日期36":"w"},{"SH_ID_36":"10g8wsf","区36":"1","地址":"柳市路80号","lng":121.49858103757552,"lat":31.212233075063555,"确诊日期36":"w"},{"SH_ID_36":"10g8wsg","区36":"1","地址":"龙华东路888弄","lng":121.47111438307313,"lat":31.192890627819885,"确诊日期36":"w"},{"SH_ID_36":"10g8wsh","区36":"1","地址":"鲁班路168弄","lng":121.47324075900615,"lat":31.20498824441597,"确诊日期36":"w"},{"SH_ID_36":"10g8wsi","区36":"1","地址":"鲁班路277弄","lng":121.47548030067661,"lat":31.20489388745121,"确诊日期36":"w"},{"SH_ID_36":"10g8wsj","区36":"1","地址":"鲁班路388弄","lng":121.4747110445021,"lat":31.20167115976174,"确诊日期36":"w"},{"SH_ID_36":"10g8wsk","区36":"1","地址":"鲁班路400弄","lng":121.47590381039652,"lat":31.20055828658883,"确诊日期36":"w"},{"SH_ID_36":"10g8wsl","区36":"1","地址":"鲁班路412号","lng":121.47545448253695,"lat":31.20028977830198,"确诊日期36":"w"},{"SH_ID_36":"10g8wsm","区36":"1","地址":"鲁班路562弄","lng":121.47621970674678,"lat":31.198576581757113,"确诊日期36":"w"},{"SH_ID_36":"10g8wsn","区36":"1","地址":"鲁班路738弄","lng":121.47766067180176,"lat":31.194289927532182,"确诊日期36":"w"},{"SH_ID_36":"10g8wso","区36":"1","地址":"鲁班路776弄","lng":121.47761157192649,"lat":31.19443392887887,"确诊日期36":"w"},{"SH_ID_36":"10g8wsp","区36":"1","地址":"鲁班路88弄","lng":121.47286091838855,"lat":31.206903175740756,"确诊日期36":"w"},{"SH_ID_36":"10g8wsq","区36":"1","地址":"陆家浜路1018弄","lng":121.48919738221605,"lat":31.211771275555336,"确诊日期36":"w"},{"SH_ID_36":"10g8wsr","区36":"1","地址":"陆家浜路1034弄","lng":121.48925408199582,"lat":31.21175553915245,"确诊日期36":"w"},{"SH_ID_36":"10g8wss","区36":"1","地址":"陆家浜路305弄","lng":121.50067896272299,"lat":31.21171472322151,"确诊日期36":"w"},{"SH_ID_36":"10g8wst","区36":"1","地址":"陆家浜路388号","lng":121.49973401942111,"lat":31.210951045978398,"确诊日期36":"w"},{"SH_ID_36":"10g8wsu","区36":"1","地址":"陆家浜路399号","lng":121.4997791269574,"lat":31.21181953334089,"确诊日期36":"w"},{"SH_ID_36":"10g8wsv","区36":"1","地址":"陆家浜路413弄","lng":121.49962861548703,"lat":31.212576921754145,"确诊日期36":"w"},{"SH_ID_36":"10g8wsw","区36":"1","地址":"陆家浜路418号","lng":121.49948505329914,"lat":31.210945565490327,"确诊日期36":"w"},{"SH_ID_36":"10g8wsx","区36":"1","地址":"陆家浜路521弄","lng":121.49777927339653,"lat":31.212792470888637,"确诊日期36":"w"},{"SH_ID_36":"10g8wsy","区36":"1","地址":"陆家宅路91弄","lng":121.49591981647785,"lat":31.224452686386734,"确诊日期36":"w"},{"SH_ID_36":"10g8wsz","区36":"1","地址":"露香园路166号","lng":121.48526297849008,"lat":31.225034789483487,"确诊日期36":"w"},{"SH_ID_36":"10g8wt0","区36":"1","地址":"马当路222弄","lng":121.47420849396254,"lat":31.219368200101158,"确诊日期36":"w"},{"SH_ID_36":"10g8wt1","区36":"1","地址":"马当路258号","lng":121.47462926107285,"lat":31.21815513717418,"确诊日期36":"w"},{"SH_ID_36":"10g8wt2","区36":"1","地址":"马当路278弄","lng":121.47383276989333,"lat":31.217580107821163,"确诊日期36":"w"},{"SH_ID_36":"10g8wt3","区36":"1","地址":"马当路306弄","lng":121.47492394267525,"lat":31.21751737621062,"确诊日期36":"w"},{"SH_ID_36":"10g8wt4","区36":"1","地址":"马当路310号","lng":121.47460834732027,"lat":31.21715007611784,"确诊日期36":"w"},{"SH_ID_36":"10g8wt5","区36":"1","地址":"马当路318弄","lng":121.47459158242134,"lat":31.21730528159431,"确诊日期36":"w"},{"SH_ID_36":"10g8wt6","区36":"1","地址":"马当路328弄","lng":121.47451350488623,"lat":31.216953720992368,"确诊日期36":"w"},{"SH_ID_36":"10g8wt7","区36":"1","地址":"马当路330号","lng":121.47462254660327,"lat":31.21690240778111,"确诊日期36":"w"},{"SH_ID_36":"10g8wt8","区36":"1","地址":"马当路357弄","lng":121.47617002315883,"lat":31.213131319503827,"确诊日期36":"w"},{"SH_ID_36":"10g8wt9","区36":"1","地址":"茂名南路159弄","lng":121.46225316808543,"lat":31.216176096239163,"确诊日期36":"w"},{"SH_ID_36":"10g8wta","区36":"1","地址":"茂名南路169弄","lng":121.46277762609932,"lat":31.214928304025012,"确诊日期36":"w"},{"SH_ID_36":"10g8wtb","区36":"1","地址":"茂名南路56弄","lng":121.46010610401065,"lat":31.22148216916167,"确诊日期36":"w"},{"SH_ID_36":"10g8wtc","区36":"1","地址":"茂名南路59号","lng":121.46072740892937,"lat":31.2199959046834,"确诊日期36":"w"},{"SH_ID_36":"10g8wtd","区36":"1","地址":"蒙自路345弄","lng":121.47880517216736,"lat":31.20414402805918,"确诊日期36":"w"},{"SH_ID_36":"10g8wte","区36":"1","地址":"蒙自路395弄","lng":121.48034977086044,"lat":31.202894480155113,"确诊日期36":"w"},{"SH_ID_36":"10g8wtf","区36":"1","地址":"蒙自路490弄","lng":121.47976261330454,"lat":31.200513715253667,"确诊日期36":"w"},{"SH_ID_36":"10g8wtg","区36":"1","地址":"蒙自路501弄","lng":121.4802515648654,"lat":31.2012315055146,"确诊日期36":"w"},{"SH_ID_36":"10g8wth","区36":"1","地址":"蒙自路601弄","lng":121.48083769623258,"lat":31.199822746184665,"确诊日期36":"w"},{"SH_ID_36":"10g8wti","区36":"1","地址":"蒙自西路14号","lng":121.4768533596421,"lat":31.207594637097497,"确诊日期36":"w"},{"SH_ID_36":"10g8wtj","区36":"1","地址":"蒙自西路28弄","lng":121.47627893367051,"lat":31.20700369331887,"确诊日期36":"w"},{"SH_ID_36":"10g8wtk","区36":"1","地址":"梦花街31号","lng":121.48911764042009,"lat":31.219545377449794,"确诊日期36":"w"},{"SH_ID_36":"10g8wtl","区36":"1","地址":"面筋弄12弄","lng":121.49837909180935,"lat":31.220329133322434,"确诊日期36":"w"},{"SH_ID_36":"10g8wtm","区36":"1","地址":"南昌路100弄","lng":121.46858898254254,"lat":31.219548763508584,"确诊日期36":"w"},{"SH_ID_36":"10g8wtn","区36":"1","地址":"南昌路110弄","lng":121.46809128732656,"lat":31.21944747556999,"确诊日期36":"w"},{"SH_ID_36":"10g8wto","区36":"1","地址":"南昌路125号","lng":121.46368247023757,"lat":31.217290978908224,"确诊日期36":"w"},{"SH_ID_36":"10g8wtp","区36":"1","地址":"南昌路156号","lng":121.4673985232641,"lat":31.218595203632674,"确诊日期36":"w"},{"SH_ID_36":"10g8wtq","区36":"1","地址":"南昌路178弄","lng":121.46650288370397,"lat":31.218574900775014,"确诊日期36":"w"},{"SH_ID_36":"10g8wtr","区36":"1","地址":"南昌路209弄","lng":121.46036424732488,"lat":31.21536368512868,"确诊日期36":"w"},{"SH_ID_36":"10g8wts","区36":"1","地址":"南昌路272弄","lng":121.46369076845667,"lat":31.217579178974812,"确诊日期36":"w"},{"SH_ID_36":"10g8wtt","区36":"1","地址":"南昌路280号","lng":121.46269181185467,"lat":31.217145611635118,"确诊日期36":"w"},{"SH_ID_36":"10g8wtu","区36":"1","地址":"南昌路326号","lng":121.46139765334124,"lat":31.21621768810839,"确诊日期36":"w"},{"SH_ID_36":"10g8wtv","区36":"1","地址":"南昌路79号","lng":121.46525789304913,"lat":31.217570954744616,"确诊日期36":"w"},{"SH_ID_36":"10g8wtw","区36":"1","地址":"南车站路20弄","lng":121.48993067401369,"lat":31.211748361514037,"确诊日期36":"w"},{"SH_ID_36":"10g8wtx","区36":"1","地址":"南车站路30弄","lng":121.48956928196392,"lat":31.21164125951889,"确诊日期36":"w"},{"SH_ID_36":"10g8wty","区36":"1","地址":"南京东路138号","lng":121.48719309984293,"lat":31.238507296663236,"确诊日期36":"w"},{"SH_ID_36":"10g8wtz","区36":"1","地址":"南京东路199号","lng":121.4858349903828,"lat":31.23771593053587,"确诊日期36":"w"},{"SH_ID_36":"10g8wu0","区36":"1","地址":"南京东路299号","lng":121.48432153195279,"lat":31.23713290498236,"确诊日期36":"w"},{"SH_ID_36":"10g8wu1","区36":"1","地址":"南苏州路551号","lng":121.48111214493171,"lat":31.240208357067022,"确诊日期36":"w"},{"SH_ID_36":"10g8wu2","区36":"1","地址":"南苏州路747号","lng":121.47765692711265,"lat":31.2405496880567,"确诊日期36":"w"},{"SH_ID_36":"10g8wu3","区36":"1","地址":"南塘浜路93弄","lng":121.47394460923259,"lat":31.20412864464907,"确诊日期36":"w"},{"SH_ID_36":"10g8wu4","区36":"1","地址":"宁安路123弄","lng":121.48636763606305,"lat":31.215902870972798,"确诊日期36":"w"},{"SH_ID_36":"10g8wu5","区36":"1","地址":"宁波路116号","lng":121.48440670792195,"lat":31.23922462400125,"确诊日期36":"w"},{"SH_ID_36":"10g8wu6","区36":"1","地址":"宁波路120弄","lng":121.48467120999162,"lat":31.239828816472826,"确诊日期36":"w"},{"SH_ID_36":"10g8wu7","区36":"1","地址":"宁波路189号","lng":121.4838114549134,"lat":31.239165791058184,"确诊日期36":"w"},{"SH_ID_36":"10g8wu8","区36":"1","地址":"宁波路201号","lng":121.48361101004929,"lat":31.239035630677726,"确诊日期36":"w"},{"SH_ID_36":"10g8wu9","区36":"1","地址":"宁波路219号","lng":121.48286601491394,"lat":31.239115673223193,"确诊日期36":"w"},{"SH_ID_36":"10g8wua","区36":"1","地址":"宁波路222号","lng":121.48323439494983,"lat":31.239048876755593,"确诊日期36":"w"},{"SH_ID_36":"10g8wub","区36":"1","地址":"宁波路284弄","lng":121.48169136144782,"lat":31.238944261333227,"确诊日期36":"w"},{"SH_ID_36":"10g8wuc","区36":"1","地址":"宁波路430弄1号","lng":121.47895135525292,"lat":31.23763136739245,"确诊日期36":"w"},{"SH_ID_36":"10g8wud","区36":"1","地址":"宁波路50号","lng":121.48630601470781,"lat":31.240000856019734,"确诊日期36":"w"},{"SH_ID_36":"10g8wue","区36":"1","地址":"宁波路561号","lng":121.47698637057344,"lat":31.236898108109386,"确诊日期36":"w"},{"SH_ID_36":"10g8wuf","区36":"1","地址":"宁波路74弄","lng":121.48528177584187,"lat":31.239724605963502,"确诊日期36":"w"},{"SH_ID_36":"10g8wug","区36":"1","地址":"宁海东路250弄","lng":121.48097671011843,"lat":31.22843773497059,"确诊日期36":"w"},{"SH_ID_36":"10g8wuh","区36":"1","地址":"宁海东路281号","lng":121.47996624573965,"lat":31.22799179337048,"确诊日期36":"w"},{"SH_ID_36":"10g8wui","区36":"1","地址":"宁海东路299号","lng":121.47982982159425,"lat":31.227745724433458,"确诊日期36":"w"},{"SH_ID_36":"10g8wuj","区36":"1","地址":"牛庄路692号","lng":121.47703096210601,"lat":31.23765760347621,"确诊日期36":"w"},{"SH_ID_36":"10g8wuk","区36":"1","地址":"牛庄路769弄","lng":121.47556752563388,"lat":31.23704881497868,"确诊日期36":"w"},{"SH_ID_36":"10g8wul","区36":"1","地址":"牌楼路23号","lng":121.48635901305708,"lat":31.214015567579004,"确诊日期36":"w"},{"SH_ID_36":"10g8wum","区36":"1","地址":"蓬莱路348号","lng":121.48851091149635,"lat":31.21689842726829,"确诊日期36":"w"},{"SH_ID_36":"10g8wun","区36":"1","地址":"蓬莱路358号","lng":121.48859127308873,"lat":31.216751592450617,"确诊日期36":"w"},{"SH_ID_36":"10g8wuo","区36":"1","地址":"蓬莱路401号","lng":121.4875939983938,"lat":31.21630511446513,"确诊日期36":"w"},{"SH_ID_36":"10g8wup","区36":"1","地址":"平望街15弄","lng":121.47878843953568,"lat":31.23137046698885,"确诊日期36":"w"},{"SH_ID_36":"10g8wuq","区36":"1","地址":"平望街19号","lng":121.479179581368,"lat":31.23174704385707,"确诊日期36":"w"},{"SH_ID_36":"10g8wur","区36":"1","地址":"平望街27号","lng":121.47886574493307,"lat":31.231754952756138,"确诊日期36":"w"},{"SH_ID_36":"10g8wus","区36":"1","地址":"平望街29号","lng":121.47937541657673,"lat":31.231406541057186,"确诊日期36":"w"},{"SH_ID_36":"10g8wut","区36":"1","地址":"平望街36弄","lng":121.47911442997778,"lat":31.231894869356893,"确诊日期36":"w"},{"SH_ID_36":"10g8wuu","区36":"1","地址":"平望街6弄","lng":121.47978158780322,"lat":31.231764243190923,"确诊日期36":"w"},{"SH_ID_36":"10g8wuv","区36":"1","地址":"普育东路200弄","lng":121.49554175115988,"lat":31.20782300434968,"确诊日期36":"w"},{"SH_ID_36":"10g8wuw","区36":"1","地址":"乔家路21号","lng":121.4975267880801,"lat":31.21670799122626,"确诊日期36":"w"},{"SH_ID_36":"10g8wux","区36":"1","地址":"乔家路272号","lng":121.49392492361427,"lat":31.217359235319684,"确诊日期36":"w"},{"SH_ID_36":"10g8wuy","区36":"1","地址":"青岛路53号","lng":121.46811704430431,"lat":31.23737959834519,"确诊日期36":"w"},{"SH_ID_36":"10g8wuz","区36":"1","地址":"清真路58弄","lng":121.45994324022291,"lat":31.200308238649928,"确诊日期36":"w"},{"SH_ID_36":"10g8wv0","区36":"1","地址":"瞿溪路1003弄","lng":121.4770023981235,"lat":31.199771938358055,"确诊日期36":"w"},{"SH_ID_36":"10g8wv1","区36":"1","地址":"瞿溪路1072弄","lng":121.4741591746046,"lat":31.19858062405089,"确诊日期36":"w"},{"SH_ID_36":"10g8wv2","区36":"1","地址":"瞿溪路110号","lng":121.49603542005188,"lat":31.206950780200017,"确诊日期36":"w"},{"SH_ID_36":"10g8wv3","区36":"1","地址":"瞿溪路1111弄","lng":121.47403023639242,"lat":31.200356750986835,"确诊日期36":"w"},{"SH_ID_36":"10g8wv4","区36":"1","地址":"瞿溪路1145弄","lng":121.47303509509723,"lat":31.199331834345514,"确诊日期36":"w"},{"SH_ID_36":"10g8wv5","区36":"1","地址":"瞿溪路1147号","lng":121.47263726554162,"lat":31.198291172897733,"确诊日期36":"w"},{"SH_ID_36":"10g8wv6","区36":"1","地址":"瞿溪路115号","lng":121.4947905805053,"lat":31.207204012222153,"确诊日期36":"w"},{"SH_ID_36":"10g8wv7","区36":"1","地址":"瞿溪路117号","lng":121.49482607870395,"lat":31.20688630609097,"确诊日期36":"w"},{"SH_ID_36":"10g8wv8","区36":"1","地址":"瞿溪路118号","lng":121.49484205744093,"lat":31.20650650852367,"确诊日期36":"w"},{"SH_ID_36":"10g8wv9","区36":"1","地址":"瞿溪路1199弄","lng":121.47110213286074,"lat":31.198487046079993,"确诊日期36":"w"},{"SH_ID_36":"10g8wva","区36":"1","地址":"瞿溪路119号","lng":121.49489531737571,"lat":31.20696854505107,"确诊日期36":"w"},{"SH_ID_36":"10g8wvb","区36":"1","地址":"瞿溪路1200弄","lng":121.47265288840022,"lat":31.197289169606876,"确诊日期36":"w"},{"SH_ID_36":"10g8wvc","区36":"1","地址":"瞿溪路120弄","lng":121.49546966820932,"lat":31.206632301523445,"确诊日期36":"w"},{"SH_ID_36":"10g8wvd","区36":"1","地址":"瞿溪路121号","lng":121.4944138761981,"lat":31.20669767106216,"确诊日期36":"w"},{"SH_ID_36":"10g8wve","区36":"1","地址":"瞿溪路123号","lng":121.49456309890326,"lat":31.20656869360162,"确诊日期36":"w"},{"SH_ID_36":"10g8wvf","区36":"1","地址":"瞿溪路1240弄","lng":121.47044187561427,"lat":31.197027820049357,"确诊日期36":"w"},{"SH_ID_36":"10g8wvg","区36":"1","地址":"瞿溪路124号","lng":121.49429412934442,"lat":31.206150837872702,"确诊日期36":"w"},{"SH_ID_36":"10g8wvh","区36":"1","地址":"瞿溪路1254弄","lng":121.47045665801835,"lat":31.19731949580266,"确诊日期36":"w"},{"SH_ID_36":"10g8wvi","区36":"1","地址":"瞿溪路126号","lng":121.49428407458124,"lat":31.205982427012394,"确诊日期36":"w"},{"SH_ID_36":"10g8wvj","区36":"1","地址":"瞿溪路463弄","lng":121.48776873100502,"lat":31.20342208968552,"确诊日期36":"w"},{"SH_ID_36":"10g8wvk","区36":"1","地址":"瞿溪路564号","lng":121.48574760083241,"lat":31.20141740605888,"确诊日期36":"w"},{"SH_ID_36":"10g8wvl","区36":"1","地址":"瞿溪路811弄","lng":121.48116852126333,"lat":31.201087585312948,"确诊日期36":"w"},{"SH_ID_36":"10g8wvm","区36":"1","地址":"瞿溪路833号","lng":121.48086042352186,"lat":31.201019782283275,"确诊日期36":"w"},{"SH_ID_36":"10g8wvn","区36":"1","地址":"瞿溪路904弄","lng":121.47919166387997,"lat":31.19977086006481,"确诊日期36":"w"},{"SH_ID_36":"10g8wvo","区36":"1","地址":"瞿溪路937弄","lng":121.47767751568107,"lat":31.20028901319637,"确诊日期36":"w"},{"SH_ID_36":"10g8wvp","区36":"1","地址":"瞿溪路968弄","lng":121.4775685962828,"lat":31.199056930883867,"确诊日期36":"w"},{"SH_ID_36":"10g8wvq","区36":"1","地址":"人民路777号","lng":121.48500381531335,"lat":31.2271208993727,"确诊日期36":"w"},{"SH_ID_36":"10g8wvr","区36":"1","地址":"人民路875号","lng":121.48356308753668,"lat":31.226526147033265,"确诊日期36":"w"},{"SH_ID_36":"10g8wvs","区36":"1","地址":"人民路879号","lng":121.48360830338926,"lat":31.22620570002265,"确诊日期36":"w"},{"SH_ID_36":"10g8wvt","区36":"1","地址":"瑞金二路129弄","lng":121.4657470219452,"lat":31.213177043633948,"确诊日期36":"w"},{"SH_ID_36":"10g8wvu","区36":"1","地址":"瑞金二路137号","lng":121.46560131307305,"lat":31.21347769623529,"确诊日期36":"w"},{"SH_ID_36":"10g8wvv","区36":"1","地址":"瑞金二路225弄","lng":121.46789485049972,"lat":31.208105125338125,"确诊日期36":"w"},{"SH_ID_36":"10g8wvw","区36":"1","地址":"瑞金二路24号","lng":121.46412446469591,"lat":31.2179454677975,"确诊日期36":"w"},{"SH_ID_36":"10g8wvx","区36":"1","地址":"瑞金二路410弄","lng":121.4658771159495,"lat":31.206896190818266,"确诊日期36":"w"},{"SH_ID_36":"10g8wvy","区36":"1","地址":"瑞金二路52弄","lng":121.46400336226573,"lat":31.21575370316022,"确诊日期36":"w"},{"SH_ID_36":"10g8wvz","区36":"1","地址":"瑞金二路70弄","lng":121.46396306534574,"lat":31.21530587395297,"确诊日期36":"w"},{"SH_ID_36":"10g8ww0","区36":"1","地址":"瑞金南路185弄","lng":121.46901243751655,"lat":31.20053359817736,"确诊日期36":"w"},{"SH_ID_36":"10g8ww1","区36":"1","地址":"瑞金南路1号","lng":121.4677450251781,"lat":31.20450789295217,"确诊日期36":"w"},{"SH_ID_36":"10g8ww2","区36":"1","地址":"瑞金南路271弄","lng":121.46865657651749,"lat":31.199014118176663,"确诊日期36":"w"},{"SH_ID_36":"10g8ww3","区36":"1","地址":"瑞金南路299号","lng":121.46918681206604,"lat":31.1989600584384,"确诊日期36":"w"},{"SH_ID_36":"10g8ww4","区36":"1","地址":"瑞金南路345弄","lng":121.46968759187028,"lat":31.19725109764461,"确诊日期36":"w"},{"SH_ID_36":"10g8ww5","区36":"1","地址":"瑞金一路79弄","lng":121.46333018087928,"lat":31.222481355285108,"确诊日期36":"w"},{"SH_ID_36":"10g8ww6","区36":"1","地址":"桑园街38弄","lng":121.49716985090366,"lat":31.21333073300943,"确诊日期36":"w"},{"SH_ID_36":"10g8ww7","区36":"1","地址":"桑园街6弄","lng":121.49797570867085,"lat":31.21415302939179,"确诊日期36":"w"},{"SH_ID_36":"10g8ww8","区36":"1","地址":"山西南路9弄","lng":121.48352576099258,"lat":31.234604865315145,"确诊日期36":"w"},{"SH_ID_36":"10g8ww9","区36":"1","地址":"陕西南路15号","lng":121.45720113159871,"lat":31.221720657360105,"确诊日期36":"w"},{"SH_ID_36":"10g8wwa","区36":"1","地址":"陕西南路271弄","lng":121.46406381732444,"lat":31.208259942996914,"确诊日期36":"w"},{"SH_ID_36":"10g8wwb","区36":"1","地址":"陕西南路287弄","lng":121.46251312724344,"lat":31.20713103126102,"确诊日期36":"w"},{"SH_ID_36":"10g8wwc","区36":"1","地址":"陕西南路307弄","lng":121.46272171321554,"lat":31.205992681449153,"确诊日期36":"w"},{"SH_ID_36":"10g8wwd","区36":"1","地址":"陕西南路5号","lng":121.45732257245098,"lat":31.22263583099397,"确诊日期36":"w"},{"SH_ID_36":"10g8wwe","区36":"1","地址":"尚文路168号","lng":121.49038801820424,"lat":31.21522757483149,"确诊日期36":"w"},{"SH_ID_36":"10g8wwf","区36":"1","地址":"绍兴路19号","lng":121.46366669777301,"lat":31.209198976161048,"确诊日期36":"w"},{"SH_ID_36":"10g8wwg","区36":"1","地址":"绍兴路52弄","lng":121.46444757596224,"lat":31.210000987605152,"确诊日期36":"w"},{"SH_ID_36":"10g8wwh","区36":"1","地址":"绍兴路58号","lng":121.463997071233,"lat":31.209558617119722,"确诊日期36":"w"},{"SH_ID_36":"10g8wwi","区36":"1","地址":"绍兴路60号","lng":121.4637161328939,"lat":31.209455993956144,"确诊日期36":"w"},{"SH_ID_36":"10g8wwj","区36":"1","地址":"绍兴路76弄","lng":121.46306143614292,"lat":31.208959919366954,"确诊日期36":"w"},{"SH_ID_36":"10g8wwk","区36":"1","地址":"寿宁路98号","lng":121.48071087141815,"lat":31.223729090109916,"确诊日期36":"w"},{"SH_ID_36":"10g8wwl","区36":"1","地址":"顺昌路10号","lng":121.4764407971587,"lat":31.22123375271728,"确诊日期36":"w"},{"SH_ID_36":"10g8wwm","区36":"1","地址":"顺昌路521号","lng":121.47967755547116,"lat":31.212554528064484,"确诊日期36":"w"},{"SH_ID_36":"10g8wwn","区36":"1","地址":"顺昌路550弄","lng":121.47930700319911,"lat":31.211726341243228,"确诊日期36":"w"},{"SH_ID_36":"10g8wwo","区36":"1","地址":"顺昌路612弄51号","lng":121.47868904294155,"lat":31.211191556670347,"确诊日期36":"w"},{"SH_ID_36":"10g8wwp","区36":"1","地址":"思南路113号","lng":121.47119783424264,"lat":31.208832207656254,"确诊日期36":"w"},{"SH_ID_36":"10g8wwq","区36":"1","地址":"思南路115弄","lng":121.47121533877005,"lat":31.208292985305324,"确诊日期36":"w"},{"SH_ID_36":"10g8wwr","区36":"1","地址":"思南路88弄","lng":121.47087995129931,"lat":31.20877456299904,"确诊日期36":"w"},{"SH_ID_36":"10g8wws","区36":"1","地址":"思南路9号","lng":121.46617798363309,"lat":31.21900114911982,"确诊日期36":"w"},{"SH_ID_36":"10g8wwt","区36":"1","地址":"四川中路126弄","lng":121.48971948694859,"lat":31.234661752797784,"确诊日期36":"w"},{"SH_ID_36":"10g8wwu","区36":"1","地址":"四川中路563号","lng":121.48653877886245,"lat":31.241195236503923,"确诊日期36":"w"},{"SH_ID_36":"10g8wwv","区36":"1","地址":"四川中路585号","lng":121.48662251982638,"lat":31.24159114054125,"确诊日期36":"w"},{"SH_ID_36":"10g8www","区36":"1","地址":"四川中路615号","lng":121.48604327796993,"lat":31.242167691616466,"确诊日期36":"w"},{"SH_ID_36":"10g8wwx","区36":"1","地址":"四川中路617号","lng":121.48621084578943,"lat":31.242241765179042,"确诊日期36":"w"},{"SH_ID_36":"10g8wwy","区36":"1","地址":"四川中路88号","lng":121.4897006077252,"lat":31.233735855213553,"确诊日期36":"w"},{"SH_ID_36":"10g8wwz","区36":"1","地址":"四牌楼路110号","lng":121.49556568795134,"lat":31.223527427255274,"确诊日期36":"w"},{"SH_ID_36":"10g8wx0","区36":"1","地址":"四牌楼路113号","lng":121.4951835743427,"lat":31.223668196896753,"确诊日期36":"w"},{"SH_ID_36":"10g8wx1","区36":"1","地址":"四牌楼路147号","lng":121.49530628605983,"lat":31.225211068966466,"确诊日期36":"w"},{"SH_ID_36":"10g8wx2","区36":"1","地址":"四牌楼路149号","lng":121.49580450029997,"lat":31.22270861987325,"确诊日期36":"w"},{"SH_ID_36":"10g8wx3","区36":"1","地址":"四牌楼路185号","lng":121.4955947316546,"lat":31.22232387460532,"确诊日期36":"w"},{"SH_ID_36":"10g8wx4","区36":"1","地址":"四牌楼路75号","lng":121.4952768891732,"lat":31.22433462116755,"确诊日期36":"w"},{"SH_ID_36":"10g8wx5","区36":"1","地址":"四牌楼路77弄","lng":121.49544583448699,"lat":31.224344886070828,"确诊日期36":"w"},{"SH_ID_36":"10g8wx6","区36":"1","地址":"四牌楼路87号","lng":121.49557223345522,"lat":31.224101014895385,"确诊日期36":"w"},{"SH_ID_36":"10g8wx7","区36":"1","地址":"泗泾路33号","lng":121.4863349338174,"lat":31.233331676442596,"确诊日期36":"w"},{"SH_ID_36":"10g8wx8","区36":"1","地址":"泰康路248弄","lng":121.46890761774694,"lat":31.208360402741206,"确诊日期36":"w"},{"SH_ID_36":"10g8wx9","区36":"1","地址":"泰康路3号","lng":121.47143192115976,"lat":31.20820589678299,"确诊日期36":"w"},{"SH_ID_36":"10g8wxa","区36":"1","地址":"桃源路111弄","lng":121.47890916418112,"lat":31.22377130352102,"确诊日期36":"w"},{"SH_ID_36":"10g8wxb","区36":"1","地址":"天津路110弄","lng":121.48391743274979,"lat":31.23872854638933,"确诊日期36":"w"},{"SH_ID_36":"10g8wxc","区36":"1","地址":"天津路138弄","lng":121.48365970907047,"lat":31.238264258398782,"确诊日期36":"w"},{"SH_ID_36":"10g8wxd","区36":"1","地址":"天津路170弄","lng":121.48283353175528,"lat":31.23896097271316,"确诊日期36":"w"},{"SH_ID_36":"10g8wxe","区36":"1","地址":"天津路179弄","lng":121.48300850171614,"lat":31.237919264022644,"确诊日期36":"w"},{"SH_ID_36":"10g8wxf","区36":"1","地址":"天津路195弄","lng":121.48278426763937,"lat":31.237737602931606,"确诊日期36":"w"},{"SH_ID_36":"10g8wxg","区36":"1","地址":"天津路423号","lng":121.4785240865606,"lat":31.23644627095989,"确诊日期36":"w"},{"SH_ID_36":"10g8wxh","区36":"1","地址":"天津路478弄","lng":121.47818640542276,"lat":31.236091033319195,"确诊日期36":"w"},{"SH_ID_36":"10g8wxi","区36":"1","地址":"天津路504号","lng":121.47706430383577,"lat":31.23615605312426,"确诊日期36":"w"},{"SH_ID_36":"10g8wxj","区36":"1","地址":"天柱山路17弄","lng":121.49401352699415,"lat":31.21124712039941,"确诊日期36":"w"},{"SH_ID_36":"10g8wxk","区36":"1","地址":"铁道路140号","lng":121.48703792110986,"lat":31.200130415089642,"确诊日期36":"w"},{"SH_ID_36":"10g8wxl","区36":"1","地址":"铁道路776弄","lng":121.47566512860402,"lat":31.19618758165482,"确诊日期36":"w"},{"SH_ID_36":"10g8wxm","区36":"1","地址":"外马路348号","lng":121.50485084916183,"lat":31.22159283484113,"确诊日期36":"w"},{"SH_ID_36":"10g8wxn","区36":"1","地址":"外咸瓜街38号","lng":121.49841168162666,"lat":31.224266758944367,"确诊日期36":"w"},{"SH_ID_36":"10g8wxo","区36":"1","地址":"万竹街45弄","lng":121.48464814342242,"lat":31.223999401104273,"确诊日期36":"w"},{"SH_ID_36":"10g8wxp","区36":"1","地址":"威海路172弄","lng":121.46817429990963,"lat":31.22773670856119,"确诊日期36":"w"},{"SH_ID_36":"10g8wxq","区36":"1","地址":"文庙路60弄","lng":121.4903511056048,"lat":31.219056933767234,"确诊日期36":"w"},{"SH_ID_36":"10g8wxr","区36":"1","地址":"五里桥路188弄","lng":121.48153031928383,"lat":31.20418546486075,"确诊日期36":"w"},{"SH_ID_36":"10g8wxs","区36":"1","地址":"五里桥路260弄","lng":121.47979746052064,"lat":31.203138459766045,"确诊日期36":"w"},{"SH_ID_36":"10g8wxt","区36":"1","地址":"五里桥路269弄","lng":121.47970509703933,"lat":31.204132710674358,"确诊日期36":"w"},{"SH_ID_36":"10g8wxu","区36":"1","地址":"五里桥路39弄","lng":121.48368704575572,"lat":31.204557772353894,"确诊日期36":"w"},{"SH_ID_36":"10g8wxv","区36":"1","地址":"西藏南路1129弄","lng":121.48740738157991,"lat":31.21065888568524,"确诊日期36":"w"},{"SH_ID_36":"10g8wxw","区36":"1","地址":"西藏南路1277弄","lng":121.4873860130513,"lat":31.20826008196632,"确诊日期36":"w"},{"SH_ID_36":"10g8wxx","区36":"1","地址":"西藏南路1341弄","lng":121.48860182706117,"lat":31.20665379524467,"确诊日期36":"w"},{"SH_ID_36":"10g8wxy","区36":"1","地址":"西藏南路381号","lng":121.48160688267913,"lat":31.222358989089212,"确诊日期36":"w"},{"SH_ID_36":"10g8wxz","区36":"1","地址":"西藏南路555弄","lng":121.48361985175333,"lat":31.21973944454838,"确诊日期36":"w"},{"SH_ID_36":"10g8wy0","区36":"1","地址":"西藏南路897号","lng":121.48676908082564,"lat":31.21332354380133,"确诊日期36":"w"},{"SH_ID_36":"10g8wy1","区36":"1","地址":"西藏南路900弄","lng":121.4848774077042,"lat":31.213609918482447,"确诊日期36":"w"},{"SH_ID_36":"10g8wy2","区36":"1","地址":"西藏中路200号","lng":121.47679398289786,"lat":31.231738308021892,"确诊日期36":"w"},{"SH_ID_36":"10g8wy3","区36":"1","地址":"西凌家宅路137弄","lng":121.48537133360229,"lat":31.20416756562411,"确诊日期36":"w"},{"SH_ID_36":"10g8wy4","区36":"1","地址":"西凌家宅路27弄","lng":121.48749942241966,"lat":31.204427590943045,"确诊日期36":"w"},{"SH_ID_36":"10g8wy5","区36":"1","地址":"西凌家宅路58号","lng":121.48695686491007,"lat":31.204199305937383,"确诊日期36":"w"},{"SH_ID_36":"10g8wy6","区36":"1","地址":"西凌家宅路98号","lng":121.48627425892148,"lat":31.204038618692433,"确诊日期36":"w"},{"SH_ID_36":"10g8wy7","区36":"1","地址":"西陵家宅路29号","lng":121.48507635664966,"lat":31.203732597723643,"确诊日期36":"w"},{"SH_ID_36":"10g8wy8","区36":"1","地址":"西姚家弄21弄","lng":121.49706758112394,"lat":31.22389209011017,"确诊日期36":"w"},{"SH_ID_36":"10g8wy9","区36":"1","地址":"西姚家弄25号","lng":121.49663654442922,"lat":31.222328978872614,"确诊日期36":"w"},{"SH_ID_36":"10g8wya","区36":"1","地址":"西姚家弄27号","lng":121.4966378293581,"lat":31.222431319676993,"确诊日期36":"w"},{"SH_ID_36":"10g8wyb","区36":"1","地址":"西姚家弄33号","lng":121.49655204465354,"lat":31.22239966497642,"确诊日期36":"w"},{"SH_ID_36":"10g8wyc","区36":"1","地址":"西姚家弄51号","lng":121.49617205106422,"lat":31.222393626339613,"确诊日期36":"w"},{"SH_ID_36":"10g8wyd","区36":"1","地址":"西姚家弄53号","lng":121.49606840390479,"lat":31.222650142918603,"确诊日期36":"w"},{"SH_ID_36":"10g8wye","区36":"1","地址":"县左街24弄","lng":121.49497009824235,"lat":31.224342394881017,"确诊日期36":"w"},{"SH_ID_36":"10g8wyf","区36":"1","地址":"香港路123号","lng":121.48553936739702,"lat":31.242417832882857,"确诊日期36":"w"},{"SH_ID_36":"10g8wyg","区36":"1","地址":"香港路150号","lng":121.48530625341378,"lat":31.242509466374965,"确诊日期36":"w"},{"SH_ID_36":"10g8wyh","区36":"1","地址":"小桃园街50弄","lng":121.48916159677366,"lat":31.220743682278613,"确诊日期36":"w"},{"SH_ID_36":"10g8wyi","区36":"1","地址":"斜土路102号","lng":121.48283007601214,"lat":31.206163902449752,"确诊日期36":"w"},{"SH_ID_36":"10g8wyj","区36":"1","地址":"斜土路108号","lng":121.48271611308542,"lat":31.206165981779495,"确诊日期36":"w"},{"SH_ID_36":"10g8wyk","区36":"1","地址":"斜土路118弄","lng":121.48283769824599,"lat":31.205370845862078,"确诊日期36":"w"},{"SH_ID_36":"10g8wyl","区36":"1","地址":"斜土路195弄","lng":121.48184051998928,"lat":31.20621751782041,"确诊日期36":"w"},{"SH_ID_36":"10g8wym","区36":"1","地址":"斜土路298弄","lng":121.4805601215231,"lat":31.20448366722948,"确诊日期36":"w"},{"SH_ID_36":"10g8wyn","区36":"1","地址":"斜土路550弄","lng":121.47628034270409,"lat":31.20292687677065,"确诊日期36":"w"},{"SH_ID_36":"10g8wyo","区36":"1","地址":"斜土路556弄","lng":121.47581123228285,"lat":31.202503209604075,"确诊日期36":"w"},{"SH_ID_36":"10g8wyp","区36":"1","地址":"斜土路766弄","lng":121.47231900358,"lat":31.201138735447188,"确诊日期36":"w"},{"SH_ID_36":"10g8wyq","区36":"1","地址":"斜土路80弄","lng":121.48369616153482,"lat":31.205679084461618,"确诊日期36":"w"},{"SH_ID_36":"10g8wyr","区36":"1","地址":"斜土路85弄","lng":121.48332670072739,"lat":31.20673510390635,"确诊日期36":"w"},{"SH_ID_36":"10g8wys","区36":"1","地址":"斜土支路11号","lng":121.48394427279179,"lat":31.205965156322872,"确诊日期36":"w"},{"SH_ID_36":"10g8wyt","区36":"1","地址":"新昌路296号","lng":121.46833968068817,"lat":31.23578746174526,"确诊日期36":"w"},{"SH_ID_36":"10g8wyu","区36":"1","地址":"新昌路300弄","lng":121.46814488893766,"lat":31.236160914004618,"确诊日期36":"w"},{"SH_ID_36":"10g8wyv","区36":"1","地址":"新昌路348号","lng":121.46779441602453,"lat":31.23674439976935,"确诊日期36":"w"},{"SH_ID_36":"10g8wyw","区36":"1","地址":"新昌路61弄","lng":121.46939125707353,"lat":31.23227275453709,"确诊日期36":"w"},{"SH_ID_36":"10g8wyx","区36":"1","地址":"新闸路126号","lng":121.47119744524835,"lat":31.23852496012337,"确诊日期36":"w"},{"SH_ID_36":"10g8wyy","区36":"1","地址":"新闸路280号","lng":121.46734990109383,"lat":31.239511452128895,"确诊日期36":"w"},{"SH_ID_36":"10g8wyz","区36":"1","地址":"兴业路123弄","lng":121.4750742310655,"lat":31.218953621726456,"确诊日期36":"w"},{"SH_ID_36":"10g8wz0","区36":"1","地址":"徐家汇路135弄","lng":121.47837748957652,"lat":31.20830995922265,"确诊日期36":"w"},{"SH_ID_36":"10g8wz1","区36":"1","地址":"徐家汇路189号","lng":121.47707121758316,"lat":31.208896529514817,"确诊日期36":"w"},{"SH_ID_36":"10g8wz2","区36":"1","地址":"徐家汇路1弄","lng":121.48213224792646,"lat":31.21038073316541,"确诊日期36":"w"},{"SH_ID_36":"10g8wz3","区36":"1","地址":"徐家汇路268号","lng":121.47723166231036,"lat":31.210480210446605,"确诊日期36":"w"},{"SH_ID_36":"10g8wz4","区36":"1","地址":"徐家汇路396号","lng":121.47365262904516,"lat":31.209252998454975,"确诊日期36":"w"},{"SH_ID_36":"10g8wz5","区36":"1","地址":"徐家汇路515弄","lng":121.4754131035956,"lat":31.20872067244226,"确诊日期36":"w"},{"SH_ID_36":"10g8wz6","区36":"1","地址":"徐家汇路528号","lng":121.47087993255246,"lat":31.20716332125195,"确诊日期36":"w"},{"SH_ID_36":"10g8wz7","区36":"1","地址":"徐家汇路536弄","lng":121.47276173136353,"lat":31.203233973430166,"确诊日期36":"w"},{"SH_ID_36":"10g8wz8","区36":"1","地址":"徐家汇路563号","lng":121.47178185282017,"lat":31.20711627499953,"确诊日期36":"w"},{"SH_ID_36":"10g8wz9","区36":"1","地址":"薛家浜路236弄","lng":121.50215495075699,"lat":31.21077228794262,"确诊日期36":"w"},{"SH_ID_36":"10g8wza","区36":"1","地址":"薛家浜路242弄","lng":121.501713687772,"lat":31.211123354298024,"确诊日期36":"w"},{"SH_ID_36":"10g8wzb","区36":"1","地址":"学前街111弄","lng":121.48982041182072,"lat":31.216285909562647,"确诊日期36":"w"},{"SH_ID_36":"10g8wzc","区36":"1","地址":"学前街152弄","lng":121.48945622526628,"lat":31.215266571179857,"确诊日期36":"w"},{"SH_ID_36":"10g8wzd","区36":"1","地址":"学前街58号","lng":121.48875750839312,"lat":31.216504444430363,"确诊日期36":"w"},{"SH_ID_36":"10g8wze","区36":"1","地址":"学院路129号","lng":121.49487561346292,"lat":31.2235520371101,"确诊日期36":"w"},{"SH_ID_36":"10g8wzf","区36":"1","地址":"学院路135号","lng":121.49451621868981,"lat":31.223509696577466,"确诊日期36":"w"},{"SH_ID_36":"10g8wzg","区36":"1","地址":"学院路137号","lng":121.49475072376656,"lat":31.22308972181429,"确诊日期36":"w"},{"SH_ID_36":"10g8wzh","区36":"1","地址":"学院路140号","lng":121.49459955079303,"lat":31.223256322920633,"确诊日期36":"w"},{"SH_ID_36":"10g8wzi","区36":"1","地址":"学院路30号","lng":121.49654372081767,"lat":31.223153153131825,"确诊日期36":"w"},{"SH_ID_36":"10g8wzj","区36":"1","地址":"学院路59号","lng":121.49625286024614,"lat":31.22333163296276,"确诊日期36":"w"},{"SH_ID_36":"10g8wzk","区36":"1","地址":"学院路72号","lng":121.49567358857564,"lat":31.223011808903628,"确诊日期36":"w"},{"SH_ID_36":"10g8wzl","区36":"1","地址":"学院路74号","lng":121.49594988355693,"lat":31.222976620190046,"确诊日期36":"w"},{"SH_ID_36":"10g8wzm","区36":"1","地址":"学院路79弄","lng":121.49586533885876,"lat":31.223688896608937,"确诊日期36":"w"},{"SH_ID_36":"10g8wzn","区36":"1","地址":"巡道街26号","lng":121.4973641940139,"lat":31.220753178434755,"确诊日期36":"w"},{"SH_ID_36":"10g8wzo","区36":"1","地址":"延安东路128弄","lng":121.48864439013411,"lat":31.232220702777767,"确诊日期36":"w"},{"SH_ID_36":"10g8wzp","区36":"1","地址":"延安东路1292弄","lng":121.47140772550546,"lat":31.225785360734807,"确诊日期36":"w"},{"SH_ID_36":"10g8wzq","区36":"1","地址":"延安东路385号","lng":121.48058766050326,"lat":31.229230821311074,"确诊日期36":"w"},{"SH_ID_36":"10g8wzr","区36":"1","地址":"延安东路429号","lng":121.47921581332484,"lat":31.22891678859906,"确诊日期36":"w"},{"SH_ID_36":"10g8wzs","区36":"1","地址":"延安中路527号","lng":121.4602628041046,"lat":31.2233216053295,"确诊日期36":"w"},{"SH_ID_36":"10g8wzt","区36":"1","地址":"延安中路535弄","lng":121.45988986612241,"lat":31.223420636283244,"确诊日期36":"w"},{"SH_ID_36":"10g8wzu","区36":"1","地址":"延安中路545弄","lng":121.4591520902644,"lat":31.22328063913348,"确诊日期36":"w"},{"SH_ID_36":"10g8wzv","区36":"1","地址":"雁荡路13号","lng":121.47024905963228,"lat":31.220744480699892,"确诊日期36":"w"},{"SH_ID_36":"10g8wzw","区36":"1","地址":"也是园弄32号","lng":121.49330483282688,"lat":31.216663288092672,"确诊日期36":"w"},{"SH_ID_36":"10g8wzx","区36":"1","地址":"也是园弄54弄","lng":121.49288793118372,"lat":31.216931777577535,"确诊日期36":"w"},{"SH_ID_36":"10g8wzy","区36":"1","地址":"迎勋北路8弄","lng":121.4895381010729,"lat":31.216806117026184,"确诊日期36":"w"},{"SH_ID_36":"10g8wzz","区36":"1","地址":"迎勋路100弄","lng":121.49119307610852,"lat":31.213069723373078,"确诊日期36":"w"},{"SH_ID_36":"10g8x00","区36":"1","地址":"迎勋路69弄","lng":121.49216069551382,"lat":31.213611627743724,"确诊日期36":"w"},{"SH_ID_36":"10g8x01","区36":"1","地址":"永安路14号","lng":121.49186979139962,"lat":31.23072241417818,"确诊日期36":"w"},{"SH_ID_36":"10g8x02","区36":"1","地址":"永年路149弄","lng":121.47894759440011,"lat":31.211265116802146,"确诊日期36":"w"},{"SH_ID_36":"10g8x03","区36":"1","地址":"永年路49号","lng":121.4789940625294,"lat":31.21151302854534,"确诊日期36":"w"},{"SH_ID_36":"10g8x04","区36":"1","地址":"永寿路50号","lng":121.48116984541674,"lat":31.229383872642337,"确诊日期36":"w"},{"SH_ID_36":"10g8x05","区36":"1","地址":"永寿路88号","lng":121.48163905708435,"lat":31.22818799374114,"确诊日期36":"w"},{"SH_ID_36":"10g8x06","区36":"1","地址":"永泰街43弄","lng":121.49782297857983,"lat":31.215794961866298,"确诊日期36":"w"},