[{"SH_ID_36":"10frqpf","区36":"d","地址":"白杨村","lng":121.39623121551745,"lat":31.342316521440793,"确诊日期36":"l"},{"SH_ID_36":"10frqph","区36":"d","地址":"宝荻路535弄","lng":121.39550809140923,"lat":31.361093698907037,"确诊日期36":"l"},{"SH_ID_36":"10frqpg","区36":"d","地址":"宝山二村","lng":121.50007630316215,"lat":31.393670190560712,"确诊日期36":"l"},{"SH_ID_36":"10frqpi","区36":"d","地址":"城银路655弄","lng":121.349049083772,"lat":31.31582677316719,"确诊日期36":"l"},{"SH_ID_36":"10frqpl","区36":"d","地址":"东街村","lng":121.43782002015436,"lat":31.382225574767464,"确诊日期36":"l"},{"SH_ID_36":"10frqpj","区36":"d","地址":"范家园新村","lng":121.34274567341733,"lat":31.409940706680356,"确诊日期36":"l"},{"SH_ID_36":"10frqpk","区36":"d","地址":"丰翔路1888弄","lng":121.34295575690344,"lat":31.305375588714018,"确诊日期36":"l"},{"SH_ID_36":"10frqpo","区36":"d","地址":"富联路25号","lng":121.41439859949311,"lat":31.351795910503398,"确诊日期36":"l"},{"SH_ID_36":"10frqq8","区36":"d","地址":"共富二村","lng":121.43184543410861,"lat":31.3503417056333,"确诊日期36":"l"},{"SH_ID_36":"10frqpm","区36":"d","地址":"共富一村","lng":121.43335034917511,"lat":31.350695833107945,"确诊日期36":"l"},{"SH_ID_36":"10frqpn","区36":"d","地址":"顾北东路500弄","lng":121.4095674757149,"lat":31.35613183896537,"确诊日期36":"l"},{"SH_ID_36":"10frqpw","区36":"d","地址":"顾陈路388号","lng":121.38884938375406,"lat":31.33637016891246,"确诊日期36":"l"},{"SH_ID_36":"10frqpp","区36":"d","地址":"海滨三村","lng":121.49294453595053,"lat":31.38280300273022,"确诊日期36":"l"},{"SH_ID_36":"10frqps","区36":"d","地址":"红林路99弄","lng":121.43225081391589,"lat":31.366788633135936,"确诊日期36":"l"},{"SH_ID_36":"10frqpt","区36":"d","地址":"呼兰路515弄","lng":121.44986529371832,"lat":31.34672970046981,"确诊日期36":"l"},{"SH_ID_36":"10frqpu","区36":"d","地址":"沪太路7000弄","lng":121.4419263635473,"lat":31.267906224618287,"确诊日期36":"l"},{"SH_ID_36":"10frqpv","区36":"d","地址":"华灵路1581弄","lng":121.4114806052645,"lat":31.28177066097564,"确诊日期36":"l"},{"SH_ID_36":"10frqpx","区36":"d","地址":"江杨公寓","lng":121.46762532077314,"lat":31.33588167177196,"确诊日期36":"l"},{"SH_ID_36":"10frqqc","区36":"d","地址":"江杨南路2058号","lng":121.46134865854447,"lat":31.342603464056744,"确诊日期36":"l"},{"SH_ID_36":"10frqqe","区36":"d","地址":"菊泉街1280弄","lng":121.37185768319588,"lat":31.36071792501991,"确诊日期36":"l"},{"SH_ID_36":"10frqpq","区36":"d","地址":"菊泉街547弄","lng":121.376057971965,"lat":31.35637524363442,"确诊日期36":"l"},{"SH_ID_36":"10frqql","区36":"d","地址":"菊盛路1158弄","lng":121.3674302178557,"lat":31.36595170995945,"确诊日期36":"l"},{"SH_ID_36":"10frqq1","区36":"d","地址":"菊盛路851弄","lng":121.36831336332435,"lat":31.359080928214073,"确诊日期36":"l"},{"SH_ID_36":"10frqq2","区36":"d","地址":"聚丰园路388弄","lng":121.37878929949885,"lat":31.313100377099623,"确诊日期36":"l"},{"SH_ID_36":"10frqq3","区36":"d","地址":"老安村","lng":121.37332956120811,"lat":31.365696792502764,"确诊日期36":"l"},{"SH_ID_36":"10frqq4","区36":"d","地址":"莲花山路517弄","lng":121.44511214361009,"lat":31.361783425045278,"确诊日期36":"l"},{"SH_ID_36":"10frqq5","区36":"d","地址":"罗溪村","lng":121.34272296373088,"lat":31.409605441623373,"确诊日期36":"l"},{"SH_ID_36":"10frqqn","区36":"d","地址":"罗溪路1099弄","lng":121.34359041002766,"lat":31.428620013688203,"确诊日期36":"l"},{"SH_ID_36":"10frqpr","区36":"d","地址":"湄浦村","lng":121.42558276709767,"lat":31.387309003261503,"确诊日期36":"l"},{"SH_ID_36":"10frqq6","区36":"d","地址":"潘泾路4655弄","lng":121.34962243185738,"lat":31.462259914758775,"确诊日期36":"l"},{"SH_ID_36":"10frqq7","区36":"d","地址":"祁华路300弄","lng":121.3710766283396,"lat":31.32273295455629,"确诊日期36":"l"},{"SH_ID_36":"10frqq9","区36":"d","地址":"乾溪路101弄","lng":121.41258678382961,"lat":31.304949547455898,"确诊日期36":"l"},{"SH_ID_36":"10frqqa","区36":"d","地址":"羌家村","lng":121.38584688093603,"lat":31.35742690489072,"确诊日期36":"l"},{"SH_ID_36":"10frqqb","区36":"d","地址":"沙浦路311弄","lng":121.38705903720883,"lat":31.35563386806818,"确诊日期36":"l"},{"SH_ID_36":"10frqqd","区36":"d","地址":"韶山路348弄","lng":121.36548722374934,"lat":31.362941511322095,"确诊日期36":"l"},{"SH_ID_36":"10frqqf","区36":"d","地址":"水产西路489弄","lng":121.42095108342656,"lat":31.359948869836515,"确诊日期36":"l"},{"SH_ID_36":"10frqqt","区36":"d","地址":"水产西路999弄","lng":121.40966551751796,"lat":31.354565422945402,"确诊日期36":"l"},{"SH_ID_36":"10frqqg","区36":"d","地址":"四方村","lng":121.33917618822973,"lat":31.429494605816416,"确诊日期36":"l"},{"SH_ID_36":"10frqqh","区36":"d","地址":"淞南三村","lng":121.48956048501097,"lat":31.344367416707993,"确诊日期36":"l"},{"SH_ID_36":"10frqqi","区36":"d","地址":"泰和路1700弄","lng":121.44742555591883,"lat":31.353546732716268,"确诊日期36":"l"},{"SH_ID_36":"10frqqj","区36":"d","地址":"塘西街397弄","lng":121.34250665103689,"lat":31.422018716440917,"确诊日期36":"l"},{"SH_ID_36":"10frqqk","区36":"d","地址":"铁城路1555号","lng":121.45163981316101,"lat":31.356423698146045,"确诊日期36":"l"},{"SH_ID_36":"10frqqm","区36":"d","地址":"蕰川路1498弄","lng":121.42510436243683,"lat":31.360942889070778,"确诊日期36":"l"},{"SH_ID_36":"10frqq0","区36":"d","地址":"蕰藻南路539号","lng":121.46198661480162,"lat":31.35298489083875,"确诊日期36":"l"},{"SH_ID_36":"10frqqo","区36":"d","地址":"汶水路1585弄","lng":121.41612606859553,"lat":31.289536712390117,"确诊日期36":"l"},{"SH_ID_36":"10frqqp","区36":"d","地址":"五星村","lng":121.34699327333627,"lat":31.30467512692961,"确诊日期36":"l"},{"SH_ID_36":"10frqqq","区36":"d","地址":"杨泰三村","lng":121.44932149900096,"lat":31.36295453637835,"确诊日期36":"l"},{"SH_ID_36":"10frqpz","区36":"d","地址":"逸仙路1321弄","lng":121.48769768739372,"lat":31.31565037856016,"确诊日期36":"l"},{"SH_ID_36":"10frqqr","区36":"d","地址":"逸仙路4127号","lng":121.49887349591798,"lat":31.359619742011404,"确诊日期36":"l"},{"SH_ID_36":"10frqqs","区36":"d","地址":"友谊西路101号","lng":121.42625366473506,"lat":31.3821432952729,"确诊日期36":"l"},{"SH_ID_36":"10frqqu","区36":"d","地址":"远景村","lng":121.33758270430943,"lat":31.403812515562187,"确诊日期36":"l"},{"SH_ID_36":"10frqqv","区36":"d","地址":"月辉路168弄","lng":121.43802557595293,"lat":31.390383231425496,"确诊日期36":"l"},{"SH_ID_36":"10frqqw","区36":"d","地址":"张士村","lng":121.33116861496215,"lat":31.388863729992146,"确诊日期36":"l"},{"SH_ID_36":"10frqqx","区36":"d","地址":"真大路333弄","lng":121.40245682329324,"lat":31.289225862584782,"确诊日期36":"l"},{"SH_ID_36":"10frqpy","区36":"d","地址":"真大路420弄","lng":121.40045915522293,"lat":31.29417286269129,"确诊日期36":"l"},{"SH_ID_36":"10frr2s","区36":"u","地址":"创建村","lng":121.61262944347132,"lat":31.42843437174128,"确诊日期36":"l"},{"SH_ID_36":"10frr2n","区36":"u","地址":"江南大道","lng":121.73779586290257,"lat":31.368617197455652,"确诊日期36":"l"},{"SH_ID_36":"10frr2q","区36":"u","地址":"南海村","lng":121.69079990239113,"lat":31.52030673109799,"确诊日期36":"l"},{"SH_ID_36":"10frr2r","区36":"u","地址":"四滧村","lng":121.65692402572319,"lat":31.526326869549663,"确诊日期36":"l"},{"SH_ID_36":"10frr2o","区36":"u","地址":"天新村","lng":121.50788980493002,"lat":31.602791636266275,"确诊日期36":"l"},{"SH_ID_36":"10frr2p","区36":"u","地址":"新薇路56号","lng":121.51593659429854,"lat":31.58678877055474,"确诊日期36":"l"},{"SH_ID_36":"10frr2h","区36":"k","地址":"八字村","lng":121.64124970109978,"lat":30.936194527560602,"确诊日期36":"l"},{"SH_ID_36":"10frr2e","区36":"k","地址":"北唐村","lng":121.5756920800478,"lat":30.928220668505208,"确诊日期36":"l"},{"SH_ID_36":"10frr1w","区36":"k","地址":"蔡家桥村","lng":121.64459052903885,"lat":30.98494045199308,"确诊日期36":"l"},{"SH_ID_36":"10frr1x","区36":"k","地址":"陈桥村","lng":121.61376743341162,"lat":30.923538212913904,"确诊日期36":"l"},{"SH_ID_36":"10frr27","区36":"k","地址":"灯民村","lng":121.63596641121387,"lat":30.906540623826555,"确诊日期36":"l"},{"SH_ID_36":"10frr2d","区36":"k","地址":"高桥村","lng":121.63184764325837,"lat":30.914963516064855,"确诊日期36":"l"},{"SH_ID_36":"10frr1z","区36":"k","地址":"工农村","lng":121.5369133942943,"lat":30.91185748178384,"确诊日期36":"l"},{"SH_ID_36":"10frr2b","区36":"k","地址":"光辉村","lng":121.58118760973889,"lat":30.992341844333016,"确诊日期36":"l"},{"SH_ID_36":"10frr2k","区36":"k","地址":"海淀路258弄","lng":121.6269832231713,"lat":30.912337671439417,"确诊日期36":"l"},{"SH_ID_36":"10frr25","区36":"k","地址":"解放村","lng":121.53693846066616,"lat":30.90128635990094,"确诊日期36":"l"},{"SH_ID_36":"10frr29","区36":"k","地址":"金港村","lng":121.45524376421814,"lat":30.980016774160013,"确诊日期36":"l"},{"SH_ID_36":"10frr2g","区36":"k","地址":"梁典村","lng":121.59834057254773,"lat":30.963895352482915,"确诊日期36":"l"},{"SH_ID_36":"10frr2a","区36":"k","地址":"路口村","lng":121.61662489819922,"lat":30.93442141292729,"确诊日期36":"l"},{"SH_ID_36":"10frr24","区36":"k","地址":"南奉公路343号","lng":121.63175139337237,"lat":30.912069944591664,"确诊日期36":"l"},{"SH_ID_36":"10frr26","区36":"k","地址":"南奉公路999号","lng":121.61964495782809,"lat":30.9141299353384,"确诊日期36":"l"},{"SH_ID_36":"10frr2j","区36":"k","地址":"农机新村","lng":121.65071862270598,"lat":30.910225290451425,"确诊日期36":"l"},{"SH_ID_36":"10frr2f","区36":"k","地址":"青伟路111号","lng":121.60410566625526,"lat":30.932988170659193,"确诊日期36":"l"},{"SH_ID_36":"10frr20","区36":"k","地址":"上塑路1175弄","lng":121.5737270353157,"lat":30.916093675468698,"确诊日期36":"l"},{"SH_ID_36":"10frr22","区36":"k","地址":"泰青公路294弄","lng":121.56987196724258,"lat":30.917483712205744,"确诊日期36":"l"},{"SH_ID_36":"10frr21","区36":"k","地址":"湾张村","lng":121.53016878011975,"lat":30.920619441453564,"确诊日期36":"l"},{"SH_ID_36":"10frr2m","区36":"k","地址":"万顺路2968弄","lng":121.51630982764786,"lat":30.970862580007246,"确诊日期36":"l"},{"SH_ID_36":"10frr28","区36":"k","地址":"西老街44弄","lng":121.47408121307541,"lat":30.917862811944026,"确诊日期36":"l"},{"SH_ID_36":"10frr2i","区36":"k","地址":"西吴村","lng":121.58089185085802,"lat":30.94540949731864,"确诊日期36":"l"},{"SH_ID_36":"10frr2l","区36":"k","地址":"新张村","lng":121.53100579846217,"lat":30.8769500615974,"确诊日期36":"l"},{"SH_ID_36":"10frr1y","区36":"k","地址":"姚家村","lng":121.57938277255519,"lat":30.91717163024763,"确诊日期36":"l"},{"SH_ID_36":"10frr2c","区36":"k","地址":"油车弄74号","lng":121.39696186347315,"lat":30.907452251072897,"确诊日期36":"l"},{"SH_ID_36":"10frr23","区36":"k","地址":"资福村","lng":121.60354919667496,"lat":30.966636377635584,"确诊日期36":"l"},{"SH_ID_36":"10frqob","区36":"9","地址":"车站北路491弄","lng":121.47404334954011,"lat":31.296209681689646,"确诊日期36":"l"},{"SH_ID_36":"10frqoc","区36":"9","地址":"车站北路507弄","lng":121.47322587641075,"lat":31.296562937565017,"确诊日期36":"l"},{"SH_ID_36":"10frqon","区36":"9","地址":"车站北路716弄","lng":121.466361406234,"lat":31.297668699922866,"确诊日期36":"l"},{"SH_ID_36":"10frqoi","区36":"9","地址":"车站南路39号","lng":121.481588996184,"lat":31.295203176430185,"确诊日期36":"l"},{"SH_ID_36":"10frqod","区36":"9","地址":"公平路369号","lng":121.50442083171897,"lat":31.254678836902123,"确诊日期36":"l"},{"SH_ID_36":"10frqof","区36":"9","地址":"广灵二村","lng":121.47839021019819,"lat":31.285613214224046,"确诊日期36":"l"},{"SH_ID_36":"10frqom","区36":"9","地址":"广灵二路380弄","lng":121.4705425178988,"lat":31.283630309346112,"确诊日期36":"l"},{"SH_ID_36":"10frqok","区36":"9","地址":"广粤路219号","lng":121.4655824825215,"lat":31.28499810160392,"确诊日期36":"l"},{"SH_ID_36":"10frqol","区36":"9","地址":"海伦路236号","lng":121.49297902223297,"lat":31.25764755573658,"确诊日期36":"l"},{"SH_ID_36":"10frqoo","区36":"9","地址":"商业二村","lng":121.48028158653982,"lat":31.28438234702947,"确诊日期36":"l"},{"SH_ID_36":"10frqo9","区36":"9","地址":"石油新村","lng":121.48010333625366,"lat":31.281889660652013,"确诊日期36":"l"},{"SH_ID_36":"10frqoh","区36":"9","地址":"水电路1013弄","lng":121.47878183380514,"lat":31.288578037676633,"确诊日期36":"l"},{"SH_ID_36":"10frqog","区36":"9","地址":"四平路327弄","lng":121.49087226792788,"lat":31.26626494296996,"确诊日期36":"l"},{"SH_ID_36":"10frqoa","区36":"9","地址":"友谊三村","lng":121.47780403313082,"lat":31.283557597167558,"确诊日期36":"l"},{"SH_ID_36":"10frqoj","区36":"9","地址":"乍浦路321号","lng":121.48685715157082,"lat":31.24987179406418,"确诊日期36":"l"},{"SH_ID_36":"10frqoe","区36":"9","地址":"中山北一路184号","lng":121.47807891069154,"lat":31.272969380867988,"确诊日期36":"l"},{"SH_ID_36":"10frqhp","区36":"1","地址":"保屯路50弄","lng":121.48972620262022,"lat":31.206245288948498,"确诊日期36":"l"},{"SH_ID_36":"10frqhr","区36":"1","地址":"曹市弄15弄","lng":121.48898951815657,"lat":31.219027187803107,"确诊日期36":"l"},{"SH_ID_36":"10frqin","区36":"1","地址":"车站支路99弄","lng":121.49256097852196,"lat":31.20819240591705,"确诊日期36":"l"},{"SH_ID_36":"10frqip","区36":"1","地址":"打浦路500弄","lng":121.47283117838951,"lat":31.196178330635348,"确诊日期36":"l"},{"SH_ID_36":"10frqij","区36":"1","地址":"大林路43弄","lng":121.4874622346278,"lat":31.21389590064541,"确诊日期36":"l"},{"SH_ID_36":"10frqhn","区36":"1","地址":"方浜西路63弄","lng":121.48282155022451,"lat":31.220581977339553,"确诊日期36":"l"},{"SH_ID_36":"10frqhz","区36":"1","地址":"光启路119弄15号","lng":121.49438951613688,"lat":31.223806517729937,"确诊日期36":"l"},{"SH_ID_36":"10frqim","区36":"1","地址":"国货路236号","lng":121.49489324037752,"lat":31.208615733721,"确诊日期36":"l"},{"SH_ID_36":"10frqhm","区36":"1","地址":"徽宁路10号","lng":121.48908785050565,"lat":31.209473640260796,"确诊日期36":"l"},{"SH_ID_36":"10frqhy","区36":"1","地址":"静修路126弄","lng":121.48645864637865,"lat":31.219453621589413,"确诊日期36":"l"},{"SH_ID_36":"10frqi9","区36":"1","地址":"丽园路857号","lng":121.4769579349915,"lat":31.20692323992673,"确诊日期36":"l"},{"SH_ID_36":"10frqih","区36":"1","地址":"丽园路871号","lng":121.47627680800836,"lat":31.206786769778486,"确诊日期36":"l"},{"SH_ID_36":"10frqhl","区36":"1","地址":"丽园路873号","lng":121.47600572386168,"lat":31.206666772643842,"确诊日期36":"l"},{"SH_ID_36":"10frqhx","区36":"1","地址":"灵济街55弄","lng":121.49523316348656,"lat":31.221518711704782,"确诊日期36":"l"},{"SH_ID_36":"10frqi6","区36":"1","地址":"陆家浜路688弄","lng":121.49557030794399,"lat":31.212208230141364,"确诊日期36":"l"},{"SH_ID_36":"10frqie","区36":"1","地址":"蒙自西路28弄6号","lng":121.47617811375588,"lat":31.20717384781193,"确诊日期36":"l"},{"SH_ID_36":"10frqi0","区36":"1","地址":"面筋弄60弄","lng":121.49788237476142,"lat":31.2202784079388,"确诊日期36":"l"},{"SH_ID_36":"10frqhv","区36":"1","地址":"南车站路198号","lng":121.49129459788936,"lat":31.2090549762659,"确诊日期36":"l"},{"SH_ID_36":"10frqhw","区36":"1","地址":"南车站路318弄","lng":121.49201825571716,"lat":31.207415893551484,"确诊日期36":"l"},{"SH_ID_36":"10frqhu","区36":"1","地址":"蓬莱路284号","lng":121.48925262704444,"lat":31.216951221771364,"确诊日期36":"l"},{"SH_ID_36":"10frqi2","区36":"1","地址":"普育东路101弄","lng":121.49619830751777,"lat":31.20985704471188,"确诊日期36":"l"},{"SH_ID_36":"10frqhq","区36":"1","地址":"瞿溪路1200弄","lng":121.4727045560873,"lat":31.197493561385343,"确诊日期36":"l"},{"SH_ID_36":"10frqhs","区36":"1","地址":"瑞金二路410弄","lng":121.4659813976448,"lat":31.206732929655313,"确诊日期36":"l"},{"SH_ID_36":"10frqi8","区36":"1","地址":"顺昌路550弄","lng":121.47938023990812,"lat":31.211675847864917,"确诊日期36":"l"},{"SH_ID_36":"10frqif","区36":"1","地址":"顺昌路594号","lng":121.4795477162692,"lat":31.21111781355148,"确诊日期36":"l"},{"SH_ID_36":"10frqic","区36":"1","地址":"顺昌路612弄37号","lng":121.4793257809041,"lat":31.210939847550236,"确诊日期36":"l"},{"SH_ID_36":"10frqid","区36":"1","地址":"顺昌路612弄44号","lng":121.47899146504808,"lat":31.2109009245429,"确诊日期36":"l"},{"SH_ID_36":"10frqik","区36":"1","地址":"四牌楼路110号","lng":121.49547801323372,"lat":31.223525350637523,"确诊日期36":"l"},{"SH_ID_36":"10frqi1","区36":"1","地址":"四牌楼路95弄","lng":121.4959902463429,"lat":31.22373208259758,"确诊日期36":"l"},{"SH_ID_36":"10frqia","区36":"1","地址":"铁道路776弄","lng":121.47578277771373,"lat":31.19586293182328,"确诊日期36":"l"},{"SH_ID_36":"10frqi4","区36":"1","地址":"西藏南路1501弄","lng":121.48972784842574,"lat":31.203033665299337,"确诊日期36":"l"},{"SH_ID_36":"10frqii","区36":"1","地址":"斜土路460弄","lng":121.47779254581127,"lat":31.20316685006554,"确诊日期36":"l"},{"SH_ID_36":"10frqho","区36":"1","地址":"斜土路486弄","lng":121.47733865515112,"lat":31.20255747491841,"确诊日期36":"l"},{"SH_ID_36":"10frqig","区36":"1","地址":"兴安路96弄","lng":121.47109977341357,"lat":31.22131871509597,"确诊日期36":"l"},{"SH_ID_36":"10frqib","区36":"1","地址":"学院路135号","lng":121.49452217438841,"lat":31.22325814096355,"确诊日期36":"l"},{"SH_ID_36":"10frqht","区36":"1","地址":"巡道街53弄","lng":121.49770595486918,"lat":31.22000656004064,"确诊日期36":"l"},{"SH_ID_36":"10frqi3","区36":"1","地址":"制造局路455弄","lng":121.48439043949126,"lat":31.204778481823148,"确诊日期36":"l"},{"SH_ID_36":"10frqio","区36":"1","地址":"中山南路1358弄","lng":121.499839241733,"lat":31.210664039808258,"确诊日期36":"l"},{"SH_ID_36":"10frqi7","区36":"1","地址":"中山南路1667号","lng":121.49486067166117,"lat":31.204936751196552,"确诊日期36":"l"},{"SH_ID_36":"10frqiq","区36":"1","地址":"中山南路1701号","lng":121.49401648608223,"lat":31.204036052990066,"确诊日期36":"l"},{"SH_ID_36":"10frqi5","区36":"1","地址":"中山南路1891号","lng":121.49100193337411,"lat":31.201886419725337,"确诊日期36":"l"},{"SH_ID_36":"10frqil","区36":"1","地址":"庄家街1号","lng":121.48844692408093,"lat":31.220743914986446,"确诊日期36":"l"},{"SH_ID_36":"10frqxl","区36":"e","地址":"安亭镇联群村","lng":121.24624524170764,"lat":31.276692113409368,"确诊日期36":"l"},{"SH_ID_36":"10frqxm","区36":"e","地址":"安亭镇星塔村","lng":121.23766619954866,"lat":31.28904723409711,"确诊日期36":"l"},{"SH_ID_36":"10frqxo","区36":"e","地址":"安亭镇玉兰二村","lng":121.15838917857688,"lat":31.296840903686835,"确诊日期36":"l"},{"SH_ID_36":"10frqxp","区36":"e","地址":"安亭镇玉兰三村","lng":121.16017280763529,"lat":31.299670927068384,"确诊日期36":"l"},{"SH_ID_36":"10frqxn","区36":"e","地址":"安亭镇玉兰一村","lng":121.16129601343542,"lat":31.297480720219873,"确诊日期36":"l"},{"SH_ID_36":"10frqwy","区36":"e","地址":"宝安公路3136号","lng":121.28759248844551,"lat":31.332864777970148,"确诊日期36":"l"},{"SH_ID_36":"10frqvi","区36":"e","地址":"北和公路1650号","lng":121.17912180311689,"lat":31.424842605212195,"确诊日期36":"l"},{"SH_ID_36":"10frqx7","区36":"e","地址":"曹安公路1781弄","lng":121.38638757487728,"lat":31.252758912163745,"确诊日期36":"l"},{"SH_ID_36":"10frqx4","区36":"e","地址":"曹安公路1909号","lng":121.35987543513133,"lat":31.252854299184186,"确诊日期36":"l"},{"SH_ID_36":"10frqx5","区36":"e","地址":"曹安公路1936号","lng":121.35917425815282,"lat":31.25619178240212,"确诊日期36":"l"},{"SH_ID_36":"10frqx6","区36":"e","地址":"曹安公路1978号","lng":121.35713512511073,"lat":31.255968630284013,"确诊日期36":"l"},{"SH_ID_36":"10frqvp","区36":"e","地址":"曹安公路1986号","lng":121.3537390829931,"lat":31.257265073265234,"确诊日期36":"l"},{"SH_ID_36":"10frqvq","区36":"e","地址":"曹安公路1991号","lng":121.21502608340411,"lat":31.27380113200334,"确诊日期36":"l"},{"SH_ID_36":"10frqvr","区36":"e","地址":"曹安公路2098号","lng":121.34782459897863,"lat":31.25965088302311,"确诊日期36":"l"},{"SH_ID_36":"10frqvs","区36":"e","地址":"曹安公路2258号","lng":121.34381672901678,"lat":31.260783905546475,"确诊日期36":"l"},{"SH_ID_36":"10frqvt","区36":"e","地址":"曹安公路2300弄","lng":121.34178422945607,"lat":31.261415801808514,"确诊日期36":"l"},{"SH_ID_36":"10frqvu","区36":"e","地址":"曹安公路3057号","lng":121.3085746132882,"lat":31.265511255164522,"确诊日期36":"l"},{"SH_ID_36":"10frqvv","区36":"e","地址":"曹南路12号","lng":121.3542881710376,"lat":31.26153343781838,"确诊日期36":"l"},{"SH_ID_36":"10frqwz","区36":"e","地址":"成泽路386弄","lng":121.2766758744486,"lat":31.373733305938504,"确诊日期36":"l"},{"SH_ID_36":"10frqvj","区36":"e","地址":"城北路4089号","lng":121.19109735560815,"lat":31.447377306448264,"确诊日期36":"l"},{"SH_ID_36":"10frqwx","区36":"e","地址":"慈竹路836弄","lng":121.21261470780274,"lat":31.380337702039068,"确诊日期36":"l"},{"SH_ID_36":"10frqx8","区36":"e","地址":"定边路119号","lng":121.3637863666692,"lat":31.257614090596054,"确诊日期36":"l"},{"SH_ID_36":"10frqx9","区36":"e","地址":"定边路35号","lng":121.36163488232407,"lat":31.256601020069766,"确诊日期36":"l"},{"SH_ID_36":"10frqxa","区36":"e","地址":"定边路99弄","lng":121.3637206620769,"lat":31.257124740458583,"确诊日期36":"l"},{"SH_ID_36":"10frqxb","区36":"e","地址":"丰江路188弄","lng":121.35097068836004,"lat":31.25461102272301,"确诊日期36":"l"},{"SH_ID_36":"10frqvw","区36":"e","地址":"丰庄北路5弄","lng":121.35534864428097,"lat":31.249884198363336,"确诊日期36":"l"},{"SH_ID_36":"10frqv9","区36":"e","地址":"阜康西路19弄","lng":121.16255231676344,"lat":31.29818091122048,"确诊日期36":"l"},{"SH_ID_36":"10frqva","区36":"e","地址":"阜康西路23号","lng":121.16254475959083,"lat":31.298153929164464,"确诊日期36":"l"},{"SH_ID_36":"10frqvb","区36":"e","地址":"阜康西路61号","lng":121.16163824759592,"lat":31.298535905841913,"确诊日期36":"l"},{"SH_ID_36":"10frqvx","区36":"e","地址":"海波路1000弄","lng":121.33006403170083,"lat":31.269828771913524,"确诊日期36":"l"},{"SH_ID_36":"10frqvy","区36":"e","地址":"海波路333号","lng":121.34107516752672,"lat":31.26581840509784,"确诊日期36":"l"},{"SH_ID_36":"10frqvz","区36":"e","地址":"海川路58弄","lng":121.34908311417446,"lat":31.264501672260877,"确诊日期36":"l"},{"SH_ID_36":"10frqw0","区36":"e","地址":"海蓝路98弄","lng":121.34972753212264,"lat":31.26101609865104,"确诊日期36":"l"},{"SH_ID_36":"10frqvc","区36":"e","地址":"和静路1188弄","lng":121.15954169521704,"lat":31.30203219619639,"确诊日期36":"l"},{"SH_ID_36":"10frqw1","区36":"e","地址":"鹤望路468号","lng":121.32363266734684,"lat":31.245039111240153,"确诊日期36":"l"},{"SH_ID_36":"10frqw2","区36":"e","地址":"鹤霞路600弄","lng":121.307982618845,"lat":31.245614285472687,"确诊日期36":"l"},{"SH_ID_36":"10frqx3","区36":"e","地址":"恒荣路388弄","lng":121.17726470183614,"lat":31.35315652982664,"确诊日期36":"l"},{"SH_ID_36":"10frqx1","区36":"e","地址":"沪宜公路653号","lng":121.30810964512973,"lat":31.286079953080726,"确诊日期36":"l"},{"SH_ID_36":"10frqvo","区36":"e","地址":"华博路1155号","lng":121.24808704369907,"lat":31.450786184466164,"确诊日期36":"l"},{"SH_ID_36":"10frqw3","区36":"e","地址":"华江公路90弄","lng":121.34352698232391,"lat":31.257183694636268,"确诊日期36":"l"},{"SH_ID_36":"10frqw4","区36":"e","地址":"华江路1481弄","lng":121.3270453540695,"lat":31.23200431957073,"确诊日期36":"l"},{"SH_ID_36":"10frqw5","区36":"e","地址":"华江路157号","lng":121.34086892692247,"lat":31.25344491458305,"确诊日期36":"l"},{"SH_ID_36":"10frqw6","区36":"e","地址":"华江路17号","lng":121.34689416063829,"lat":31.25793048324719,"确诊日期36":"l"},{"SH_ID_36":"10frqw7","区36":"e","地址":"华江路77号","lng":121.32246356793955,"lat":31.23876813985237,"确诊日期36":"l"},{"SH_ID_36":"10frqw8","区36":"e","地址":"华江支路369号","lng":121.3387381303946,"lat":31.26222398015395,"确诊日期36":"l"},{"SH_ID_36":"10frqw9","区36":"e","地址":"华江支路600弄","lng":121.34093028320055,"lat":31.26417181168431,"确诊日期36":"l"},{"SH_ID_36":"10frqwa","区36":"e","地址":"华江支路661号","lng":121.33844465421622,"lat":31.264556121103485,"确诊日期36":"l"},{"SH_ID_36":"10frqv8","区36":"e","地址":"华江支路677弄","lng":121.33630775948738,"lat":31.265400391115243,"确诊日期36":"l"},{"SH_ID_36":"10frqwb","区36":"e","地址":"黄家花园路88弄","lng":121.32146003951563,"lat":31.252741009127146,"确诊日期36":"l"},{"SH_ID_36":"10frqvk","区36":"e","地址":"汇善路1333弄","lng":121.20532185534131,"lat":31.40316681114792,"确诊日期36":"l"},{"SH_ID_36":"10frqvl","区36":"e","地址":"汇通路25号","lng":121.18643946487043,"lat":31.40370592432356,"确诊日期36":"l"},{"SH_ID_36":"10frqxq","区36":"e","地址":"嘉定工业区灯塔村","lng":121.17220054142862,"lat":31.436439731506454,"确诊日期36":"l"},{"SH_ID_36":"10frqxr","区36":"e","地址":"嘉定工业区陆渡村","lng":121.19777532671635,"lat":31.46206457462842,"确诊日期36":"l"},{"SH_ID_36":"10frqxs","区36":"e","地址":"嘉定镇街道桃园新村","lng":121.24560050524403,"lat":31.388832272113575,"确诊日期36":"l"},{"SH_ID_36":"10frqx0","区36":"e","地址":"嘉新公路668弄","lng":121.26904193207164,"lat":31.36247427359856,"确诊日期36":"l"},{"SH_ID_36":"10frqwc","区36":"e","地址":"嘉涌路88号","lng":121.33698934521739,"lat":31.26918093568489,"确诊日期36":"l"},{"SH_ID_36":"10frqwd","区36":"e","地址":"嘉涌路99弄","lng":121.33524707372246,"lat":31.27032327556764,"确诊日期36":"l"},{"SH_ID_36":"10frqwe","区36":"e","地址":"嘉峪关路600弄","lng":121.31325170380555,"lat":31.27249742996137,"确诊日期36":"l"},{"SH_ID_36":"10frqwf","区36":"e","地址":"江佳路188弄","lng":121.34319980616095,"lat":31.25892226853917,"确诊日期36":"l"},{"SH_ID_36":"10frqxt","区36":"e","地址":"江桥镇高潮村","lng":121.33189841102214,"lat":31.2551041477372,"确诊日期36":"l"},{"SH_ID_36":"10frqxu","区36":"e","地址":"江桥镇红光村","lng":121.29749426720804,"lat":31.27201195886176,"确诊日期36":"l"},{"SH_ID_36":"10frqxw","区36":"e","地址":"江桥镇江桥二村","lng":121.34583967998763,"lat":31.255912189142656,"确诊日期36":"l"},{"SH_ID_36":"10frqxv","区36":"e","地址":"江桥镇江桥一村","lng":121.3447251242011,"lat":31.258681419091246,"确诊日期36":"l"},{"SH_ID_36":"10frqy1","区36":"e","地址":"江桥镇莲安公寓","lng":121.29420897273174,"lat":31.379684853144322,"确诊日期36":"l"},{"SH_ID_36":"10frqxx","区36":"e","地址":"江桥镇五四村","lng":121.32695621781805,"lat":31.24997532158313,"确诊日期36":"l"},{"SH_ID_36":"10frqxy","区36":"e","地址":"江桥镇先农村","lng":121.3249622068579,"lat":31.263646222593675,"确诊日期36":"l"},{"SH_ID_36":"10frqxz","区36":"e","地址":"江桥镇星火村","lng":121.31695448964331,"lat":31.263914791207796,"确诊日期36":"l"},{"SH_ID_36":"10frqy0","区36":"e","地址":"江桥镇增建村","lng":121.29018236772576,"lat":31.242157044294842,"确诊日期36":"l"},{"SH_ID_36":"10frqxc","区36":"e","地址":"金鼎路1001弄","lng":121.36633500551278,"lat":31.25886276444164,"确诊日期36":"l"},{"SH_ID_36":"10frqxd","区36":"e","地址":"金鼎路2118号","lng":121.36521187338597,"lat":31.25876764687956,"确诊日期36":"l"},{"SH_ID_36":"10frqxe","区36":"e","地址":"金鼎路2388弄","lng":121.36295117430353,"lat":31.259188535016722,"确诊日期36":"l"},{"SH_ID_36":"10frqxf","区36":"e","地址":"金鼎路2588弄","lng":121.35988627716264,"lat":31.261099489244657,"确诊日期36":"l"},{"SH_ID_36":"10frqwg","区36":"e","地址":"金耀南路299弄","lng":121.30892366133415,"lat":31.23570011650582,"确诊日期36":"l"},{"SH_ID_36":"10frqwh","区36":"e","地址":"靖远路621弄","lng":121.33725476818996,"lat":31.253640827140558,"确诊日期36":"l"},{"SH_ID_36":"10frqwi","区36":"e","地址":"靖远路650弄","lng":121.33633448482202,"lat":31.255433735305648,"确诊日期36":"l"},{"SH_ID_36":"10frqwj","区36":"e","地址":"靖远路799弄","lng":121.33195128375064,"lat":31.254320603260005,"确诊日期36":"l"},{"SH_ID_36":"10frqwk","区36":"e","地址":"匡巷路900弄","lng":121.32631318093345,"lat":31.26533990331973,"确诊日期36":"l"},{"SH_ID_36":"10frqvm","区36":"e","地址":"良舍路199号","lng":121.24683965258556,"lat":31.364828370667382,"确诊日期36":"l"},{"SH_ID_36":"10frqwl","区36":"e","地址":"临夏路110号","lng":121.33621256827018,"lat":31.258381477406125,"确诊日期36":"l"},{"SH_ID_36":"10frqwm","区36":"e","地址":"临夏路800弄","lng":121.32835720341947,"lat":31.257926816885565,"确诊日期36":"l"},{"SH_ID_36":"10frqwn","区36":"e","地址":"临夏路98弄","lng":121.33657279473124,"lat":31.258399952934393,"确诊日期36":"l"},{"SH_ID_36":"10frqwo","区36":"e","地址":"陇南路1268号","lng":121.32957853783896,"lat":31.27133391040264,"确诊日期36":"l"},{"SH_ID_36":"10frqvd","区36":"e","地址":"墨玉路164弄","lng":121.1598632110946,"lat":31.29827670777738,"确诊日期36":"l"},{"SH_ID_36":"10frqve","区36":"e","地址":"墨玉路63弄","lng":121.16611860010646,"lat":31.291873345741884,"确诊日期36":"l"},{"SH_ID_36":"10frqvf","区36":"e","地址":"墨玉南路1011弄","lng":121.16144933809558,"lat":31.288325135762605,"确诊日期36":"l"},{"SH_ID_36":"10frqy2","区36":"e","地址":"南翔镇红翔村","lng":121.30597185317157,"lat":31.287748210681006,"确诊日期36":"l"},{"SH_ID_36":"10frqxg","区36":"e","地址":"祁连山南路2199号","lng":121.37223214643814,"lat":31.25271531486403,"确诊日期36":"l"},{"SH_ID_36":"10frqvg","区36":"e","地址":"曲惠路666弄","lng":121.14676890696798,"lat":31.308090387822276,"确诊日期36":"l"},{"SH_ID_36":"10frqxh","区36":"e","地址":"铜川路2225弄","lng":121.37783476523882,"lat":31.254426112012702,"确诊日期36":"l"},{"SH_ID_36":"10frqxi","区36":"e","地址":"铜川路2555弄","lng":121.36951437132015,"lat":31.254852630152552,"确诊日期36":"l"},{"SH_ID_36":"10frqxj","区36":"e","地址":"铜川路2655弄","lng":121.36590570416615,"lat":31.255341667552013,"确诊日期36":"l"},{"SH_ID_36":"10frqxk","区36":"e","地址":"铜川路2688弄","lng":121.36555995922167,"lat":31.257148861937303,"确诊日期36":"l"},{"SH_ID_36":"10frqy3","区36":"e","地址":"外冈镇中泾村","lng":121.13089889601983,"lat":31.35128180424022,"确诊日期36":"l"},{"SH_ID_36":"10frqx2","区36":"e","地址":"武威路2600弄","lng":121.35302104335976,"lat":31.28123936172696,"确诊日期36":"l"},{"SH_ID_36":"10frqwp","区36":"e","地址":"翔江公路3588号","lng":121.27405835274581,"lat":31.256538833508102,"确诊日期36":"l"},{"SH_ID_36":"10frqwr","区36":"e","地址":"翔铁东路102号","lng":121.33882110415156,"lat":31.273419286017116,"确诊日期36":"l"},{"SH_ID_36":"10frqwq","区36":"e","地址":"翔铁东路88号","lng":121.3469975542195,"lat":31.270975872253103,"确诊日期36":"l"},{"SH_ID_36":"10frqws","区36":"e","地址":"新福路455号","lng":121.338128961798,"lat":31.250850362593443,"确诊日期36":"l"},{"SH_ID_36":"10frqvn","区36":"e","地址":"新和路789号","lng":121.18988377389594,"lat":31.433785003485514,"确诊日期36":"l"},{"SH_ID_36":"10frqvh","区36":"e","地址":"新源路1288弄","lng":121.15265361735773,"lat":31.308896821408382,"确诊日期36":"l"},{"SH_ID_36":"10frqwt","区36":"e","地址":"星华公路1662弄","lng":121.29983461594031,"lat":31.27055814985389,"确诊日期36":"l"},{"SH_ID_36":"10frqwu","区36":"e","地址":"星华公路567号","lng":121.30532106735772,"lat":31.24747904575047,"确诊日期36":"l"},{"SH_ID_36":"10frqwv","区36":"e","地址":"张掖路333号","lng":121.33450213834024,"lat":31.258591190914768,"确诊日期36":"l"},{"SH_ID_36":"10frqww","区36":"e","地址":"张掖路355号","lng":121.3347579666504,"lat":31.258889205837775,"确诊日期36":"l"},{"SH_ID_36":"10frqyd","区36":"g","地址":"板桥西路1522号","lng":121.31932641680928,"lat":30.727616880954297,"确诊日期36":"l"},{"SH_ID_36":"10frqyb","区36":"g","地址":"东新村","lng":121.3232282972599,"lat":30.878805417126884,"确诊日期36":"l"},{"SH_ID_36":"10frqy9","区36":"g","地址":"红光村","lng":121.36052710866618,"lat":30.847489117860174,"确诊日期36":"l"},{"SH_ID_36":"10frqy4","区36":"g","地址":"康德路358弄","lng":121.29750733020916,"lat":30.799441583369607,"确诊日期36":"l"},{"SH_ID_36":"10frqyc","区36":"g","地址":"林珍路59弄","lng":121.32422689599154,"lat":30.89841401905867,"确诊日期36":"l"},{"SH_ID_36":"10frqya","区36":"g","地址":"龙泉村","lng":121.35890624627748,"lat":30.884398412211702,"确诊日期36":"l"},{"SH_ID_36":"10frqy8","区36":"g","地址":"马新村","lng":121.16572481328971,"lat":30.834284193371982,"确诊日期36":"l"},{"SH_ID_36":"10frqy5","区36":"g","地址":"清泉路79号","lng":121.1785523945218,"lat":30.888815376886708,"确诊日期36":"l"},{"SH_ID_36":"10frqy7","区36":"g","地址":"卫城村","lng":121.31865123287268,"lat":30.7237878236264,"确诊日期36":"l"},{"SH_ID_36":"10frqye","区36":"g","地址":"卫零北路800弄","lng":121.33490179683957,"lat":30.75079301671551,"确诊日期36":"l"},{"SH_ID_36":"10frqy6","区36":"g","地址":"中联村","lng":121.13983043331079,"lat":30.81466660723141,"确诊日期36":"l"},{"SH_ID_36":"10frqiu","区36":"6","地址":"北宝兴路660弄","lng":121.46056999624604,"lat":31.278168287601375,"确诊日期36":"l"},{"SH_ID_36":"10frqix","区36":"6","地址":"大统路938弄","lng":121.45864315112624,"lat":31.255641870385414,"确诊日期36":"l"},{"SH_ID_36":"10frqiw","区36":"6","地址":"共和新路1165号","lng":121.46209169806514,"lat":31.261858595110805,"确诊日期36":"l"},{"SH_ID_36":"10frqjq","区36":"6","地址":"共和新路1700弄","lng":121.45547339380862,"lat":31.269499078645428,"确诊日期36":"l"},{"SH_ID_36":"10frqis","区36":"6","地址":"淮安路687弄","lng":121.4515647300549,"lat":31.2400817197873,"确诊日期36":"l"},{"SH_ID_36":"10frqj1","区36":"6","地址":"江杨南路466弄","lng":121.46820172222475,"lat":31.31678609352364,"确诊日期36":"l"},{"SH_ID_36":"10frqjd","区36":"6","地址":"康定东路13弄","lng":121.45739234828412,"lat":31.237148140265663,"确诊日期36":"l"},{"SH_ID_36":"10frqj9","区36":"6","地址":"康定东路17弄","lng":121.45726731971604,"lat":31.23728655857596,"确诊日期36":"l"},{"SH_ID_36":"10frqjf","区36":"6","地址":"康定东路19号","lng":121.45713011069869,"lat":31.237036893818562,"确诊日期36":"l"},{"SH_ID_36":"10frqja","区36":"6","地址":"康定东路33弄","lng":121.4569679401742,"lat":31.23697565150623,"确诊日期36":"l"},{"SH_ID_36":"10frqjc","区36":"6","地址":"康定东路3弄","lng":121.45800587555773,"lat":31.23658609643049,"确诊日期36":"l"},{"SH_ID_36":"10frqjl","区36":"6","地址":"康定路1033号","lng":121.43747072599312,"lat":31.230207937927226,"确诊日期36":"l"},{"SH_ID_36":"10frqjb","区36":"6","地址":"康定路3弄","lng":121.44276914078952,"lat":31.23204501905852,"确诊日期36":"l"},{"SH_ID_36":"10frqiv","区36":"6","地址":"康定路950弄","lng":121.43863573603934,"lat":31.23149459945183,"确诊日期36":"l"},{"SH_ID_36":"10frqjs","区36":"6","地址":"老沪太路205号","lng":121.45276246619795,"lat":31.268209670413558,"确诊日期36":"l"},{"SH_ID_36":"10frqiz","区36":"6","地址":"陆丰路1号","lng":121.47533801831557,"lat":31.259343942530474,"确诊日期36":"l"},{"SH_ID_36":"10frqit","区36":"6","地址":"洛川东路400弄","lng":121.4610456035018,"lat":31.268767014016166,"确诊日期36":"l"},{"SH_ID_36":"10frqje","区36":"6","地址":"南京西路770号","lng":121.46166554001417,"lat":31.231359095126894,"确诊日期36":"l"},{"SH_ID_36":"10frqjp","区36":"6","地址":"平型关路343号","lng":121.46317292778275,"lat":31.271312388081025,"确诊日期36":"l"},{"SH_ID_36":"10frqj3","区36":"6","地址":"平型关路351号","lng":121.46317944483751,"lat":31.271772664515648,"确诊日期36":"l"},{"SH_ID_36":"10frqj2","区36":"6","地址":"普善路铁路新村18号","lng":121.45499925773825,"lat":31.256165945196734,"确诊日期36":"l"},{"SH_ID_36":"10frqjk","区36":"6","地址":"少年村路415弄","lng":121.43307322274515,"lat":31.299319877212323,"确诊日期36":"l"},{"SH_ID_36":"10frqj8","区36":"6","地址":"石门二路483号","lng":121.45877711997983,"lat":31.236916131193546,"确诊日期36":"l"},{"SH_ID_36":"10frqj4","区36":"6","地址":"天目中路790号","lng":121.46063276147827,"lat":31.245242458445638,"确诊日期36":"l"},{"SH_ID_36":"10frqji","区36":"6","地址":"万航渡路175弄","lng":121.44216657306212,"lat":31.225514082762558,"确诊日期36":"l"},{"SH_ID_36":"10frqjn","区36":"6","地址":"万航渡路455弄","lng":121.43594895319362,"lat":31.225226818516234,"确诊日期36":"l"},{"SH_ID_36":"10frqj7","区36":"6","地址":"武定路42号","lng":121.4589689421316,"lat":31.236624391978246,"确诊日期36":"l"},{"SH_ID_36":"10frqj6","区36":"6","地址":"武定路44弄","lng":121.45813096963413,"lat":31.237012485743026,"确诊日期36":"l"},{"SH_ID_36":"10frqir","区36":"6","地址":"西康路633弄","lng":121.44548218538263,"lat":31.2345990370157,"确诊日期36":"l"},{"SH_ID_36":"10frqj5","区36":"6","地址":"永兴小马路70号","lng":121.4644298588315,"lat":31.251627393153015,"确诊日期36":"l"},{"SH_ID_36":"10frqj0","区36":"6","地址":"愚园路576弄","lng":121.43723155405455,"lat":31.22253740880015,"确诊日期36":"l"},{"SH_ID_36":"10frqjg","区36":"6","地址":"愚园路611弄","lng":121.43738857550326,"lat":31.22064505898251,"确诊日期36":"l"},{"SH_ID_36":"10frqjh","区36":"6","地址":"长临路380弄","lng":121.43691899709312,"lat":31.31829985730023,"确诊日期36":"l"},{"SH_ID_36":"10frqjm","区36":"6","地址":"长宁路209弄","lng":121.42889362797902,"lat":31.22539210224612,"确诊日期36":"l"},{"SH_ID_36":"10frqjr","区36":"6","地址":"芷江西路165弄","lng":121.46375924426167,"lat":31.258382130524975,"确诊日期36":"l"},{"SH_ID_36":"10frqiy","区36":"6","地址":"中华新路793弄","lng":121.45729997328614,"lat":31.254743223919498,"确诊日期36":"l"},{"SH_ID_36":"10frqjo","区36":"6","地址":"中山北路198号","lng":121.47078743642099,"lat":31.26459935160814,"确诊日期36":"l"},{"SH_ID_36":"10frqjj","区36":"6","地址":"中山北路831弄","lng":121.45802360290507,"lat":31.260284071755493,"确诊日期36":"l"},{"SH_ID_36":"10frqqy","区36":"c","地址":"安乐村","lng":121.41092923561591,"lat":31.02923812131787,"确诊日期36":"l"},{"SH_ID_36":"10frqqz","区36":"c","地址":"安宁路330弄","lng":121.41610334459234,"lat":31.01412024219024,"确诊日期36":"l"},{"SH_ID_36":"10frqr0","区36":"c","地址":"报春路816弄","lng":121.37765711778242,"lat":31.121458891541735,"确诊日期36":"l"},{"SH_ID_36":"10frqr1","区36":"c","地址":"报春路817弄","lng":121.37713973293621,"lat":31.12014223513711,"确诊日期36":"l"},{"SH_ID_36":"10frqr2","区36":"c","地址":"报春路863弄","lng":121.3754486836795,"lat":31.119210224054175,"确诊日期36":"l"},{"SH_ID_36":"10frqr5","区36":"c","地址":"北翟路1444弄","lng":121.34092937416793,"lat":31.229762467993776,"确诊日期36":"l"},{"SH_ID_36":"10frqr3","区36":"c","地址":"北江燕路228弄","lng":121.5026583164336,"lat":31.079460396652404,"确诊日期36":"l"},{"SH_ID_36":"10frqr4","区36":"c","地址":"北沈路260弄","lng":121.33554153949625,"lat":31.228983270411852,"确诊日期36":"l"},{"SH_ID_36":"10frqr6","区36":"c","地址":"碧江路501弄","lng":121.39995043020241,"lat":31.014916815633732,"确诊日期36":"l"},{"SH_ID_36":"10frqr7","区36":"c","地址":"沧源路755弄","lng":121.42944495465333,"lat":31.014899485214585,"确诊日期36":"l"},{"SH_ID_36":"10frqr8","区36":"c","地址":"曹家塘路220弄","lng":121.44597298726963,"lat":31.041792826180103,"确诊日期36":"l"},{"SH_ID_36":"10frqr9","区36":"c","地址":"曹中村","lng":121.43302484631643,"lat":31.08856982381452,"确诊日期36":"l"},{"SH_ID_36":"10frqra","区36":"c","地址":"漕宝路1467弄","lng":121.38360642355558,"lat":31.160699004108864,"确诊日期36":"l"},{"SH_ID_36":"10frqrb","区36":"c","地址":"漕宝路1508弄","lng":121.38424825707358,"lat":31.155816654488774,"确诊日期36":"l"},{"SH_ID_36":"10frqrc","区36":"c","地址":"澄江路1530号","lng":121.43619751526018,"lat":31.07926226745604,"确诊日期36":"l"},{"SH_ID_36":"10frqrd","区36":"c","地址":"春申路1717弄","lng":121.41746538865068,"lat":31.119717961281097,"确诊日期36":"l"},{"SH_ID_36":"10frqre","区36":"c","地址":"春申路2458弄","lng":121.41495704673702,"lat":31.112291906599143,"确诊日期36":"l"},{"SH_ID_36":"10frqrf","区36":"c","地址":"灯辉路1058号","lng":121.4116038981375,"lat":31.029518041656896,"确诊日期36":"l"},{"SH_ID_36":"10frqrg","区36":"c","地址":"东川路2626弄","lng":121.40355345307778,"lat":31.009829806660186,"确诊日期36":"l"},{"SH_ID_36":"10frqrh","区36":"c","地址":"东川路2718弄","lng":121.40037297145534,"lat":31.00907794337161,"确诊日期36":"l"},{"SH_ID_36":"10frqri","区36":"c","地址":"东川路500号","lng":121.45369692550142,"lat":31.03125256000946,"确诊日期36":"l"},{"SH_ID_36":"10frqrj","区36":"c","地址":"东川路800号","lng":121.43611235818581,"lat":31.02390024658708,"确诊日期36":"l"},{"SH_ID_36":"10frqrk","区36":"c","地址":"东川路811弄","lng":121.43339005091755,"lat":31.017366998251493,"确诊日期36":"l"},{"SH_ID_36":"10frqrl","区36":"c","地址":"东风村","lng":121.54476345910881,"lat":31.10249436779999,"确诊日期36":"l"},{"SH_ID_36":"10frqrm","区36":"c","地址":"都会路3199弄","lng":121.40950581957475,"lat":31.084365663906862,"确诊日期36":"l"},{"SH_ID_36":"10frqrn","区36":"c","地址":"杜行东街52号","lng":121.49883009156714,"lat":31.05368601249994,"确诊日期36":"l"},{"SH_ID_36":"10frqro","区36":"c","地址":"放鹤路19号","lng":121.46920423023693,"lat":31.0498310351494,"确诊日期36":"l"},{"SH_ID_36":"10frqrp","区36":"c","地址":"放鹤路2号","lng":121.47709573867199,"lat":31.051285848462776,"确诊日期36":"l"},{"SH_ID_36":"10frqrq","区36":"c","地址":"富国路199弄","lng":121.37909943612009,"lat":31.021776963909957,"确诊日期36":"l"},{"SH_ID_36":"10frqrr","区36":"c","地址":"富国路39弄","lng":121.3790875297331,"lat":31.019595653030805,"确诊日期36":"l"},{"SH_ID_36":"10frqrs","区36":"c","地址":"富砾路259弄","lng":121.3660165581151,"lat":31.03497038239019,"确诊日期36":"l"},{"SH_ID_36":"10frqrt","区36":"c","地址":"富岩路230弄","lng":121.3721124320097,"lat":31.030137730312042,"确诊日期36":"l"},{"SH_ID_36":"10frqru","区36":"c","地址":"古龙路1065弄","lng":121.38495371260983,"lat":31.14513652700008,"确诊日期36":"l"},{"SH_ID_36":"10frqrv","区36":"c","地址":"光继村","lng":121.53440877335142,"lat":31.002580764763543,"确诊日期36":"l"},{"SH_ID_36":"10frqrx","区36":"c","地址":"航北路180弄","lng":121.35641611166128,"lat":31.17525344942844,"确诊日期36":"l"},{"SH_ID_36":"10frqry","区36":"c","地址":"航华四村","lng":121.3592472079048,"lat":31.171639016909005,"确诊日期36":"l"},{"SH_ID_36":"10frqrz","区36":"c","地址":"鹤庆路136弄","lng":121.41931405642339,"lat":31.01189350801011,"确诊日期36":"l"},{"SH_ID_36":"10frqs0","区36":"c","地址":"鹤庆路358弄","lng":121.4138101530461,"lat":31.010026935291172,"确诊日期36":"l"},{"SH_ID_36":"10frqs1","区36":"c","地址":"虹井路618弄","lng":121.37101364693103,"lat":31.184939277555056,"确诊日期36":"l"},{"SH_ID_36":"10frqs2","区36":"c","地址":"虹梅路999弄","lng":121.40333394193142,"lat":31.155027725996536,"确诊日期36":"l"},{"SH_ID_36":"10frqs3","区36":"c","地址":"虹梅南路1526弄","lng":121.43384753110067,"lat":31.118542253171775,"确诊日期36":"l"},{"SH_ID_36":"10frqs4","区36":"c","地址":"虹梅南路1661弄","lng":121.42581457919121,"lat":31.11450133001147,"确诊日期36":"l"},{"SH_ID_36":"10frqs5","区36":"c","地址":"虹梅南路1781弄","lng":121.42805226487573,"lat":31.106820075439046,"确诊日期36":"l"},{"SH_ID_36":"10frqs6","区36":"c","地址":"虹梅南路2555弄","lng":121.42998363332616,"lat":31.098259677697524,"确诊日期36":"l"},{"SH_ID_36":"10frqs7","区36":"c","地址":"虹梅南路3678号","lng":121.44037384926528,"lat":31.081952337619995,"确诊日期36":"l"},{"SH_ID_36":"10frqs8","区36":"c","地址":"虹梅南路5205弄","lng":121.44994732135876,"lat":31.048872585865155,"确诊日期36":"l"},{"SH_ID_36":"10frqs9","区36":"c","地址":"虹梅南路788号","lng":121.42292457865703,"lat":31.125893929528104,"确诊日期36":"l"},{"SH_ID_36":"10frqsa","区36":"c","地址":"虹梅南路990号","lng":121.42376461109757,"lat":31.124533737856602,"确诊日期36":"l"},{"SH_ID_36":"10frqsb","区36":"c","地址":"虹莘路1955弄","lng":121.38073347347172,"lat":31.13584233933198,"确诊日期36":"l"},{"SH_ID_36":"10frqsc","区36":"c","地址":"虹莘路3333弄","lng":121.3747292275947,"lat":31.161828411812916,"确诊日期36":"l"},{"SH_ID_36":"10frqsd","区36":"c","地址":"虹莘路3500号","lng":121.37533890823276,"lat":31.16503732265728,"确诊日期36":"l"},{"SH_ID_36":"10frqse","区36":"c","地址":"沪光路39弄","lng":121.42126046671031,"lat":31.079169084703256,"确诊日期36":"l"},{"SH_ID_36":"10frqsf","区36":"c","地址":"沪闵路3131弄","lng":121.40988924135095,"lat":31.05528615747312,"确诊日期36":"l"},{"SH_ID_36":"10frqsg","区36":"c","地址":"沪闵路5366弄","lng":121.38537666251811,"lat":31.096578577561047,"确诊日期36":"l"},{"SH_ID_36":"10frqsh","区36":"c","地址":"沪青平公路158弄","lng":121.35210705285624,"lat":31.18182082535495,"确诊日期36":"l"},{"SH_ID_36":"10frqsi","区36":"c","地址":"华宁路1399弄","lng":121.3903077552037,"lat":31.023768766061686,"确诊日期36":"l"},{"SH_ID_36":"10frqsj","区36":"c","地址":"华宁路191弄","lng":121.39779283958953,"lat":31.010710606633282,"确诊日期36":"l"},{"SH_ID_36":"10frqsk","区36":"c","地址":"华展路168弄","lng":121.44912393000887,"lat":31.111981365771694,"确诊日期36":"l"},{"SH_ID_36":"10frqsl","区36":"c","地址":"建设路39弄","lng":121.42402245299341,"lat":30.99838570558969,"确诊日期36":"l"},{"SH_ID_36":"10frqsm","区36":"c","地址":"剑川路150弄","lng":121.46517029434571,"lat":31.043560384115157,"确诊日期36":"l"},{"SH_ID_36":"10frqso","区36":"c","地址":"江川东路863弄","lng":121.42560870451798,"lat":31.004916771449892,"确诊日期36":"l"},{"SH_ID_36":"10frqsp","区36":"c","地址":"江川路248弄","lng":121.41989866036029,"lat":31.00828680804578,"确诊日期36":"l"},{"SH_ID_36":"10frqsq","区36":"c","地址":"江川路680弄","lng":121.40156978802193,"lat":31.00184287310711,"确诊日期36":"l"},{"SH_ID_36":"10frqsn","区36":"c","地址":"江川路街道剑川路综合服务中心工地宿舍","lng":121.35316114321526,"lat":31.006874994009003,"确诊日期36":"l"},{"SH_ID_36":"10frqsr","区36":"c","地址":"江文路330弄","lng":121.54346487293778,"lat":31.06478863907615,"确诊日期36":"l"},{"SH_ID_36":"10frqss","区36":"c","地址":"金都路978弄","lng":121.4337258746212,"lat":31.09290388714628,"确诊日期36":"l"},{"SH_ID_36":"10frqst","区36":"c","地址":"金汇路460弄","lng":121.37590100687058,"lat":31.177916995124455,"确诊日期36":"l"},{"SH_ID_36":"10frqsu","区36":"c","地址":"金平路328弄","lng":121.4079525651359,"lat":31.01298332804228,"确诊日期36":"l"},{"SH_ID_36":"10frqsv","区36":"c","地址":"金平路558弄","lng":121.40672107651808,"lat":31.016811626513096,"确诊日期36":"l"},{"SH_ID_36":"10frqsw","区36":"c","地址":"金平路777弄","lng":121.40964941724046,"lat":31.021775432632765,"确诊日期36":"l"},{"SH_ID_36":"10frqsx","区36":"c","地址":"金阳路116弄","lng":121.42353086676566,"lat":31.039528806313733,"确诊日期36":"l"},{"SH_ID_36":"10frqsy","区36":"c","地址":"景谷路176弄","lng":121.39975369867507,"lat":31.013198472174363,"确诊日期36":"l"},{"SH_ID_36":"10frqsz","区36":"c","地址":"景谷路64弄","lng":121.40144316839883,"lat":31.015388431705972,"确诊日期36":"l"},{"SH_ID_36":"10frqt0","区36":"c","地址":"景谷中路58弄","lng":121.41720807900114,"lat":31.022490444474972,"确诊日期36":"l"},{"SH_ID_36":"10frqt1","区36":"c","地址":"老沪闵路1351弄","lng":121.43374194254851,"lat":31.112920554771808,"确诊日期36":"l"},{"SH_ID_36":"10frqt2","区36":"c","地址":"老沪闵路1498弄","lng":121.43431925333053,"lat":31.11026989136829,"确诊日期36":"l"},{"SH_ID_36":"10frqt3","区36":"c","地址":"黎安二村","lng":121.3730734339388,"lat":31.128142571822146,"确诊日期36":"l"},{"SH_ID_36":"10frqt4","区36":"c","地址":"莲花路310弄","lng":121.40216693903,"lat":31.13787224092663,"确诊日期36":"l"},{"SH_ID_36":"10frqt5","区36":"c","地址":"莲花南路431弄","lng":121.40795380927342,"lat":31.12313899100178,"确诊日期36":"l"},{"SH_ID_36":"10frqt6","区36":"c","地址":"联航路2015弄","lng":121.50540433215319,"lat":31.07267707836158,"确诊日期36":"l"},{"SH_ID_36":"10frqt7","区36":"c","地址":"联青路699弄","lng":121.37987466437556,"lat":31.038341054881975,"确诊日期36":"l"},{"SH_ID_36":"10frqt9","区36":"c","地址":"龙柏二村","lng":121.36214023676261,"lat":31.181741047936004,"确诊日期36":"l"},{"SH_ID_36":"10frqtb","区36":"c","地址":"龙柏七村","lng":121.36260368800603,"lat":31.173968195304802,"确诊日期36":"l"},{"SH_ID_36":"10frqta","区36":"c","地址":"龙柏四村","lng":121.36347261985219,"lat":31.178667125782034,"确诊日期36":"l"},{"SH_ID_36":"10frqt8","区36":"c","地址":"龙柏一村","lng":121.36809557035706,"lat":31.18304830840984,"确诊日期36":"l"},{"SH_ID_36":"10frqtc","区36":"c","地址":"龙茗路1597弄","lng":121.38241644432387,"lat":31.151880650710908,"确诊日期36":"l"},{"SH_ID_36":"10frqtd","区36":"c","地址":"龙吴路3355号","lng":121.45528882824321,"lat":31.094256171570652,"确诊日期36":"l"},{"SH_ID_36":"10frqte","区36":"c","地址":"龙吴路3399号","lng":121.45648498810071,"lat":31.092371186540912,"确诊日期36":"l"},{"SH_ID_36":"10frqtf","区36":"c","地址":"龙吴路5511弄","lng":121.46649930609061,"lat":31.044504934552133,"确诊日期36":"l"},{"SH_ID_36":"10frqtg","区36":"c","地址":"龙吴路5530弄","lng":121.46599806726158,"lat":31.04367501519055,"确诊日期36":"l"},{"SH_ID_36":"10frqth","区36":"c","地址":"龙吴路5599弄","lng":121.46776069572472,"lat":31.039838637360106,"确诊日期36":"l"},{"SH_ID_36":"10frqti","区36":"c","地址":"芦胜村","lng":121.48056803668422,"lat":31.10781501501537,"确诊日期36":"l"},{"SH_ID_36":"10frqtj","区36":"c","地址":"罗锦路258弄","lng":121.41180830547513,"lat":31.12194792381734,"确诊日期36":"l"},{"SH_ID_36":"10frqtk","区36":"c","地址":"罗秀路1339弄","lng":121.41863643647433,"lat":31.128077097720265,"确诊日期36":"l"},{"SH_ID_36":"10frqtl","区36":"c","地址":"罗秀路1955弄","lng":121.40345467694121,"lat":31.127166177286842,"确诊日期36":"l"},{"SH_ID_36":"10frqtm","区36":"c","地址":"罗阳三村","lng":121.40813298694839,"lat":31.12294566057348,"确诊日期36":"l"},{"SH_ID_36":"10frqto","区36":"c","地址":"梅陇二村","lng":121.41170920496658,"lat":31.1310793512503,"确诊日期36":"l"},{"SH_ID_36":"10frqtn","区36":"c","地址":"梅陇一村","lng":121.41243724663684,"lat":31.136477737134097,"确诊日期36":"l"},{"SH_ID_36":"10frqtp","区36":"c","地址":"民建村","lng":121.45543748228934,"lat":31.095614895937292,"确诊日期36":"l"},{"SH_ID_36":"10frqtq","区36":"c","地址":"宁虹路1101弄","lng":121.30989170114519,"lat":31.206813212543658,"确诊日期36":"l"},{"SH_ID_36":"10frqtr","区36":"c","地址":"平南三村","lng":121.39072565617421,"lat":31.15197670955972,"确诊日期36":"l"},{"SH_ID_36":"10frqts","区36":"c","地址":"平阳路1375弄","lng":121.38710729696227,"lat":31.134087686452567,"确诊日期36":"l"},{"SH_ID_36":"10frqtt","区36":"c","地址":"平阳路50弄","lng":121.40817659667428,"lat":31.144111864911146,"确诊日期36":"l"},{"SH_ID_36":"10frqtu","区36":"c","地址":"浦驰路188弄","lng":121.50328192136533,"lat":31.074066719739598,"确诊日期36":"l"},{"SH_ID_36":"10frqtv","区36":"c","地址":"浦申路200弄","lng":121.5069814520613,"lat":31.076017266006506,"确诊日期36":"l"},{"SH_ID_36":"10frqtw","区36":"c","地址":"浦涛路100弄","lng":121.54228230920745,"lat":31.051833335233148,"确诊日期36":"l"},{"SH_ID_36":"10frqtx","区36":"c","地址":"普杰路69弄","lng":121.42157801672299,"lat":31.115880074801268,"确诊日期36":"l"},{"SH_ID_36":"10frqty","区36":"c","地址":"普乐路425弄","lng":121.42357051952395,"lat":31.114600128718717,"确诊日期36":"l"},{"SH_ID_36":"10frqtz","区36":"c","地址":"七莘路1318号","lng":121.3675054455875,"lat":31.12868411569247,"确诊日期36":"l"},{"SH_ID_36":"10frqu0","区36":"c","地址":"七莘路2299弄","lng":121.35768813818433,"lat":31.142687101468837,"确诊日期36":"l"},{"SH_ID_36":"10frqu1","区36":"c","地址":"勤俭村","lng":121.48710964332568,"lat":31.076670501796652,"确诊日期36":"l"},{"SH_ID_36":"10frqu2","区36":"c","地址":"沁春园二村","lng":121.37631877466804,"lat":31.094809628059814,"确诊日期36":"l"},{"SH_ID_36":"10frqu3","区36":"c","地址":"曲吴路175弄","lng":121.4599558950741,"lat":31.054086115761873,"确诊日期36":"l"},{"SH_ID_36":"10frqu4","区36":"c","地址":"瑞丽路918弄","lng":121.40344672942993,"lat":31.018657616452437,"确诊日期36":"l"},{"SH_ID_36":"10frqu5","区36":"c","地址":"上中西路1011弄","lng":121.41116634652995,"lat":31.129006638282966,"确诊日期36":"l"},{"SH_ID_36":"10frqu6","区36":"c","地址":"上中西路735弄","lng":121.41820104662514,"lat":31.130978782089695,"确诊日期36":"l"},{"SH_ID_36":"10frqu7","区36":"c","地址":"尚义路229弄","lng":121.45055188075146,"lat":31.042022177619486,"确诊日期36":"l"},{"SH_ID_36":"10frqu8","区36":"c","地址":"尚义路428弄","lng":121.45184789087553,"lat":31.045615860029553,"确诊日期36":"l"},{"SH_ID_36":"10frqu9","区36":"c","地址":"疏影路1188弄","lng":121.35982004357363,"lat":31.118152277109033,"确诊日期36":"l"},{"SH_ID_36":"10frqua","区36":"c","地址":"水清路1000弄","lng":121.37853942351411,"lat":31.125794132884614,"确诊日期36":"l"},{"SH_ID_36":"10frqub","区36":"c","地址":"水清路999弄","lng":121.37527439759492,"lat":31.126782222476717,"确诊日期36":"l"},{"SH_ID_36":"10frquc","区36":"c","地址":"塘口村","lng":121.48045316949077,"lat":31.0883759953103,"确诊日期36":"l"},{"SH_ID_36":"10frqud","区36":"c","地址":"塘湾村","lng":121.44254436938351,"lat":31.05521219983224,"确诊日期36":"l"},{"SH_ID_36":"10frque","区36":"c","地址":"天星路251弄","lng":121.3712082611767,"lat":30.999930873484217,"确诊日期36":"l"},{"SH_ID_36":"10frquf","区36":"c","地址":"同乐路158号","lng":121.41947640396918,"lat":31.125003671878726,"确诊日期36":"l"},{"SH_ID_36":"10frqug","区36":"c","地址":"王泥浜村","lng":121.31334125473104,"lat":31.22554883073737,"确诊日期36":"l"},{"SH_ID_36":"10frquh","区36":"c","地址":"吴河路328号","lng":121.43132347209514,"lat":31.043000115161014,"确诊日期36":"l"},{"SH_ID_36":"10frqui","区36":"c","地址":"西新路58弄","lng":121.36883832910786,"lat":31.0280514973708,"确诊日期36":"l"},{"SH_ID_36":"10frquj","区36":"c","地址":"新建村","lng":121.44428397344387,"lat":31.064191358153565,"确诊日期36":"l"},{"SH_ID_36":"10frquk","区36":"c","地址":"新镇路1060弄","lng":121.36056490201885,"lat":31.15539753105028,"确诊日期36":"l"},{"SH_ID_36":"10frqul","区36":"c","地址":"新镇路603弄","lng":121.36470785472325,"lat":31.145458097282386,"确诊日期36":"l"},{"SH_ID_36":"10frqum","区36":"c","地址":"鑫都路2535弄","lng":121.39750204419832,"lat":31.05246221658153,"确诊日期36":"l"},{"SH_ID_36":"10frqrw","区36":"c","地址":"行南村","lng":121.42775698758166,"lat":31.11608413306681,"确诊日期36":"l"},{"SH_ID_36":"10frqun","区36":"c","地址":"许泾村","lng":121.43762347611275,"lat":31.080005444801987,"确诊日期36":"l"},{"SH_ID_36":"10frquo","区36":"c","地址":"许浦村","lng":121.3372220358186,"lat":31.22451413319526,"确诊日期36":"l"},{"SH_ID_36":"10frqup","区36":"c","地址":"盐铁塘路176弄","lng":121.511207190212,"lat":31.0358600514069,"确诊日期36":"l"},{"SH_ID_36":"10frquq","区36":"c","地址":"盐铁塘路272弄","lng":121.50877875832066,"lat":31.036117601265943,"确诊日期36":"l"},{"SH_ID_36":"10frqur","区36":"c","地址":"盐铁塘路435弄","lng":121.50616938296288,"lat":31.034620722547814,"确诊日期36":"l"},{"SH_ID_36":"10frqus","区36":"c","地址":"杨家巷村","lng":121.30193270523708,"lat":31.223987683101775,"确诊日期36":"l"},{"SH_ID_36":"10frqut","区36":"c","地址":"银春路1799弄","lng":121.39392381382943,"lat":31.02474901534863,"确诊日期36":"l"},{"SH_ID_36":"10frquu","区36":"c","地址":"银春路1800弄","lng":121.39474968282435,"lat":31.027655956787115,"确诊日期36":"l"},{"SH_ID_36":"10frquv","区36":"c","地址":"银春路2200弄","lng":121.38692778501232,"lat":31.025594715158665,"确诊日期36":"l"},{"SH_ID_36":"10frquw","区36":"c","地址":"银春路2221弄","lng":121.38581641132379,"lat":31.02426253593665,"确诊日期36":"l"},{"SH_ID_36":"10frqux","区36":"c","地址":"银都路2688弄","lng":121.40691456913703,"lat":31.09810502565284,"确诊日期36":"l"},{"SH_ID_36":"10frquy","区36":"c","地址":"银都路3151弄","lng":121.39954833406341,"lat":31.092003983813076,"确诊日期36":"l"},{"SH_ID_36":"10frquz","区36":"c","地址":"银林路100弄","lng":121.38861490425353,"lat":31.02092968333591,"确诊日期36":"l"},{"SH_ID_36":"10frqv0","区36":"c","地址":"永德路228弄","lng":121.46180880048045,"lat":31.04374042209853,"确诊日期36":"l"},{"SH_ID_36":"10frqv1","区36":"c","地址":"元江路4260弄","lng":121.38312168897917,"lat":31.044529038828063,"确诊日期36":"l"},{"SH_ID_36":"10frqv2","区36":"c","地址":"中春路255号","lng":121.39989481968264,"lat":31.02572139031226,"确诊日期36":"l"},{"SH_ID_36":"10frqv3","区36":"c","地址":"中心村","lng":121.40651295956495,"lat":31.035079256963584,"确诊日期36":"l"},{"SH_ID_36":"10frqv4","区36":"c","地址":"颛溪八村","lng":121.39417727756417,"lat":31.0650356526168,"确诊日期36":"l"},{"SH_ID_36":"10frqv5","区36":"c","地址":"颛兴路639弄","lng":121.39205239329057,"lat":31.06324849718277,"确诊日期36":"l"},{"SH_ID_36":"10frqv6","区36":"c","地址":"颛兴路666弄","lng":121.38892847033938,"lat":31.0650390472573,"确诊日期36":"l"},{"SH_ID_36":"10frqv7","区36":"c","地址":"紫光路801弄","lng":121.44809381676245,"lat":31.01165194222268,"确诊日期36":"l"},{"SH_ID_36":"10frqcz","区36":"f","地址":"爱民路23号","lng":121.77836713575248,"lat":31.025227544555648,"确诊日期36":"l"},{"SH_ID_36":"10frq3j","区36":"f","地址":"百花新村","lng":121.58559066394902,"lat":31.110892991843617,"确诊日期36":"l"},{"SH_ID_36":"10frq2q","区36":"f","地址":"板泉路1201弄","lng":121.5053151062343,"lat":31.16256157166224,"确诊日期36":"l"},{"SH_ID_36":"10frq7f","区36":"f","地址":"板泉路2000弄","lng":121.53122906796662,"lat":31.16558387491071,"确诊日期36":"l"},{"SH_ID_36":"10frq1c","区36":"f","地址":"板泉路2101弄","lng":121.53201814723964,"lat":31.168039981763165,"确诊日期36":"l"},{"SH_ID_36":"10frqen","区36":"f","地址":"板泉路25号","lng":121.5089529671342,"lat":31.1638893178802,"确诊日期36":"l"},{"SH_ID_36":"10frqbb","区36":"f","地址":"北艾路1660弄","lng":121.52344680535985,"lat":31.18122151508686,"确诊日期36":"l"},{"SH_ID_36":"10frqcf","区36":"f","地址":"北艾路1765弄","lng":121.52338243718039,"lat":31.178129842402658,"确诊日期36":"l"},{"SH_ID_36":"10frqct","区36":"f","地址":"北蔡镇丁家队丁家宅","lng":121.60966804316566,"lat":31.180964375338192,"确诊日期36":"l"},{"SH_ID_36":"10frqgw","区36":"f","地址":"北中路187弄","lng":121.5558358072516,"lat":31.183858538543102,"确诊日期36":"l"},{"SH_ID_36":"10frqc0","区36":"f","地址":"北中路354弄","lng":121.55952762745406,"lat":31.18315442379925,"确诊日期36":"l"},{"SH_ID_36":"10frq5t","区36":"f","地址":"博华路237弄","lng":121.5462614820098,"lat":31.183577747049327,"确诊日期36":"l"},{"SH_ID_36":"10frq0k","区36":"f","地址":"博华路930弄","lng":121.55076479856358,"lat":31.174118495658583,"确诊日期36":"l"},{"SH_ID_36":"10frq2a","区36":"f","地址":"博华路999弄","lng":121.54993972495491,"lat":31.170274768944328,"确诊日期36":"l"},{"SH_ID_36":"10frq4e","区36":"f","地址":"博山东路173号","lng":121.56487160402395,"lat":31.251241179686325,"确诊日期36":"l"},{"SH_ID_36":"10frq4h","区36":"f","地址":"博山东路41弄","lng":121.55885320669536,"lat":31.247853181707733,"确诊日期36":"l"},{"SH_ID_36":"10frq97","区36":"f","地址":"博山路12弄","lng":121.55674788573452,"lat":31.24626965774715,"确诊日期36":"l"},{"SH_ID_36":"10frqgc","区36":"f","地址":"博兴路1119号","lng":121.5938538518427,"lat":31.266381790911954,"确诊日期36":"l"},{"SH_ID_36":"10frqgi","区36":"f","地址":"博兴路1663弄","lng":121.6008570159951,"lat":31.274067570082074,"确诊日期36":"l"},{"SH_ID_36":"10frqh3","区36":"f","地址":"博兴路465弄2支弄","lng":121.58524669030919,"lat":31.266117896016073,"确诊日期36":"l"},{"SH_ID_36":"10frqgz","区36":"f","地址":"博兴路799弄","lng":121.59047271921617,"lat":31.26610622898449,"确诊日期36":"l"},{"SH_ID_36":"10frqdq","区36":"f","地址":"草高支路870号","lng":121.56797509896309,"lat":31.350657975476174,"确诊日期36":"l"},{"SH_ID_36":"10frqeh","区36":"f","地址":"昌里东路395弄","lng":121.51147606239363,"lat":31.17900960274982,"确诊日期36":"l"},{"SH_ID_36":"10frqf9","区36":"f","地址":"昌里东路650弄","lng":121.51778345924515,"lat":31.178896937804627,"确诊日期36":"l"},{"SH_ID_36":"10frq6r","区36":"f","地址":"昌里东路738号","lng":121.517741506757,"lat":31.180722126583667,"确诊日期36":"l"},{"SH_ID_36":"10frq41","区36":"f","地址":"昌里东路80弄","lng":121.50605034613734,"lat":31.174435789191232,"确诊日期36":"l"},{"SH_ID_36":"10frq5m","区36":"f","地址":"陈春东路99弄","lng":121.5601834720267,"lat":31.175943442582238,"确诊日期36":"l"},{"SH_ID_36":"10frqdp","区36":"f","地址":"陈春路299号","lng":121.54967982538034,"lat":31.17189615356096,"确诊日期36":"l"},{"SH_ID_36":"10frq95","区36":"f","地址":"陈胡村","lng":121.76904316370577,"lat":31.19420657135472,"确诊日期36":"l"},{"SH_ID_36":"10frqfy","区36":"f","地址":"成山路1185号","lng":121.52226381397541,"lat":31.175270476432,"确诊日期36":"l"},{"SH_ID_36":"10frq2f","区36":"f","地址":"成山路210号","lng":121.49432820559572,"lat":31.170917567831196,"确诊日期36":"l"},{"SH_ID_36":"10frq6k","区36":"f","地址":"成山路2388弄","lng":121.54614378272734,"lat":31.179394666270532,"确诊日期36":"l"},{"SH_ID_36":"10frq23","区36":"f","地址":"成山路648弄","lng":121.510965575085,"lat":31.171068791699398,"确诊日期36":"l"},{"SH_ID_36":"10frq8k","区36":"f","地址":"城东路312号","lng":121.76330345277651,"lat":31.05090944148099,"确诊日期36":"l"},{"SH_ID_36":"10frqes","区36":"f","地址":"城丰路陆家宅","lng":121.67442844761973,"lat":31.18454548701724,"确诊日期36":"l"},{"SH_ID_36":"10frqd6","区36":"f","地址":"城南村","lng":121.69945233213804,"lat":31.187708868237703,"确诊日期36":"l"},{"SH_ID_36":"10frq8o","区36":"f","地址":"城南路1385弄","lng":121.78089178587739,"lat":31.042339436176935,"确诊日期36":"l"},{"SH_ID_36":"10frqgp","区36":"f","地址":"城南路168弄","lng":121.74983263319828,"lat":31.038932262113292,"确诊日期36":"l"},{"SH_ID_36":"10frqc5","区36":"f","地址":"城南路41弄","lng":121.74234954689314,"lat":31.040740262098605,"确诊日期36":"l"},{"SH_ID_36":"10frq86","区36":"f","地址":"城西路195弄","lng":121.69303465670758,"lat":31.194541284961037,"确诊日期36":"l"},{"SH_ID_36":"10frq89","区36":"f","地址":"城西路377弄","lng":121.74882619634234,"lat":31.05144701229753,"确诊日期36":"l"},{"SH_ID_36":"10frqe0","区36":"f","地址":"川周公路2955号","lng":121.61181436897249,"lat":31.140340043058103,"确诊日期36":"l"},{"SH_ID_36":"10frqc3","区36":"f","地址":"川周公路3083号","lng":121.60742375979792,"lat":31.138678479745547,"确诊日期36":"l"},{"SH_ID_36":"10frqh6","区36":"f","地址":"川周公路4005弄","lng":121.58752855743299,"lat":31.12602413079659,"确诊日期36":"l"},{"SH_ID_36":"10frq6g","区36":"f","地址":"创新西路75弄","lng":121.65569808016137,"lat":31.20275602608825,"确诊日期36":"l"},{"SH_ID_36":"10frqg3","区36":"f","地址":"创新中路380弄","lng":121.66591376676618,"lat":31.20773259015536,"确诊日期36":"l"},{"SH_ID_36":"10frq6f","区36":"f","地址":"创新中路593弄","lng":121.66884154814372,"lat":31.211493593046434,"确诊日期36":"l"},{"SH_ID_36":"10frqbw","区36":"f","地址":"春晖路368弄","lng":121.58263373143326,"lat":31.33942147574476,"确诊日期36":"l"},{"SH_ID_36":"10frqcj","区36":"f","地址":"大沟村东街","lng":121.7575492697771,"lat":31.174709894617404,"确诊日期36":"l"},{"SH_ID_36":"10frq2s","区36":"f","地址":"徳州路255弄","lng":121.4923601245733,"lat":31.169905168652303,"确诊日期36":"l"},{"SH_ID_36":"10frq47","区36":"f","地址":"德平路100弄","lng":121.5617022656019,"lat":31.24794612833261,"确诊日期36":"l"},{"SH_ID_36":"10frq18","区36":"f","地址":"德平路1066弄","lng":121.56730291460359,"lat":31.241852953417332,"确诊日期36":"l"},{"SH_ID_36":"10frq54","区36":"f","地址":"德平路1189弄","lng":121.57161743726219,"lat":31.24025033438708,"确诊日期36":"l"},{"SH_ID_36":"10frq4x","区36":"f","地址":"德平路58弄","lng":121.5585869186182,"lat":31.252101522912078,"确诊日期36":"l"},{"SH_ID_36":"10frq2u","区36":"f","地址":"德州路150弄","lng":121.49919159229037,"lat":31.167928112323246,"确诊日期36":"l"},{"SH_ID_36":"10frq2k","区36":"f","地址":"德州路220弄","lng":121.4956244911817,"lat":31.1684973232461,"确诊日期36":"l"},{"SH_ID_36":"10frq20","区36":"f","地址":"德州路223弄","lng":121.49521069631733,"lat":31.16840332201889,"确诊日期36":"l"},{"SH_ID_36":"10frq2b","区36":"f","地址":"德州路230弄","lng":121.4951146927529,"lat":31.168079743427548,"确诊日期36":"l"},{"SH_ID_36":"10frq25","区36":"f","地址":"德州路255弄","lng":121.49214517253334,"lat":31.168614293029506,"确诊日期36":"l"},{"SH_ID_36":"10frq22","区36":"f","地址":"德州路420弄","lng":121.48368493054105,"lat":31.165090231117656,"确诊日期36":"l"},{"SH_ID_36":"10frq84","区36":"f","地址":"叠桥村","lng":121.61620728758982,"lat":31.12794310886824,"确诊日期36":"l"},{"SH_ID_36":"10frqhg","区36":"f","地址":"东波路585弄","lng":121.58680439919948,"lat":31.285214733209468,"确诊日期36":"l"},{"SH_ID_36":"10frq3s","区36":"f","地址":"东方路1663弄","lng":121.52524663001758,"lat":31.206460483651266,"确诊日期36":"l"},{"SH_ID_36":"10frq64","区36":"f","地址":"东方路1881弄","lng":121.52198912011097,"lat":31.199052284377807,"确诊日期36":"l"},{"SH_ID_36":"10frq1j","区36":"f","地址":"东方路2851弄","lng":121.51935640018141,"lat":31.19557308757687,"确诊日期36":"l"},{"SH_ID_36":"10frq6b","区36":"f","地址":"东方路3344弄","lng":121.51355216456824,"lat":31.193478942069554,"确诊日期36":"l"},{"SH_ID_36":"10frqbs","区36":"f","地址":"东建路350号","lng":121.53397883138958,"lat":31.20044011973389,"确诊日期36":"l"},{"SH_ID_36":"10frqcg","区36":"f","地址":"东建新村","lng":121.53322807805452,"lat":31.201493024720644,"确诊日期36":"l"},{"SH_ID_36":"10frqeg","区36":"f","地址":"东靖路626弄","lng":121.58560370766061,"lat":31.29103216708021,"确诊日期36":"l"},{"SH_ID_36":"10frqbu","区36":"f","地址":"东陆路1018弄","lng":121.59281511952611,"lat":31.272974195745025,"确诊日期36":"l"},{"SH_ID_36":"10frq8x","区36":"f","地址":"东陆路1182弄","lng":121.59602878499854,"lat":31.270518629941712,"确诊日期36":"l"},{"SH_ID_36":"10frq43","区36":"f","地址":"东陆路1268弄","lng":121.59644821170079,"lat":31.268592423688347,"确诊日期36":"l"},{"SH_ID_36":"10frq8m","区36":"f","地址":"东三里桥路160弄","lng":121.51028176459384,"lat":31.199415477817265,"确诊日期36":"l"},{"SH_ID_36":"10frq60","区36":"f","地址":"东书房路390弄","lng":121.53501782302267,"lat":31.165215574375402,"确诊日期36":"l"},{"SH_ID_36":"10frq2j","区36":"f","地址":"东泰林路799弄","lng":121.54334895685415,"lat":31.143180678876185,"确诊日期36":"l"},{"SH_ID_36":"10frqc7","区36":"f","地址":"东绣路1389弄","lng":121.53221300194502,"lat":31.19939176291236,"确诊日期36":"l"},{"SH_ID_36":"10frq7z","区36":"f","地址":"渡桥路78弄","lng":121.54713175244663,"lat":31.11796555361584,"确诊日期36":"l"},{"SH_ID_36":"10frqh4","区36":"f","地址":"繁荣东路150弄","lng":121.58784596347137,"lat":31.105934915735435,"确诊日期36":"l"},{"SH_ID_36":"10frqf8","区36":"f","地址":"芳华路310弄","lng":121.55779625419645,"lat":31.19488431841787,"确诊日期36":"l"},{"SH_ID_36":"10frqh0","区36":"f","地址":"芳华路371弄","lng":121.5579792643906,"lat":31.196083776247622,"确诊日期36":"l"},{"SH_ID_36":"10frq7d","区36":"f","地址":"芳华路478弄","lng":121.56006911988267,"lat":31.19478941205584,"确诊日期36":"l"},{"SH_ID_36":"10frq83","区36":"f","地址":"芳华路630弄","lng":121.56391841017715,"lat":31.19629192141583,"确诊日期36":"l"},{"SH_ID_36":"10frqhk","区36":"f","地址":"芳华路660弄","lng":121.5642838776988,"lat":31.19524049043463,"确诊日期36":"l"},{"SH_ID_36":"10frq8f","区36":"f","地址":"芳华路713弄","lng":121.56337989029605,"lat":31.1972461770678,"确诊日期36":"l"},{"SH_ID_36":"10frqa8","区36":"f","地址":"芳芯路312弄","lng":121.55716710379632,"lat":31.19126988878572,"确诊日期36":"l"},{"SH_ID_36":"10frq88","区36":"f","地址":"扶栏村","lng":121.74991053490221,"lat":31.001588025868664,"确诊日期36":"l"},{"SH_ID_36":"10frq10","区36":"f","地址":"福山路102弄","lng":121.5267547874305,"lat":31.230939288136156,"确诊日期36":"l"},{"SH_ID_36":"10frqfs","区36":"f","地址":"福山路289号","lng":121.52878131704693,"lat":31.230511682054725,"确诊日期36":"l"},{"SH_ID_36":"10frq8s","区36":"f","地址":"福山路40弄","lng":121.52359543738024,"lat":31.236426387455534,"确诊日期36":"l"},{"SH_ID_36":"10frqcb","区36":"f","地址":"富航路105弄","lng":121.59714623219247,"lat":31.033211619172874,"确诊日期36":"l"},{"SH_ID_36":"10frq8n","区36":"f","地址":"港东街32弄","lng":121.64538649255152,"lat":31.028462652109237,"确诊日期36":"l"},{"SH_ID_36":"10frqds","区36":"f","地址":"港辉路236弄","lng":121.85685998847083,"lat":30.86426612087566,"确诊日期36":"l"},{"SH_ID_36":"10frqan","区36":"f","地址":"港辉路308弄","lng":121.85718986083195,"lat":30.867288058984172,"确诊日期36":"l"},{"SH_ID_36":"10frqbx","区36":"f","地址":"港机新村","lng":121.50798568309216,"lat":31.191292469575025,"确诊日期36":"l"},{"SH_ID_36":"10frqe8","区36":"f","地址":"港建路1699号","lng":121.66833675094988,"lat":31.313643054809162,"确诊日期36":"l"},{"SH_ID_36":"10frq61","区36":"f","地址":"高宝路300弄","lng":121.62196628468786,"lat":31.289774384193603,"确诊日期36":"l"},{"SH_ID_36":"10frq79","区36":"f","地址":"高科西路2111弄","lng":121.53583439341082,"lat":31.188290865321232,"确诊日期36":"l"},{"SH_ID_36":"10frq7a","区36":"f","地址":"高科西路2757弄","lng":121.5542910326643,"lat":31.18930961121268,"确诊日期36":"l"},{"SH_ID_36":"10frqdu","区36":"f","地址":"高科西路3000弄","lng":121.56185890043344,"lat":31.18932579076349,"确诊日期36":"l"},{"SH_ID_36":"10frqhc","区36":"f","地址":"高科西路3030弄","lng":121.56302032961676,"lat":31.189420403219287,"确诊日期36":"l"},{"SH_ID_36":"10frqe5","区36":"f","地址":"高科西路3060弄","lng":121.56441220853264,"lat":31.18948409776417,"确诊日期36":"l"},{"SH_ID_36":"10frq66","区36":"f","地址":"高青路2861弄","lng":121.52864775325016,"lat":31.161419366659846,"确诊日期36":"l"},{"SH_ID_36":"10frqfc","区36":"f","地址":"高青路2878弄","lng":121.52909952766241,"lat":31.160613070049074,"确诊日期36":"l"},{"SH_ID_36":"10frq5d","区36":"f","地址":"高青路4567弄","lng":121.56191788987887,"lat":31.171133091364823,"确诊日期36":"l"},{"SH_ID_36":"10frq5b","区36":"f","地址":"公元新村","lng":121.57649920129705,"lat":31.121518697333393,"确诊日期36":"l"},{"SH_ID_36":"10frqe2","区36":"f","地址":"拱晨路255弄","lng":121.74034277773646,"lat":31.06574217990617,"确诊日期36":"l"},{"SH_ID_36":"10frqgn","区36":"f","地址":"古桐六村","lng":121.61106508243958,"lat":31.201191168305208,"确诊日期36":"l"},{"SH_ID_36":"10frq94","区36":"f","地址":"古棕路168弄","lng":121.91737308682711,"lat":30.88383519417162,"确诊日期36":"l"},{"SH_ID_36":"10frqgg","区36":"f","地址":"顾东村","lng":121.66141002497343,"lat":31.293260495734565,"确诊日期36":"l"},{"SH_ID_36":"10frq93","区36":"f","地址":"顾唐路3281弄","lng":121.67094597220206,"lat":31.205675446218216,"确诊日期36":"l"},{"SH_ID_36":"10frqgm","区36":"f","地址":"崮山路157号","lng":121.55250331135014,"lat":31.2469497010048,"确诊日期36":"l"},{"SH_ID_36":"10frq4s","区36":"f","地址":"崮山路251弄","lng":121.55379061998667,"lat":31.245793211146513,"确诊日期36":"l"},{"SH_ID_36":"10frqd8","区36":"f","地址":"崮山路311号","lng":121.55466655684586,"lat":31.246211422195355,"确诊日期36":"l"},{"SH_ID_36":"10frq13","区36":"f","地址":"崮山路322弄","lng":121.55484087520858,"lat":31.244494482586184,"确诊日期36":"l"},{"SH_ID_36":"10frq68","区36":"f","地址":"光明村","lng":121.65863375565831,"lat":31.29076626819305,"确诊日期36":"l"},{"SH_ID_36":"10frqe4","区36":"f","地址":"光泽路429弄","lng":121.61828535179694,"lat":31.330356626464155,"确诊日期36":"l"},{"SH_ID_36":"10frq3u","区36":"f","地址":"广益路9弄","lng":121.51755150677157,"lat":31.241865249636625,"确诊日期36":"l"},{"SH_ID_36":"10frq0v","区36":"f","地址":"国展路1756号工地生活区","lng":121.52782277054892,"lat":31.18002731610833,"确诊日期36":"l"},{"SH_ID_36":"10frqf2","区36":"f","地址":"海科路777号","lng":121.60373808484219,"lat":31.181433664054154,"确诊日期36":"l"},{"SH_ID_36":"10frqb9","区36":"f","地址":"海桥村","lng":121.61054376121496,"lat":31.01037870717996,"确诊日期36":"l"},{"SH_ID_36":"10frq9c","区36":"f","地址":"海尚乐苑","lng":121.60327211784472,"lat":31.11627773794481,"确诊日期36":"l"},{"SH_ID_36":"10frqch","区36":"f","地址":"海松路421弄","lng":121.68088825967828,"lat":31.279007538224402,"确诊日期36":"l"},{"SH_ID_36":"10frq19","区36":"f","地址":"海阳路1001弄","lng":121.50463648558818,"lat":31.1586394482979,"确诊日期36":"l"},{"SH_ID_36":"10frq6h","区36":"f","地址":"海阳路1065弄","lng":121.50538899212118,"lat":31.15919767675567,"确诊日期36":"l"},{"SH_ID_36":"10frqaj","区36":"f","地址":"海阳路1080弄","lng":121.50668643054419,"lat":31.157308337750443,"确诊日期36":"l"},{"SH_ID_36":"10frq7e","区36":"f","地址":"海阳路1125弄","lng":121.50724875339212,"lat":31.158823489914273,"确诊日期36":"l"},{"SH_ID_36":"10frq2g","区36":"f","地址":"海阳路860弄","lng":121.50206432792201,"lat":31.157018394430274,"确诊日期36":"l"},{"SH_ID_36":"10frqas","区36":"f","地址":"海阳路905弄","lng":121.50356918501576,"lat":31.158860567323533,"确诊日期36":"l"},{"SH_ID_36":"10frq85","区36":"f","地址":"韩钱路立达宅","lng":121.59609851375947,"lat":31.155091604060082,"确诊日期36":"l"},{"SH_ID_36":"10frqca","区36":"f","地址":"航鹤路78弄","lng":121.58854539462088,"lat":31.025085011629717,"确诊日期36":"l"},{"SH_ID_36":"10frqb3","区36":"f","地址":"航梅路525弄","lng":121.57406603001691,"lat":31.024269626783614,"确诊日期36":"l"},{"SH_ID_36":"10frq0p","区36":"f","地址":"航瑞路175弄","lng":121.5924519840252,"lat":31.071165800405097,"确诊日期36":"l"},{"SH_ID_36":"10frqg5","区36":"f","地址":"航瑞路389弄","lng":121.59125988692664,"lat":31.07434708991579,"确诊日期36":"l"},{"SH_ID_36":"10frq1k","区36":"f","地址":"航亭环路399弄","lng":121.76167971117358,"lat":31.099720366987157,"确诊日期36":"l"},{"SH_ID_36":"10frqfi","区36":"f","地址":"航头镇果园村","lng":121.63603676599551,"lat":31.019854283011203,"确诊日期36":"l"},{"SH_ID_36":"10frqfk","区36":"f","地址":"航绣路50弄","lng":121.59655934762746,"lat":31.071003610888894,"确诊日期36":"l"},{"SH_ID_36":"10frq90","区36":"f","地址":"和龙路371弄","lng":121.56996666825474,"lat":31.34458406142988,"确诊日期36":"l"},{"SH_ID_36":"10frqbe","区36":"f","地址":"荷泽路287弄","lng":121.5927744331802,"lat":31.269266593720754,"确诊日期36":"l"},{"SH_ID_36":"10frq8z","区36":"f","地址":"菏泽路88号","lng":121.59035150062635,"lat":31.27192972736608,"确诊日期36":"l"},{"SH_ID_36":"10frq3b","区36":"f","地址":"鹤驰路88弄","lng":121.59463713264337,"lat":31.080361457885925,"确诊日期36":"l"},{"SH_ID_36":"10frq0n","区36":"f","地址":"鹤驰路99弄","lng":121.59499241184714,"lat":31.079183902265346,"确诊日期36":"l"},{"SH_ID_36":"10frqc1","区36":"f","地址":"鹤鸣村","lng":121.58837210267212,"lat":31.04563562179779,"确诊日期36":"l"},{"SH_ID_36":"10frqfl","区36":"f","地址":"鹤永路259弄","lng":121.60403937186281,"lat":31.081102744018605,"确诊日期36":"l"},{"SH_ID_36":"10frqdw","区36":"f","地址":"鹤韵路549弄","lng":121.59587974296316,"lat":31.07540318265756,"确诊日期36":"l"},{"SH_ID_36":"10frq9l","区36":"f","地址":"红枫路358弄","lng":121.59260427758014,"lat":31.24156084040801,"确诊日期36":"l"},{"SH_ID_36":"10frq2r","区36":"f","地址":"红旗村东乔队毛家塘","lng":121.50299860251681,"lat":31.129025168771207,"确诊日期36":"l"},{"SH_ID_36":"10frq8d","区36":"f","地址":"虹一村","lng":121.76623497475858,"lat":31.089267429864496,"确诊日期36":"l"},{"SH_ID_36":"10frqcc","区36":"f","地址":"洪山路301弄","lng":121.5030657345429,"lat":31.1704701927448,"确诊日期36":"l"},{"SH_ID_36":"10frq53","区36":"f","地址":"沪南公路3150弄","lng":121.56530344090315,"lat":31.122143405252704,"确诊日期36":"l"},{"SH_ID_36":"10frq0w","区36":"f","地址":"沪南路2000号","lng":121.56080362732244,"lat":31.16461302822188,"确诊日期36":"l"},{"SH_ID_36":"10frqf5","区36":"f","地址":"沪南路2518弄","lng":121.56495939542368,"lat":31.150441108916954,"确诊日期36":"l"},{"SH_ID_36":"10frq4l","区36":"f","地址":"沪南路2688弄","lng":121.56350106172823,"lat":31.137868862560463,"确诊日期36":"l"},{"SH_ID_36":"10frqb4","区36":"f","地址":"沪南路3150弄","lng":121.5654753158607,"lat":31.12238684973332,"确诊日期36":"l"},{"SH_ID_36":"10frq7x","区36":"f","地址":"沪南路3468弄","lng":121.56723915341406,"lat":31.14023908859492,"确诊日期36":"l"},{"SH_ID_36":"10frq26","区36":"f","地址":"沪南路4851弄","lng":121.58892583961173,"lat":31.069953754276256,"确诊日期36":"l"},{"SH_ID_36":"10frq7u","区36":"f","地址":"花墙村","lng":121.54929380289391,"lat":31.14834502974513,"确诊日期36":"l"},{"SH_ID_36":"10frq96","区36":"f","地址":"花山路609弄","lng":121.57528366676321,"lat":31.347917033418092,"确诊日期36":"l"},{"SH_ID_36":"10frq7k","区36":"f","地址":"华春路100弄","lng":121.52738758889629,"lat":31.17906615184915,"确诊日期36":"l"},{"SH_ID_36":"10frq9d","区36":"f","地址":"华丰路51弄","lng":121.50841241400552,"lat":31.192459747549634,"确诊日期36":"l"},{"SH_ID_36":"10frqb5","区36":"f","地址":"华夏东路1260弄","lng":121.67325790061723,"lat":31.196285438609454,"确诊日期36":"l"},{"SH_ID_36":"10frqet","区36":"f","地址":"华夏东路2139弄","lng":121.69159831663478,"lat":31.200870677415406,"确诊日期36":"l"},{"SH_ID_36":"10frqgy","区36":"f","地址":"华夏东路858弄","lng":121.66537302130924,"lat":31.194765542960077,"确诊日期36":"l"},{"SH_ID_36":"10frq39","区36":"f","地址":"华夏二路1255弄","lng":121.69110678947122,"lat":31.17590336676574,"确诊日期36":"l"},{"SH_ID_36":"10frqe9","区36":"f","地址":"华夏二路1278弄","lng":121.68966921361618,"lat":31.17502582470242,"确诊日期36":"l"},{"SH_ID_36":"10frq3c","区36":"f","地址":"华夏二路350弄","lng":121.68336129885928,"lat":31.1918208889317,"确诊日期36":"l"},{"SH_ID_36":"10frq5r","区36":"f","地址":"华夏西路5758号","lng":121.58164815962388,"lat":31.164827142885397,"确诊日期36":"l"},{"SH_ID_36":"10frqcm","区36":"f","地址":"华夏西路5778号","lng":121.5806625213719,"lat":31.166050831386524,"确诊日期36":"l"},{"SH_ID_36":"10frqeb","区36":"f","地址":"华星村颜家宅","lng":121.78977975307326,"lat":30.996282541804014,"确诊日期36":"l"},{"SH_ID_36":"10frq3n","区36":"f","地址":"环龙路181弄","lng":121.52875209423004,"lat":31.202533640596528,"确诊日期36":"l"},{"SH_ID_36":"10frqad","区36":"f","地址":"环桥路1136弄","lng":121.60496829359126,"lat":31.13635165278806,"确诊日期36":"l"},{"SH_ID_36":"10frq3g","区36":"f","地址":"环桥路1137弄","lng":121.60214217097845,"lat":31.13590088926693,"确诊日期36":"l"},{"SH_ID_36":"10frq35","区36":"f","地址":"环庆南路239弄","lng":121.7249053570928,"lat":31.22888830003211,"确诊日期36":"l"},{"SH_ID_36":"10frqa2","区36":"f","地址":"黄楼村张家宅","lng":121.67550837307584,"lat":31.162348240198416,"确诊日期36":"l"},{"SH_ID_36":"10frq3x","区36":"f","地址":"黄路村","lng":121.76418911995773,"lat":31.030245314880588,"确诊日期36":"l"},{"SH_ID_36":"10frq77","区36":"f","地址":"会龙村","lng":121.71336838389068,"lat":31.094829578694792,"确诊日期36":"l"},{"SH_ID_36":"10frq3a","区36":"f","地址":"惠东村","lng":121.77664893534981,"lat":31.0402812249294,"确诊日期36":"l"},{"SH_ID_36":"10frqco","区36":"f","地址":"机口村","lng":121.66138553566891,"lat":31.214837222968857,"确诊日期36":"l"},{"SH_ID_36":"10frqg7","区36":"f","地址":"佳林路838弄","lng":121.61031059989183,"lat":31.26541869370489,"确诊日期36":"l"},{"SH_ID_36":"10frq81","区36":"f","地址":"江高路118弄","lng":121.47879902574122,"lat":31.148567539393856,"确诊日期36":"l"},{"SH_ID_36":"10frq0z","区36":"f","地址":"江明路36弄","lng":121.74749432390085,"lat":31.179163565698154,"确诊日期36":"l"},{"SH_ID_36":"10frqgo","区36":"f","地址":"金地城","lng":121.76719877446946,"lat":31.05804714223735,"确诊日期36":"l"},{"SH_ID_36":"10frq9j","区36":"f","地址":"金高路58弄","lng":121.60567177485613,"lat":31.297101102470556,"确诊日期36":"l"},{"SH_ID_36":"10frq8e","区36":"f","地址":"金高路988弄","lng":121.6083488053232,"lat":31.28598792349405,"确诊日期36":"l"},{"SH_ID_36":"10frq0s","区36":"f","地址":"金光村","lng":121.5094323838197,"lat":31.13911845937076,"确诊日期36":"l"},{"SH_ID_36":"10frq1e","区36":"f","地址":"金沪路1218弄","lng":121.60201133944643,"lat":31.24073343958913,"确诊日期36":"l"},{"SH_ID_36":"10frq9m","区36":"f","地址":"金沪路97号","lng":121.61086215420995,"lat":31.257377869901834,"确诊日期36":"l"},{"SH_ID_36":"10frq49","区36":"f","地址":"金口路155弄","lng":121.5782596592297,"lat":31.24889222200496,"确诊日期36":"l"},{"SH_ID_36":"10frq48","区36":"f","地址":"金口路471弄","lng":121.58209399368275,"lat":31.246222573108607,"确诊日期36":"l"},{"SH_ID_36":"10frq4f","区36":"f","地址":"金桥路1498弄","lng":121.5892784762482,"lat":31.250693925988525,"确诊日期36":"l"},{"SH_ID_36":"10frq3l","区36":"f","地址":"金桥路59号","lng":121.57083773275498,"lat":31.268752207181127,"确诊日期36":"l"},{"SH_ID_36":"10frqf6","区36":"f","地址":"金桥路835弄","lng":121.57854991153658,"lat":31.259265141606825,"确诊日期36":"l"},{"SH_ID_36":"10frq4a","区36":"f","地址":"金台路115弄","lng":121.58351001484756,"lat":31.250203273701466,"确诊日期36":"l"},{"SH_ID_36":"10frq1r","区36":"f","地址":"金杨路1155弄","lng":121.58917082611715,"lat":31.25797227051453,"确诊日期36":"l"},{"SH_ID_36":"10frq1p","区36":"f","地址":"金杨路308弄","lng":121.5775967830144,"lat":31.24573689398687,"确诊日期36":"l"},{"SH_ID_36":"10frqav","区36":"f","地址":"金杨路685弄","lng":121.58170372810186,"lat":31.25361388661151,"确诊日期36":"l"},{"SH_ID_36":"10frq4b","区36":"f","地址":"金杨路758弄","lng":121.58380885377228,"lat":31.252761668683547,"确诊日期36":"l"},{"SH_ID_36":"10frqa7","区36":"f","地址":"金杨路785弄","lng":121.58285693989839,"lat":31.25403098231132,"确诊日期36":"l"},{"SH_ID_36":"10frq1n","区36":"f","地址":"金豫路100号","lng":121.61457997801848,"lat":31.25543662870895,"确诊日期36":"l"},{"SH_ID_36":"10frqb7","区36":"f","地址":"锦安东路280弄","lng":121.54277744307855,"lat":31.20072130906423,"确诊日期36":"l"},{"SH_ID_36":"10frqb1","区36":"f","地址":"锦绣路3841弄","lng":121.54675945453435,"lat":31.167610571995084,"确诊日期36":"l"},{"SH_ID_36":"10frq8g","区36":"f","地址":"锦绣路666弄","lng":121.55685361715761,"lat":31.22243128847307,"确诊日期36":"l"},{"SH_ID_36":"10frq5j","区36":"f","地址":"京浦路160弄","lng":121.56812965907986,"lat":31.15328316689235,"确诊日期36":"l"},{"SH_ID_36":"10frq5o","区36":"f","地址":"京浦路82弄","lng":121.56543426601819,"lat":31.15271617290962,"确诊日期36":"l"},{"SH_ID_36":"10frq4k","区36":"f","地址":"居家桥路520弄","lng":121.56389237177659,"lat":31.25457251739008,"确诊日期36":"l"},{"SH_ID_36":"10frqg8","区36":"f","地址":"巨峰路176弄","lng":121.59700205073798,"lat":31.279233375256194,"确诊日期36":"l"},{"SH_ID_36":"10frqgh","区36":"f","地址":"巨峰路667弄","lng":121.60098209540979,"lat":31.282129086227133,"确诊日期36":"l"},{"SH_ID_36":"10frq12","区36":"f","地址":"巨野路109弄","lng":121.545123157498,"lat":31.24234364778751,"确诊日期36":"l"},{"SH_ID_36":"10frq4p","区36":"f","地址":"巨野路455弄","lng":121.54699700466897,"lat":31.237444753892476,"确诊日期36":"l"},{"SH_ID_36":"10frq9w","区36":"f","地址":"巨野路大陆家宅","lng":121.54276401011387,"lat":31.243962514231082,"确诊日期36":"l"},{"SH_ID_36":"10frqbq","区36":"f","地址":"康安路御北路交界口工地生活区","lng":121.56711979011067,"lat":31.15695427283653,"确诊日期36":"l"},{"SH_ID_36":"10frqep","区36":"f","地址":"康巴路250弄","lng":121.56295185652928,"lat":31.12761982987465,"确诊日期36":"l"},{"SH_ID_36":"10frq0i","区36":"f","地址":"康弘路508弄","lng":121.60097663110857,"lat":31.122921456961592,"确诊日期36":"l"},{"SH_ID_36":"10frq6w","区36":"f","地址":"康弘路580弄","lng":121.59879696322739,"lat":31.1270277276009,"确诊日期36":"l"},{"SH_ID_36":"10frqby","区36":"f","地址":"康佳路38弄","lng":121.5958597683691,"lat":31.126517845423496,"确诊日期36":"l"},{"SH_ID_36":"10frq30","区36":"f","地址":"康桥路1558弄","lng":121.57310244517394,"lat":31.150383539195065,"确诊日期36":"l"},{"SH_ID_36":"10frq7t","区36":"f","地址":"康桥路90弄","lng":121.58226124472749,"lat":31.150861975739073,"确诊日期36":"l"},{"SH_ID_36":"10frqak","区36":"f","地址":"康杉路151号","lng":121.55965294681104,"lat":31.15064688744828,"确诊日期36":"l"},{"SH_ID_36":"10frq9f","区36":"f","地址":"康杉路359弄","lng":121.56137518521425,"lat":31.151550403891598,"确诊日期36":"l"},{"SH_ID_36":"10frqa6","区36":"f","地址":"康杉路608弄","lng":121.56433835088829,"lat":31.145600647680862,"确诊日期36":"l"},{"SH_ID_36":"10frq9s","区36":"f","地址":"康沈路1199弄","lng":121.57503830356964,"lat":31.12541983365343,"确诊日期36":"l"},{"SH_ID_36":"10frq31","区36":"f","地址":"康沈路465弄","lng":121.57143711928668,"lat":31.139683247807234,"确诊日期36":"l"},{"SH_ID_36":"10frq4m","区36":"f","地址":"康沈路726弄","lng":121.57401232747,"lat":31.132747000330532,"确诊日期36":"l"},{"SH_ID_36":"10frq4n","区36":"f","地址":"康士路15弄","lng":121.56302119596279,"lat":31.14903453447954,"确诊日期36":"l"},{"SH_ID_36":"10frq7v","区36":"f","地址":"康士路1弄","lng":121.56459008768115,"lat":31.146595263935637,"确诊日期36":"l"},{"SH_ID_36":"10frq7s","区36":"f","地址":"康士路2弄","lng":121.56607429205968,"lat":31.146355254180165,"确诊日期36":"l"},{"SH_ID_36":"10frqbh","区36":"f","地址":"莱阳路350弄","lng":121.58290680526156,"lat":31.274031686208737,"确诊日期36":"l"},{"SH_ID_36":"10frq6c","区36":"f","地址":"莱阳路4288弄","lng":121.57861191718507,"lat":31.338434282577605,"确诊日期36":"l"},{"SH_ID_36":"10frq1m","区36":"f","地址":"莱阳路451弄","lng":121.5826960933713,"lat":31.27572857706142,"确诊日期36":"l"},{"SH_ID_36":"10frqf0","区36":"f","地址":"兰城路108弄","lng":121.58034847898638,"lat":31.263675254560646,"确诊日期36":"l"},{"SH_ID_36":"10frqa3","区36":"f","地址":"栏杆村孙家宅","lng":121.85145266801624,"lat":30.998936109851662,"确诊日期36":"l"},{"SH_ID_36":"10frqa1","区36":"f","地址":"栏杆村王家宅","lng":121.68010401782254,"lat":31.166346027440653,"确诊日期36":"l"},{"SH_ID_36":"10frq17","区36":"f","地址":"蓝村路471弄","lng":121.52734015108163,"lat":31.212254616604838,"确诊日期36":"l"},{"SH_ID_36":"10frqdk","区36":"f","地址":"蓝村路501弄","lng":121.52485287225277,"lat":31.21204521586078,"确诊日期36":"l"},{"SH_ID_36":"10frqg6","区36":"f","地址":"崂山东路644弄","lng":121.5267947656266,"lat":31.221958183669717,"确诊日期36":"l"},{"SH_ID_36":"10frq9a","区36":"f","地址":"崂山路502号","lng":121.51740420549758,"lat":31.23702734501441,"确诊日期36":"l"},{"SH_ID_36":"10frqat","区36":"f","地址":"崂山路571弄","lng":121.52298004590875,"lat":31.226354005824962,"确诊日期36":"l"},{"SH_ID_36":"10frq99","区36":"f","地址":"崂山路644弄","lng":121.52579206302815,"lat":31.221945119833673,"确诊日期36":"l"},{"SH_ID_36":"10frq6i","区36":"f","地址":"崂山三村","lng":121.51870469960652,"lat":31.234871867557906,"确诊日期36":"l"},{"SH_ID_36":"10frq0t","区36":"f","地址":"立新村","lng":121.74742511956475,"lat":31.09069201708456,"确诊日期36":"l"},{"SH_ID_36":"10frq0r","区36":"f","地址":"连波路66弄","lng":121.55200727056082,"lat":31.194485117656587,"确诊日期36":"l"},{"SH_ID_36":"10frq5c","区36":"f","地址":"连民村","lng":121.68866141064726,"lat":31.086248482725583,"确诊日期36":"l"},{"SH_ID_36":"10frqbo","区36":"f","地址":"莲安东路367弄","lng":121.56346329053834,"lat":31.181868588223153,"确诊日期36":"l"},{"SH_ID_36":"10frq34","区36":"f","地址":"莲溪路1099弄","lng":121.56580355084294,"lat":31.173143386708144,"确诊日期36":"l"},{"SH_ID_36":"10frq5q","区36":"f","地址":"莲溪路126弄","lng":121.55998993448627,"lat":31.186796272074783,"确诊日期36":"l"},{"SH_ID_36":"10frqbt","区36":"f","地址":"莲溪路1299号","lng":121.56812423924084,"lat":31.166898993683503,"确诊日期36":"l"},{"SH_ID_36":"10frqbn","区36":"f","地址":"莲溪路477弄","lng":121.56327582065255,"lat":31.18296656493969,"确诊日期36":"l"},{"SH_ID_36":"10frq7l","区36":"f","地址":"莲园路508弄","lng":121.55426253458468,"lat":31.185502630193746,"确诊日期36":"l"},{"SH_ID_36":"10frqhb","区36":"f","地址":"莲振路298号","lng":121.56955329440508,"lat":31.167530625780056,"确诊日期36":"l"},{"SH_ID_36":"10frq2o","区36":"f","地址":"联丰村顾家队","lng":121.50804777602809,"lat":31.15795330603822,"确诊日期36":"l"},{"SH_ID_36":"10frq1y","区36":"f","地址":"联丰村奚家队奚家湾","lng":121.51392586579938,"lat":31.153504215006116,"确诊日期36":"l"},{"SH_ID_36":"10frq0l","区36":"f","地址":"联勤村冯桥队张家宅","lng":121.55139415040986,"lat":31.168558581666435,"确诊日期36":"l"},{"SH_ID_36":"10frq2x","区36":"f","地址":"联勤村麦家队麦家宅","lng":121.54711480733626,"lat":31.163873841642303,"确诊日期36":"l"},{"SH_ID_36":"10frqf3","区36":"f","地址":"联勤村张家队冯家宅","lng":121.55032586492378,"lat":31.165230142263006,"确诊日期36":"l"},{"SH_ID_36":"10frqai","区36":"f","地址":"联勤村张家队张家宅","lng":121.54767593633831,"lat":31.168040058158862,"确诊日期36":"l"},{"SH_ID_36":"10frq2e","区36":"f","地址":"林展路267弄","lng":121.50813347263318,"lat":31.12779623790294,"确诊日期36":"l"},{"SH_ID_36":"10frq1d","区36":"f","地址":"林展路411弄","lng":121.51023895762702,"lat":31.122839558223554,"确诊日期36":"l"},{"SH_ID_36":"10frqa0","区36":"f","地址":"林展路422弄","lng":121.50850447864302,"lat":31.121939928184602,"确诊日期36":"l"},{"SH_ID_36":"10frq1x","区36":"f","地址":"临江村丁家宅","lng":121.60959631225602,"lat":31.18123745006204,"确诊日期36":"l"},{"SH_ID_36":"10frq7q","区36":"f","地址":"临江村太保堂队太保堂","lng":121.47785809869862,"lat":31.119260225568297,"确诊日期36":"l"},{"SH_ID_36":"10frqd0","区36":"f","地址":"临沂路219号","lng":121.51048629887389,"lat":31.193323383126508,"确诊日期36":"l"},{"SH_ID_36":"10frq6x","区36":"f","地址":"临沂路451弄","lng":121.51323664736843,"lat":31.195124625932415,"确诊日期36":"l"},{"SH_ID_36":"10frqda","区36":"f","地址":"灵山路1396弄","lng":121.56467814628043,"lat":31.236837961794816,"确诊日期36":"l"},{"SH_ID_36":"10frq0m","区36":"f","地址":"灵山路1415弄","lng":121.56234294023662,"lat":31.23887132820756,"确诊日期36":"l"},{"SH_ID_36":"10frqax","区36":"f","地址":"灵山路1671弄","lng":121.56674741742951,"lat":31.239883150421797,"确诊日期36":"l"},{"SH_ID_36":"10frqdb","区36":"f","地址":"灵山路1724弄","lng":121.56791711682126,"lat":31.24015254969667,"确诊日期36":"l"},{"SH_ID_36":"10frq55","区36":"f","地址":"灵山路1840弄","lng":121.5713351078718,"lat":31.241713890859582,"确诊日期36":"l"},{"SH_ID_36":"10frqdl","区36":"f","地址":"灵山路2011弄","lng":121.57375992693667,"lat":31.244208971304367,"确诊日期36":"l"},{"SH_ID_36":"10frqaf","区36":"f","地址":"灵山路708弄","lng":121.54826490580508,"lat":31.23097413039353,"确诊日期36":"l"},{"SH_ID_36":"10frq51","区36":"f","地址":"灵山路730弄","lng":121.55006330452771,"lat":31.23145256218201,"确诊日期36":"l"},{"SH_ID_36":"10frq28","区36":"f","地址":"灵岩路56弄","lng":121.49376524289622,"lat":31.166936516921705,"确诊日期36":"l"},{"SH_ID_36":"10frq1z","区36":"f","地址":"灵岩路79弄","lng":121.49444203110335,"lat":31.166471931614787,"确诊日期36":"l"},{"SH_ID_36":"10frq7p","区36":"f","地址":"灵岩南路251号","lng":121.49532418205848,"lat":31.157817354240002,"确诊日期36":"l"},{"SH_ID_36":"10frqga","区36":"f","地址":"凌河路188弄","lng":121.59688152450035,"lat":31.275047349077774,"确诊日期36":"l"},{"SH_ID_36":"10frqbg","区36":"f","地址":"凌河路420弄","lng":121.59969356088187,"lat":31.272990721950066,"确诊日期36":"l"},{"SH_ID_36":"10frqc9","区36":"f","地址":"龄七路537号","lng":121.70690673831155,"lat":31.144485061971654,"确诊日期36":"l"},{"SH_ID_36":"10frqdc","区36":"f","地址":"龙居路191弄","lng":121.56429459527176,"lat":31.2522056656128,"确诊日期36":"l"},{"SH_ID_36":"10frq8r","区36":"f","地址":"陆家嘴环路1288号","lng":121.50427355987195,"lat":31.242804001974125,"确诊日期36":"l"},{"SH_ID_36":"10frq40","区36":"f","地址":"陆楼村","lng":121.7648562065419,"lat":31.07445507003088,"确诊日期36":"l"},{"SH_ID_36":"10frqgj","区36":"f","地址":"陆桥村","lng":121.71442267260585,"lat":31.00064334712934,"确诊日期36":"l"},{"SH_ID_36":"10frq3f","区36":"f","地址":"鹿达路28号","lng":121.6977960486854,"lat":31.107585941025444,"确诊日期36":"l"},{"SH_ID_36":"10frqa4","区36":"f","地址":"鹿溪村","lng":121.70980318787706,"lat":31.118220713811002,"确诊日期36":"l"},{"SH_ID_36":"10frqc2","区36":"f","地址":"路四村","lng":121.80907883960438,"lat":30.980137045217745,"确诊日期36":"l"},{"SH_ID_36":"10frq1o","区36":"f","地址":"罗山路108弄","lng":121.55225293026665,"lat":31.248662825019895,"确诊日期36":"l"},{"SH_ID_36":"10frq1l","区36":"f","地址":"罗山路1700弄","lng":121.56813857925448,"lat":31.225707616811455,"确诊日期36":"l"},{"SH_ID_36":"10frq63","区36":"f","地址":"绿林路320弄","lng":121.54745062147185,"lat":31.17003438029247,"确诊日期36":"l"},{"SH_ID_36":"10frqha","区36":"f","地址":"绿林路51弄","lng":121.54864968393625,"lat":31.174544809170786,"确诊日期36":"l"},{"SH_ID_36":"10frq8p","区36":"f","地址":"梅园三村","lng":121.52216912014286,"lat":31.23912677337726,"确诊日期36":"l"},{"SH_ID_36":"10frqa5","区36":"f","地址":"沔青村","lng":121.63671979210535,"lat":31.150755387812097,"确诊日期36":"l"},{"SH_ID_36":"10frq44","区36":"f","地址":"苗圃路112弄","lng":121.54652672066014,"lat":31.24451461203004,"确诊日期36":"l"},{"SH_ID_36":"10frq4v","区36":"f","地址":"苗圃路438弄","lng":121.55165216611555,"lat":31.23814866443118,"确诊日期36":"l"},{"SH_ID_36":"10frq50","区36":"f","地址":"苗圃路466弄","lng":121.553047267102,"lat":31.23730204075833,"确诊日期36":"l"},{"SH_ID_36":"10frqck","区36":"f","地址":"妙川路1000弄","lng":121.71477110405758,"lat":31.180023725791294,"确诊日期36":"l"},{"SH_ID_36":"10frqgs","区36":"f","地址":"妙川路300号","lng":121.70405135264345,"lat":31.177267270264426,"确诊日期36":"l"},{"SH_ID_36":"10frq38","区36":"f","地址":"妙川路800弄","lng":121.70348368520246,"lat":31.17797353192134,"确诊日期36":"l"},{"SH_ID_36":"10frqev","区36":"f","地址":"妙境北路116弄","lng":121.68844152053926,"lat":31.201257934145634,"确诊日期36":"l"},{"SH_ID_36":"10frqg2","区36":"f","地址":"妙境北路323号","lng":121.68696129245464,"lat":31.204613340167356,"确诊日期36":"l"},{"SH_ID_36":"10frqgd","区36":"f","地址":"妙境路141弄","lng":121.68980236544982,"lat":31.19680150943094,"确诊日期36":"l"},{"SH_ID_36":"10frqex","区36":"f","地址":"妙镜路60号","lng":121.68913671220328,"lat":31.19675844428859,"确诊日期36":"l"},{"SH_ID_36":"10frqcr","区36":"f","地址":"妙栏路353弄","lng":121.69046271452348,"lat":31.186302971525617,"确诊日期36":"l"},{"SH_ID_36":"10frq45","区36":"f","地址":"民生路1001弄","lng":121.54964467648745,"lat":31.230265928060906,"确诊日期36":"l"},{"SH_ID_36":"10frqfv","区36":"f","地址":"民同路176弄","lng":121.6516347364803,"lat":31.27158181535987,"确诊日期36":"l"},{"SH_ID_36":"10frqe7","区36":"f","地址":"民同路290弄","lng":121.65297133898238,"lat":31.270885131269335,"确诊日期36":"l"},{"SH_ID_36":"10frqdj","区36":"f","地址":"牡丹路145弄","lng":121.54474442000577,"lat":31.207999471978546,"确诊日期36":"l"},{"SH_ID_36":"10frq8c","区36":"f","地址":"牡丹路258弄","lng":121.54881589033373,"lat":31.20717979883995,"确诊日期36":"l"},{"SH_ID_36":"10frqhj","区36":"f","地址":"牡丹路89弄","lng":121.54335436327521,"lat":31.207287705617098,"确诊日期36":"l"},{"SH_ID_36":"10frqfe","区36":"f","地址":"南阜村东汤队东汤家宅","lng":121.51114210594181,"lat":31.142936460801607,"确诊日期36":"l"},{"SH_ID_36":"10frqed","区36":"f","地址":"南阜村高树队油车头","lng":121.5195740847955,"lat":31.134092383453158,"确诊日期36":"l"},{"SH_ID_36":"10frqhf","区36":"f","地址":"南阜村九思队九思堂","lng":121.5151569404738,"lat":31.127524725823687,"确诊日期36":"l"},{"SH_ID_36":"10frq0u","区36":"f","地址":"南六公路399弄","lng":121.7128620950664,"lat":31.061198216186938,"确诊日期36":"l"},{"SH_ID_36":"10frq0h","区36":"f","地址":"南码头路119弄","lng":121.50791562409566,"lat":31.200350313265798,"确诊日期36":"l"},{"SH_ID_36":"10frq2t","区36":"f","地址":"南码头路1288弄","lng":121.51395406899422,"lat":31.18186846597183,"确诊日期36":"l"},{"SH_ID_36":"10frqfo","区36":"f","地址":"南码头路1696弄","lng":121.51455588825115,"lat":31.175864183172248,"确诊日期36":"l"},{"SH_ID_36":"10frqg4","区36":"f","地址":"南码头路50号","lng":121.50637458211874,"lat":31.199829521850514,"确诊日期36":"l"},{"SH_ID_36":"10frqec","区36":"f","地址":"南桥路707弄","lng":121.69660584420022,"lat":31.18879564391219,"确诊日期36":"l"},{"SH_ID_36":"10frq16","区36":"f","地址":"南泉路1211弄","lng":121.5236041386629,"lat":31.213734802807586,"确诊日期36":"l"},{"SH_ID_36":"10frq3q","区36":"f","地址":"南泉路1320弄","lng":121.52029555105851,"lat":31.21028512388701,"确诊日期36":"l"},{"SH_ID_36":"10frq3p","区36":"f","地址":"南泉路1350弄","lng":121.52104245138375,"lat":31.209256421438027,"确诊日期36":"l"},{"SH_ID_36":"10frqcy","区36":"f","地址":"南三支路139弄","lng":121.73733496855496,"lat":30.968879093660416,"确诊日期36":"l"},{"SH_ID_36":"10frq3y","区36":"f","地址":"南团公路105号","lng":121.76420116094157,"lat":31.038359587333474,"确诊日期36":"l"},{"SH_ID_36":"10frqfd","区36":"f","地址":"南新村","lng":121.78863103828074,"lat":30.871640040863056,"确诊日期36":"l"},{"SH_ID_36":"10frq3v","区36":"f","地址":"南祝路258弄","lng":121.7560640194991,"lat":31.117841816880556,"确诊日期36":"l"},{"SH_ID_36":"10frq9x","区36":"f","地址":"年家浜路159弄","lng":121.5935585572189,"lat":31.114964615356975,"确诊日期36":"l"},{"SH_ID_36":"10frqez","区36":"f","地址":"宁阳路11弄","lng":121.51800209298203,"lat":31.21236020142819,"确诊日期36":"l"},{"SH_ID_36":"10frqee","区36":"f","地址":"牛桥村","lng":121.59932316926464,"lat":31.101376954331336,"确诊日期36":"l"},{"SH_ID_36":"10frqgl","区36":"f","地址":"潘姚村","lng":121.57701016126362,"lat":31.182091831328886,"确诊日期36":"l"},{"SH_ID_36":"10frq78","区36":"f","地址":"鹏飞路333弄","lng":121.55742478092142,"lat":31.171408549171588,"确诊日期36":"l"},{"SH_ID_36":"10frqfh","区36":"f","地址":"鹏飞路426弄","lng":121.55523157443572,"lat":31.17147864427726,"确诊日期36":"l"},{"SH_ID_36":"10frq5l","区36":"f","地址":"鹏飞路51弄","lng":121.5548212270501,"lat":31.175279338887638,"确诊日期36":"l"},{"SH_ID_36":"10frqcv","区36":"f","地址":"浦城路580弄","lng":121.51497254906641,"lat":31.22434308123528,"确诊日期36":"l"},{"SH_ID_36":"10frq7i","区36":"f","地址":"浦城路99弄","lng":121.50821505511948,"lat":31.22980192715514,"确诊日期36":"l"},{"SH_ID_36":"10frqft","区36":"f","地址":"浦电路149弄","lng":121.5213647848693,"lat":31.21789815656831,"确诊日期36":"l"},{"SH_ID_36":"10frqg1","区36":"f","地址":"浦电路218弄","lng":121.52623153328352,"lat":31.220059377960872,"确诊日期36":"l"},{"SH_ID_36":"10frqdg","区36":"f","地址":"浦电路221号","lng":121.52379270117729,"lat":31.218633726578204,"确诊日期36":"l"},{"SH_ID_36":"10frq9i","区36":"f","地址":"浦电路307号","lng":121.52575347338647,"lat":31.21953557023433,"确诊日期36":"l"},{"SH_ID_36":"10frqh5","区36":"f","地址":"浦电路489号工地生活区","lng":121.5330735110521,"lat":31.22700445978639,"确诊日期36":"l"},{"SH_ID_36":"10frqdm","区36":"f","地址":"浦电路57号","lng":121.51657381762259,"lat":31.21705754765811,"确诊日期36":"l"},{"SH_ID_36":"10frq9v","区36":"f","地址":"浦东大道1097弄","lng":121.5321151164188,"lat":31.243445686710267,"确诊日期36":"l"},{"SH_ID_36":"10frq4y","区36":"f","地址":"浦东大道1695弄","lng":121.5438768229672,"lat":31.2462226644001,"确诊日期36":"l"},{"SH_ID_36":"10frq3t","区36":"f","地址":"浦东大道1851弄","lng":121.54475400045538,"lat":31.24751462242045,"确诊日期36":"l"},{"SH_ID_36":"10frq4c","区36":"f","地址":"浦东大道2554号","lng":121.5629929765194,"lat":31.25884058440292,"确诊日期36":"l"},{"SH_ID_36":"10frqap","区36":"f","地址":"浦东大道2568弄","lng":121.56402267155194,"lat":31.25971530873114,"确诊日期36":"l"},{"SH_ID_36":"10frq9o","区36":"f","地址":"浦东大道2778弄","lng":121.57545575665826,"lat":31.269493264859296,"确诊日期36":"l"},{"SH_ID_36":"10frqcu","区36":"f","地址":"浦东南路1466弄","lng":121.51638891080091,"lat":31.221761591472973,"确诊日期36":"l"},{"SH_ID_36":"10frqhh","区36":"f","地址":"浦东南路1533号","lng":121.52093550289884,"lat":31.220526144656787,"确诊日期36":"l"},{"SH_ID_36":"10frqfr","区36":"f","地址":"浦东南路1756号","lng":121.5185217975305,"lat":31.216931576352597,"确诊日期36":"l"},{"SH_ID_36":"10frqdo","区36":"f","地址":"浦东南路2351号","lng":121.51213652655215,"lat":31.19975524138803,"确诊日期36":"l"},{"SH_ID_36":"10frqhi","区36":"f","地址":"浦东南路2362号","lng":121.51076915577924,"lat":31.199628784027205,"确诊日期36":"l"},{"SH_ID_36":"10frqb8","区36":"f","地址":"浦东南路3005号","lng":121.50984723031272,"lat":31.19643973615098,"确诊日期36":"l"},{"SH_ID_36":"10frqf7","区36":"f","地址":"浦东南路3635弄","lng":121.50623570129184,"lat":31.190324741858895,"确诊日期36":"l"},{"SH_ID_36":"10frqde","区36":"f","地址":"浦发绿城东区","lng":121.54236782822788,"lat":31.148666616772516,"确诊日期36":"l"},{"SH_ID_36":"10frqau","区36":"f","地址":"浦建路15号","lng":121.51819693932164,"lat":31.210340503240072,"确诊日期36":"l"},{"SH_ID_36":"10frqd2","区36":"f","地址":"浦三路277弄","lng":121.51447048193094,"lat":31.19404520012151,"确诊日期36":"l"},{"SH_ID_36":"10frq6e","区36":"f","地址":"浦三路288弄","lng":121.5138185474368,"lat":31.192644838483336,"确诊日期36":"l"},{"SH_ID_36":"10frqdv","区36":"f","地址":"浦三路32号","lng":121.51153813919478,"lat":31.1967771860282,"确诊日期36":"l"},{"SH_ID_36":"10frqdn","区36":"f","地址":"浦三路629弄","lng":121.51691063927005,"lat":31.18847498561501,"确诊日期36":"l"},{"SH_ID_36":"10frqcd","区36":"f","地址":"浦三路817弄","lng":121.52026384366961,"lat":31.186157931848044,"确诊日期36":"l"},{"SH_ID_36":"10frq9y","区36":"f","地址":"浦星公路71弄","lng":121.49517642051693,"lat":31.12610327929674,"确诊日期36":"l"},{"SH_ID_36":"10frqbr","区36":"f","地址":"普庆路115弄","lng":121.71943812113831,"lat":31.155512643828967,"确诊日期36":"l"},{"SH_ID_36":"10frqc6","区36":"f","地址":"七灶村","lng":121.71248584680241,"lat":31.13857819135123,"确诊日期36":"l"},{"SH_ID_36":"10frq4z","区36":"f","地址":"栖山路100弄","lng":121.54414686815932,"lat":31.242016930778604,"确诊日期36":"l"},{"SH_ID_36":"10frqd1","区36":"f","地址":"栖山路1299弄","lng":121.56054103135374,"lat":31.255413412984396,"确诊日期36":"l"},{"SH_ID_36":"10frq4d","区36":"f","地址":"栖山路1555弄","lng":121.56483728408647,"lat":31.2575377720884,"确诊日期36":"l"},{"SH_ID_36":"10frqaw","区36":"f","地址":"栖山路1689弄","lng":121.56792334262362,"lat":31.259667024640574,"确诊日期36":"l"},{"SH_ID_36":"10frqbf","区36":"f","地址":"栖山路1855弄","lng":121.57150139682294,"lat":31.260751906809435,"确诊日期36":"l"},{"SH_ID_36":"10frqd7","区36":"f","地址":"栖山路400弄","lng":121.55076393770028,"lat":31.246349876426358,"确诊日期36":"l"},{"SH_ID_36":"10frq9t","区36":"f","地址":"栖山路401弄","lng":121.54941863333966,"lat":31.246658332861568,"确诊日期36":"l"},{"SH_ID_36":"10frq6j","区36":"f","地址":"栖霞路190弄","lng":121.51865633126774,"lat":31.237032896201168,"确诊日期36":"l"},{"SH_ID_36":"10frq8q","区36":"f","地址":"栖霞路286号","lng":121.5219264963794,"lat":31.23823754074217,"确诊日期36":"l"},{"SH_ID_36":"10frqcl","区36":"f","地址":"启明村陈家宅","lng":121.6964041644362,"lat":31.259928149882434,"确诊日期36":"l"},{"SH_ID_36":"10frqfz","区36":"f","地址":"千汇路198弄","lng":121.76952197449738,"lat":31.105466344899284,"确诊日期36":"l"},{"SH_ID_36":"10frqcs","区36":"f","地址":"前进村南李家宅","lng":121.6607007093364,"lat":30.983294733482055,"确诊日期36":"l"},{"SH_ID_36":"10frq6t","区36":"f","地址":"钱堂村新立宅","lng":121.59305170752305,"lat":31.15806227133546,"确诊日期36":"l"},{"SH_ID_36":"10frq8y","区36":"f","地址":"钱塘村","lng":121.60823549254837,"lat":31.157385852415594,"确诊日期36":"l"},{"SH_ID_36":"10frqci","区36":"f","地址":"青三村","lng":121.7224117416768,"lat":31.226835568739848,"确诊日期36":"l"},{"SH_ID_36":"10frqbd","区36":"f","地址":"清溪路400弄","lng":121.57135573163366,"lat":31.340963791118384,"确诊日期36":"l"},{"SH_ID_36":"10frqh8","区36":"f","地址":"庆星村八队西圈夏家宅","lng":121.71554768483225,"lat":31.230946080338917,"确诊日期36":"l"},{"SH_ID_36":"10frqfm","区36":"f","地址":"仁义村","lng":121.64078277001036,"lat":31.05849173996269,"确诊日期36":"l"},{"SH_ID_36":"10frq0q","区36":"f","地址":"乳山路161弄","lng":121.52099305127126,"lat":31.236140611067622,"确诊日期36":"l"},{"SH_ID_36":"10frqdt","区36":"f","地址":"瑞安路699弄","lng":121.60093605904105,"lat":31.09256756934031,"确诊日期36":"l"},{"SH_ID_36":"10frqfx","区36":"f","地址":"瑞和路935弄","lng":121.60325563313441,"lat":31.089413534613534,"确诊日期36":"l"},{"SH_ID_36":"10frq3e","区36":"f","地址":"瑞浦路77弄","lng":121.58771174511932,"lat":31.09791141282893,"确诊日期36":"l"},{"SH_ID_36":"10frqcn","区36":"f","地址":"瑞浦路8弄","lng":121.58553592034185,"lat":31.09865809868019,"确诊日期36":"l"},{"SH_ID_36":"10frq1f","区36":"f","地址":"瑞阳路81弄","lng":121.58862381972963,"lat":31.099030314031385,"确诊日期36":"l"},{"SH_ID_36":"10frqfn","区36":"f","地址":"瑞意路399弄","lng":121.58756426956184,"lat":31.095996682291297,"确诊日期36":"l"},{"SH_ID_36":"10frqef","区36":"f","地址":"三林路1662弄","lng":121.52613925292447,"lat":31.147021614282153,"确诊日期36":"l"},{"SH_ID_36":"10frq9z","区36":"f","地址":"三林路235号","lng":121.49611524377036,"lat":31.13780900529522,"确诊日期36":"l"},{"SH_ID_36":"10frq6d","区36":"f","地址":"三三公路5020弄","lng":121.90772197632735,"lat":30.952999429382555,"确诊日期36":"l"},{"SH_ID_36":"10frq1i","区36":"f","地址":"三旋路506弄","lng":121.50265829902621,"lat":31.119639612198437,"确诊日期36":"l"},{"SH_ID_36":"10frqe6","区36":"f","地址":"三灶北街","lng":121.70858974127418,"lat":31.0677434011589,"确诊日期36":"l"},{"SH_ID_36":"10frq2h","区36":"f","地址":"上钢六村","lng":121.49454300240673,"lat":31.173985192564338,"确诊日期36":"l"},{"SH_ID_36":"10frq2d","区36":"f","地址":"上钢三村","lng":121.49079736939873,"lat":31.174822318826372,"确诊日期36":"l"},{"SH_ID_36":"10frq1h","区36":"f","地址":"上钢四村","lng":121.49177635381564,"lat":31.17297413791413,"确诊日期36":"l"},{"SH_ID_36":"10frq2v","区36":"f","地址":"上钢一村","lng":121.49322888611972,"lat":31.172417506285125,"确诊日期36":"l"},{"SH_ID_36":"10frq2l","区36":"f","地址":"上南路1000弄","lng":121.49418673160237,"lat":31.174517683370325,"确诊日期36":"l"},{"SH_ID_36":"10frq2m","区36":"f","地址":"上南路1251弄","lng":121.4970873437394,"lat":31.173460811298547,"确诊日期36":"l"},{"SH_ID_36":"10frq5y","区36":"f","地址":"上南路3039号","lng":121.49814636811311,"lat":31.162204227051358,"确诊日期36":"l"},{"SH_ID_36":"10frq9b","区36":"f","地址":"上南路3300号","lng":121.49838273819685,"lat":31.158394928542656,"确诊日期36":"l"},{"SH_ID_36":"10frq2c","区36":"f","地址":"上南路3323弄","lng":121.4999097862085,"lat":31.15868949066066,"确诊日期36":"l"},{"SH_ID_36":"10frqdh","区36":"f","地址":"上南路3339弄","lng":121.50724215612401,"lat":31.160229195163225,"确诊日期36":"l"},{"SH_ID_36":"10frq2p","区36":"f","地址":"上南路3521号","lng":121.50413836677582,"lat":31.155093654516147,"确诊日期36":"l"},{"SH_ID_36":"10frqfb","区36":"f","地址":"上南路3651弄","lng":121.5061503868799,"lat":31.15417854818542,"确诊日期36":"l"},{"SH_ID_36":"10frqb6","区36":"f","地址":"上南路3827弄","lng":121.50659274889426,"lat":31.151839048674933,"确诊日期36":"l"},{"SH_ID_36":"10frq9r","区36":"f","地址":"上南路5588号","lng":121.52704538162483,"lat":31.125005750224634,"确诊日期36":"l"},{"SH_ID_36":"10frq1a","区36":"f","地址":"上南路6500弄","lng":121.54789123882824,"lat":31.117282862430095,"确诊日期36":"l"},{"SH_ID_36":"10frq3r","区36":"f","地址":"上南路6620弄","lng":121.55321445816266,"lat":31.117419727179424,"确诊日期36":"l"},{"SH_ID_36":"10frqal","区36":"f","地址":"上南路6733弄","lng":121.56253923958033,"lat":31.12000332468993,"确诊日期36":"l"},{"SH_ID_36":"10frq0x","区36":"f","地址":"上南路929弄","lng":121.49588633724261,"lat":31.176795051467668,"确诊日期36":"l"},{"SH_ID_36":"10frq2w","区36":"f","地址":"上浦路480弄","lng":121.49854473307589,"lat":31.146603337132337,"确诊日期36":"l"},{"SH_ID_36":"10frq9h","区36":"f","地址":"沈家弄路810弄","lng":121.54371432457462,"lat":31.23792384462456,"确诊日期36":"l"},{"SH_ID_36":"10frqbv","区36":"f","地址":"沈家弄路877弄","lng":121.54524472210267,"lat":31.23814993927167,"确诊日期36":"l"},{"SH_ID_36":"10frq4q","区36":"f","地址":"沈家弄路901弄","lng":121.54698929733027,"lat":31.23899970483268,"确诊日期36":"l"},{"SH_ID_36":"10frq4u","区36":"f","地址":"沈家弄路936号","lng":121.54719235623044,"lat":31.239844124418994,"确诊日期36":"l"},{"SH_ID_36":"10frq7h","区36":"f","地址":"盛苑路777弄","lng":121.5304131935349,"lat":31.157892751850117,"确诊日期36":"l"},{"SH_ID_36":"10frqgu","区36":"f","地址":"施湾二路1026弄","lng":121.74929223399347,"lat":31.14161876261951,"确诊日期36":"l"},{"SH_ID_36":"10frq1g","区36":"f","地址":"世博家园大道站路94弄","lng":121.53481823780885,"lat":31.163088081488294,"确诊日期36":"l"},{"SH_ID_36":"10frqae","区36":"f","地址":"汤巷雅苑","lng":121.60566859834398,"lat":31.136287529051167,"确诊日期36":"l"},{"SH_ID_36":"10frq2z","区36":"f","地址":"汤巷中心村","lng":121.6092083980168,"lat":31.14337783406832,"确诊日期36":"l"},{"SH_ID_36":"10frq3m","区36":"f","地址":"塘桥路551号","lng":121.52046369508673,"lat":31.21215336485493,"确诊日期36":"l"},{"SH_ID_36":"10frq80","区36":"f","地址":"桃林路299弄","lng":121.5380494384591,"lat":31.23944946341578,"确诊日期36":"l"},{"SH_ID_36":"10frq8i","区36":"f","地址":"天庵村西瞿队瞿家宅","lng":121.80875265266296,"lat":31.027890343436987,"确诊日期36":"l"},{"SH_ID_36":"10frq71","区36":"f","地址":"天花庵村芦家队芦家油车","lng":121.52671866673742,"lat":31.124119095579434,"确诊日期36":"l"},{"SH_ID_36":"10frq6s","区36":"f","地址":"天花庵村闵北队闵家宅","lng":121.53293023592585,"lat":31.122602055058678,"确诊日期36":"l"},{"SH_ID_36":"10frqg9","区36":"f","地址":"田度宅","lng":121.65977652646636,"lat":31.297370258741864,"确诊日期36":"l"},{"SH_ID_36":"10frqei","区36":"f","地址":"听民路263弄","lng":121.52598928892805,"lat":31.203493458166765,"确诊日期36":"l"},{"SH_ID_36":"10frqey","区36":"f","地址":"听谐路86弄","lng":121.7504787511186,"lat":31.057464479327404,"确诊日期36":"l"},{"SH_ID_36":"10frqeo","区36":"f","地址":"听悦路1200弄","lng":121.739326369029,"lat":31.064286201115713,"确诊日期36":"l"},{"SH_ID_36":"10frq3z","区36":"f","地址":"听悦路685弄","lng":121.73712745662627,"lat":31.05472637393789,"确诊日期36":"l"},{"SH_ID_36":"10frq87","区36":"f","地址":"通济路220弄","lng":121.74521317200231,"lat":31.045414596344013,"确诊日期36":"l"},{"SH_ID_36":"10frqem","区36":"f","地址":"通济路365弄","lng":121.74540350371373,"lat":31.052197278100515,"确诊日期36":"l"},{"SH_ID_36":"10frqge","区36":"f","地址":"通济路68弄","lng":121.74599591732104,"lat":31.044639561944408,"确诊日期36":"l"},{"SH_ID_36":"10frq8j","区36":"f","地址":"团结村","lng":121.77836816656247,"lat":31.02160294915258,"确诊日期36":"l"},{"SH_ID_36":"10frq3h","区36":"f","地址":"万安街333弄","lng":121.61380801776001,"lat":31.297878894564036,"确诊日期36":"l"},{"SH_ID_36":"10frq4j","区36":"f","地址":"万德路11弄","lng":121.55528793990086,"lat":31.252462492091727,"确诊日期36":"l"},{"SH_ID_36":"10frq46","区36":"f","地址":"万德路45弄","lng":121.55693151279758,"lat":31.25170484092523,"确诊日期36":"l"},{"SH_ID_36":"10frq4g","区36":"f","地址":"万德路52弄","lng":121.55720050992552,"lat":31.248407549799797,"确诊日期36":"l"},{"SH_ID_36":"10frq56","区36":"f","地址":"万德路67弄","lng":121.55986643181097,"lat":31.249464846323466,"确诊日期36":"l"},{"SH_ID_36":"10frqao","区36":"f","地址":"万六村","lng":121.81999612850908,"lat":30.967958774526487,"确诊日期36":"l"},{"SH_ID_36":"10frq0o","区36":"f","地址":"王楼村","lng":121.61773983477346,"lat":31.068273265891793,"确诊日期36":"l"},{"SH_ID_36":"10frq3o","区36":"f","地址":"微山三村","lng":121.51111483234679,"lat":31.207211427201774,"确诊日期36":"l"},{"SH_ID_36":"10frqe3","区36":"f","地址":"潍坊六村","lng":121.52259855635668,"lat":31.222197762204228,"确诊日期36":"l"},{"SH_ID_36":"10frqfu","区36":"f","地址":"潍坊路333弄","lng":121.5273020193928,"lat":31.226107763297094,"确诊日期36":"l"},{"SH_ID_36":"10frqfq","区36":"f","地址":"潍坊路375弄","lng":121.5314627103496,"lat":31.22833649529698,"确诊日期36":"l"},{"SH_ID_36":"10frqdi","区36":"f","地址":"潍坊四村","lng":121.52413632886234,"lat":31.218413220583194,"确诊日期36":"l"},{"SH_ID_36":"10frq9e","区36":"f","地址":"潍坊五村","lng":121.5234597065028,"lat":31.21994017954105,"确诊日期36":"l"},{"SH_ID_36":"10frq8u","区36":"f","地址":"卫星东路113弄","lng":121.7580653301253,"lat":31.043519997366303,"确诊日期36":"l"},{"SH_ID_36":"10frq5u","区36":"f","地址":"卫行村张家宅","lng":121.58131614481935,"lat":31.164913557549944,"确诊日期36":"l"},{"SH_ID_36":"10frq5i","区36":"f","地址":"卫行村朱家队朱家宅","lng":121.5829234678075,"lat":31.161398839541572,"确诊日期36":"l"},{"SH_ID_36":"10frq7o","区36":"f","地址":"卫行路30号","lng":121.58304025521042,"lat":31.164374332327196,"确诊日期36":"l"},{"SH_ID_36":"10frqac","区36":"f","地址":"文汇小区","lng":121.54071681852533,"lat":31.16878870174684,"确诊日期36":"l"},{"SH_ID_36":"10frq91","区36":"f","地址":"闻六路吴家宅","lng":121.73985904920536,"lat":31.140294300252446,"确诊日期36":"l"},{"SH_ID_36":"10frqgr","区36":"f","地址":"吴店村东桥家宅","lng":121.72135460162819,"lat":31.146448309673296,"确诊日期36":"l"},{"SH_ID_36":"10frqbc","区36":"f","地址":"五莲路108弄","lng":121.59975510727132,"lat":31.282134076129402,"确诊日期36":"l"},{"SH_ID_36":"10frqbi","区36":"f","地址":"五莲路1168号","lng":121.59647082896988,"lat":31.27224285995126,"确诊日期36":"l"},