[{"SH_ID_36":"10g9ec0","区36":"c","地址":"爱博二村","lng":121.30585653541418,"lat":31.206629739375856,"确诊日期36":"y"},{"SH_ID_36":"10g9tpa","区36":"c","地址":"爱博二村","lng":121.30585653541418,"lat":31.206629739375856,"确诊日期36":"10"},{"SH_ID_36":"10ga191","区36":"c","地址":"爱博二村","lng":121.30585653541418,"lat":31.206629739375856,"确诊日期36":"11"},{"SH_ID_36":"10ga8zt","区36":"c","地址":"爱博二村","lng":121.30585653541418,"lat":31.206629739375856,"确诊日期36":"12"},{"SH_ID_36":"10g8ah0","区36":"c","地址":"爱博三村","lng":121.31009156269086,"lat":31.21142259949184,"确诊日期36":"t"},{"SH_ID_36":"10g8i6b","区36":"c","地址":"爱博三村","lng":121.31009156269086,"lat":31.21142259949184,"确诊日期36":"u"},{"SH_ID_36":"10g96i6","区36":"c","地址":"爱博三村","lng":121.31009156269086,"lat":31.21142259949184,"确诊日期36":"x"},{"SH_ID_36":"10ga192","区36":"c","地址":"爱博三村","lng":121.31009156269086,"lat":31.21142259949184,"确诊日期36":"11"},{"SH_ID_36":"10ga8zu","区36":"c","地址":"爱博三村","lng":121.31009156269086,"lat":31.21142259949184,"确诊日期36":"12"},{"SH_ID_36":"10g8qmb","区36":"c","地址":"爱博四村","lng":121.30498960375304,"lat":31.212613679422674,"确诊日期36":"v"},{"SH_ID_36":"10g96i7","区36":"c","地址":"爱博四村","lng":121.30498960375304,"lat":31.212613679422674,"确诊日期36":"x"},{"SH_ID_36":"10g9ec1","区36":"c","地址":"爱博四村","lng":121.30498960375304,"lat":31.212613679422674,"确诊日期36":"y"},{"SH_ID_36":"10ga193","区36":"c","地址":"爱博四村","lng":121.30498960375304,"lat":31.212613679422674,"确诊日期36":"11"},{"SH_ID_36":"10ga8zv","区36":"c","地址":"爱博四村","lng":121.30498960375304,"lat":31.212613679422674,"确诊日期36":"12"},{"SH_ID_36":"10g8ah1","区36":"c","地址":"爱博五村","lng":121.30740961752934,"lat":31.21550964979506,"确诊日期36":"t"},{"SH_ID_36":"10g96i8","区36":"c","地址":"爱博五村","lng":121.30740961752934,"lat":31.21550964979506,"确诊日期36":"x"},{"SH_ID_36":"10g9ec2","区36":"c","地址":"爱博五村","lng":121.30740961752934,"lat":31.21550964979506,"确诊日期36":"y"},{"SH_ID_36":"10g9tpb","区36":"c","地址":"爱博五村","lng":121.30740961752934,"lat":31.21550964979506,"确诊日期36":"10"},{"SH_ID_36":"10ga194","区36":"c","地址":"爱博五村","lng":121.30740961752934,"lat":31.21550964979506,"确诊日期36":"11"},{"SH_ID_36":"10ga8zw","区36":"c","地址":"爱博五村","lng":121.30740961752934,"lat":31.21550964979506,"确诊日期36":"12"},{"SH_ID_36":"10g8i6a","区36":"c","地址":"爱博一村","lng":121.3111145203904,"lat":31.20675758059457,"确诊日期36":"u"},{"SH_ID_36":"10g8qmc","区36":"c","地址":"爱博一村","lng":121.3111145203904,"lat":31.20675758059457,"确诊日期36":"v"},{"SH_ID_36":"10g96i5","区36":"c","地址":"爱博一村","lng":121.3111145203904,"lat":31.20675758059457,"确诊日期36":"x"},{"SH_ID_36":"10g9ebz","区36":"c","地址":"爱博一村","lng":121.3111145203904,"lat":31.20675758059457,"确诊日期36":"y"},{"SH_ID_36":"10g9tp9","区36":"c","地址":"爱博一村","lng":121.3111145203904,"lat":31.20675758059457,"确诊日期36":"10"},{"SH_ID_36":"10ga190","区36":"c","地址":"爱博一村","lng":121.3111145203904,"lat":31.20675758059457,"确诊日期36":"11"},{"SH_ID_36":"10ga8zs","区36":"c","地址":"爱博一村","lng":121.3111145203904,"lat":31.20675758059457,"确诊日期36":"12"},{"SH_ID_36":"10g9m5p","区36":"c","地址":"爱国村","lng":121.4487768456707,"lat":31.082951236631878,"确诊日期36":"z"},{"SH_ID_36":"10g9tpc","区36":"c","地址":"爱国村","lng":121.4487768456707,"lat":31.082951236631878,"确诊日期36":"10"},{"SH_ID_36":"10ga195","区36":"c","地址":"爱国村","lng":121.4487768456707,"lat":31.082951236631878,"确诊日期36":"11"},{"SH_ID_36":"10ga8zx","区36":"c","地址":"爱国村","lng":121.4487768456707,"lat":31.082951236631878,"确诊日期36":"12"},{"SH_ID_36":"10frip9","区36":"c","地址":"安乐村","lng":121.41091694729798,"lat":31.02933126170472,"确诊日期36":"k"},{"SH_ID_36":"10frqqy","区36":"c","地址":"安乐村","lng":121.41091694729798,"lat":31.02933126170472,"确诊日期36":"l"},{"SH_ID_36":"10fryxm","区36":"c","地址":"安乐村","lng":121.41091694729798,"lat":31.02933126170472,"确诊日期36":"m"},{"SH_ID_36":"10fs6nd","区36":"c","地址":"安乐村","lng":121.41091694729798,"lat":31.02933126170472,"确诊日期36":"n"},{"SH_ID_36":"10g7mbh","区36":"c","地址":"安乐村","lng":121.41091694729798,"lat":31.02933126170472,"确诊日期36":"q"},{"SH_ID_36":"10g8ah2","区36":"c","地址":"安乐村","lng":121.41091694729798,"lat":31.02933126170472,"确诊日期36":"t"},{"SH_ID_36":"10g8i6c","区36":"c","地址":"安乐村","lng":121.41091694729798,"lat":31.02933126170472,"确诊日期36":"u"},{"SH_ID_36":"10foxr9","区36":"c","地址":"安乐村","lng":121.41091694729798,"lat":31.02933126170472,"确诊日期36":"8"},{"SH_ID_36":"10fq838","区36":"c","地址":"安乐村","lng":121.41091694729798,"lat":31.02933126170472,"确诊日期36":"e"},{"SH_ID_36":"10g8ycg","区36":"c","地址":"安乐村","lng":121.41091694729798,"lat":31.02933126170472,"确诊日期36":"w"},{"SH_ID_36":"10g96i9","区36":"c","地址":"安乐村","lng":121.41091694729798,"lat":31.02933126170472,"确诊日期36":"x"},{"SH_ID_36":"10g9ec3","区36":"c","地址":"安乐村","lng":121.41091694729798,"lat":31.02933126170472,"确诊日期36":"y"},{"SH_ID_36":"10g9tpd","区36":"c","地址":"安乐村","lng":121.41091694729798,"lat":31.02933126170472,"确诊日期36":"10"},{"SH_ID_36":"10ga196","区36":"c","地址":"安乐村","lng":121.41091694729798,"lat":31.02933126170472,"确诊日期36":"11"},{"SH_ID_36":"10ga8zy","区36":"c","地址":"安乐村","lng":121.41091694729798,"lat":31.02933126170472,"确诊日期36":"12"},{"SH_ID_36":"10fripa","区36":"c","地址":"安宁路26弄","lng":121.41599101253382,"lat":31.01009737215208,"确诊日期36":"k"},{"SH_ID_36":"10fqv9p","区36":"c","地址":"安宁路289弄","lng":121.41750100257964,"lat":31.014183559716493,"确诊日期36":"h"},{"SH_ID_36":"10fr34p","区36":"c","地址":"安宁路330弄","lng":121.41618500454798,"lat":31.014086458005593,"确诊日期36":"i"},{"SH_ID_36":"10fripb","区36":"c","地址":"安宁路330弄","lng":121.41618500454798,"lat":31.014086458005593,"确诊日期36":"k"},{"SH_ID_36":"10frqqz","区36":"c","地址":"安宁路330弄","lng":121.41618500454798,"lat":31.014086458005593,"确诊日期36":"l"},{"SH_ID_36":"10g8i6d","区36":"c","地址":"安宁路330弄","lng":121.41618500454798,"lat":31.014086458005593,"确诊日期36":"u"},{"SH_ID_36":"10g82bq","区36":"c","地址":"安宁路400弄","lng":121.41595900320179,"lat":31.014554447499794,"确诊日期36":"s"},{"SH_ID_36":"10g8ych","区36":"c","地址":"安宁路400弄","lng":121.41595900320179,"lat":31.014554447499794,"确诊日期36":"w"},{"SH_ID_36":"10g96ia","区36":"c","地址":"安宁路400弄","lng":121.41595900320179,"lat":31.014554447499794,"确诊日期36":"x"},{"SH_ID_36":"10g9m5q","区36":"c","地址":"安宁路400弄","lng":121.41595900320179,"lat":31.014554447499794,"确诊日期36":"z"},{"SH_ID_36":"10ga8zz","区36":"c","地址":"安宁路400弄","lng":121.41595900320179,"lat":31.014554447499794,"确诊日期36":"12"},{"SH_ID_36":"10ga900","区36":"c","地址":"安宁路458弄","lng":121.41298500396967,"lat":31.01657722204971,"确诊日期36":"12"},{"SH_ID_36":"10ga901","区36":"c","地址":"安宁路88弄","lng":121.41599101253382,"lat":31.01009737215208,"确诊日期36":"12"},{"SH_ID_36":"10fs6ne","区36":"c","地址":"白樟路99弄","lng":121.36780689275696,"lat":31.173711650493942,"确诊日期36":"n"},{"SH_ID_36":"10g8i6e","区36":"c","地址":"白樟路99弄","lng":121.36780689275696,"lat":31.173711650493942,"确诊日期36":"u"},{"SH_ID_36":"10ga902","区36":"c","地址":"柏建路187号","lng":121.44679386341497,"lat":31.093548438363978,"确诊日期36":"12"},{"SH_ID_36":"10g9tpe","区36":"c","地址":"宝城路155弄","lng":121.39148334294933,"lat":31.10515998418901,"确诊日期36":"10"},{"SH_ID_36":"10ga197","区36":"c","地址":"宝城路155弄","lng":121.39148334294933,"lat":31.10515998418901,"确诊日期36":"11"},{"SH_ID_36":"10ga903","区36":"c","地址":"宝城路155弄","lng":121.39148334294933,"lat":31.10515998418901,"确诊日期36":"12"},{"SH_ID_36":"10g9tpf","区36":"c","地址":"宝城路158弄","lng":121.39569036894049,"lat":31.104228871553886,"确诊日期36":"10"},{"SH_ID_36":"10ga198","区36":"c","地址":"宝城路158弄","lng":121.39569036894049,"lat":31.104228871553886,"确诊日期36":"11"},{"SH_ID_36":"10ga904","区36":"c","地址":"宝城路158弄","lng":121.39569036894049,"lat":31.104228871553886,"确诊日期36":"12"},{"SH_ID_36":"10fripc","区36":"c","地址":"宝联路100号","lng":121.35107998261346,"lat":31.14612097902125,"确诊日期36":"k"},{"SH_ID_36":"10fqv9q","区36":"c","地址":"宝铭路88弄","lng":121.36711448853782,"lat":31.139838795017663,"确诊日期36":"h"},{"SH_ID_36":"10ga199","区36":"c","地址":"宝铭路8号","lng":121.36809448331735,"lat":31.13974576793761,"确诊日期36":"11"},{"SH_ID_36":"10ga905","区36":"c","地址":"宝铭路8号","lng":121.36809448331735,"lat":31.13974576793761,"确诊日期36":"12"},{"SH_ID_36":"10g9m5r","区36":"c","地址":"宝南路508弄","lng":121.35548284040867,"lat":31.151692257978624,"确诊日期36":"z"},{"SH_ID_36":"10g9tpg","区36":"c","地址":"宝南路508弄","lng":121.35548284040867,"lat":31.151692257978624,"确诊日期36":"10"},{"SH_ID_36":"10ga906","区36":"c","地址":"宝南路508弄","lng":121.35548284040867,"lat":31.151692257978624,"确诊日期36":"12"},{"SH_ID_36":"10ga907","区36":"c","地址":"宝南路531弄","lng":121.35711977194325,"lat":31.150181399473666,"确诊日期36":"12"},{"SH_ID_36":"10g9m5s","区36":"c","地址":"宝南路55弄","lng":121.3656316277357,"lat":31.1553856569647,"确诊日期36":"z"},{"SH_ID_36":"10g9tph","区36":"c","地址":"宝南路55弄","lng":121.3656316277357,"lat":31.1553856569647,"确诊日期36":"10"},{"SH_ID_36":"10ga908","区36":"c","地址":"宝南路55弄","lng":121.3656316277357,"lat":31.1553856569647,"确诊日期36":"12"},{"SH_ID_36":"10g9tpi","区36":"c","地址":"宝南新村","lng":121.35304691121497,"lat":31.14804411607045,"确诊日期36":"10"},{"SH_ID_36":"10g8i6f","区36":"c","地址":"宝秀路647号","lng":121.46418125479636,"lat":31.04213117923421,"确诊日期36":"u"},{"SH_ID_36":"10ga19a","区36":"c","地址":"保乐路168弄","lng":121.28958004852835,"lat":31.206735834685666,"确诊日期36":"11"},{"SH_ID_36":"10ga909","区36":"c","地址":"保乐路168弄","lng":121.28958004852835,"lat":31.206735834685666,"确诊日期36":"12"},{"SH_ID_36":"10fnv65","区36":"c","地址":"保乐路666弄","lng":121.28349827236202,"lat":31.201140449574485,"确诊日期36":"3"},{"SH_ID_36":"10g9tpj","区36":"c","地址":"保乐路666弄","lng":121.28349827236202,"lat":31.201140449574485,"确诊日期36":"10"},{"SH_ID_36":"10ga19b","区36":"c","地址":"保乐路666弄","lng":121.28349827236202,"lat":31.201140449574485,"确诊日期36":"11"},{"SH_ID_36":"10fr37r","区36":"c","地址":"报春路128弄","lng":121.3931870554747,"lat":31.126167913502467,"确诊日期36":"i"},{"SH_ID_36":"10g8i6g","区36":"c","地址":"报春路128弄","lng":121.3931870554747,"lat":31.126167913502467,"确诊日期36":"u"},{"SH_ID_36":"10g8qmd","区36":"c","地址":"报春路128弄","lng":121.3931870554747,"lat":31.126167913502467,"确诊日期36":"v"},{"SH_ID_36":"10g7uht","区36":"c","地址":"报春路218弄","lng":121.39100801531954,"lat":31.126175990788408,"确诊日期36":"r"},{"SH_ID_36":"10g8i6h","区36":"c","地址":"报春路218弄","lng":121.39100801531954,"lat":31.126175990788408,"确诊日期36":"u"},{"SH_ID_36":"10g9ec4","区36":"c","地址":"报春路218弄","lng":121.39100801531954,"lat":31.126175990788408,"确诊日期36":"y"},{"SH_ID_36":"10ga19c","区36":"c","地址":"报春路218弄","lng":121.39100801531954,"lat":31.126175990788408,"确诊日期36":"11"},{"SH_ID_36":"10fs6nf","区36":"c","地址":"报春路388弄","lng":121.3882309687766,"lat":31.125068150705964,"确诊日期36":"n"},{"SH_ID_36":"10g7uhu","区36":"c","地址":"报春路388弄","lng":121.3882309687766,"lat":31.125068150705964,"确诊日期36":"r"},{"SH_ID_36":"10g82br","区36":"c","地址":"报春路388弄","lng":121.3882309687766,"lat":31.125068150705964,"确诊日期36":"s"},{"SH_ID_36":"10g8i6i","区36":"c","地址":"报春路388弄","lng":121.3882309687766,"lat":31.125068150705964,"确诊日期36":"u"},{"SH_ID_36":"10g96ib","区36":"c","地址":"报春路388弄","lng":121.3882309687766,"lat":31.125068150705964,"确诊日期36":"x"},{"SH_ID_36":"10g9ec5","区36":"c","地址":"报春路388弄","lng":121.3882309687766,"lat":31.125068150705964,"确诊日期36":"y"},{"SH_ID_36":"10g9tpk","区36":"c","地址":"报春路388弄","lng":121.3882309687766,"lat":31.125068150705964,"确诊日期36":"10"},{"SH_ID_36":"10ga19d","区36":"c","地址":"报春路388弄","lng":121.3882309687766,"lat":31.125068150705964,"确诊日期36":"11"},{"SH_ID_36":"10ga90a","区36":"c","地址":"报春路388弄","lng":121.3882309687766,"lat":31.125068150705964,"确诊日期36":"12"},{"SH_ID_36":"10g8i6j","区36":"c","地址":"报春路399弄","lng":121.38755896954356,"lat":31.123877198588993,"确诊日期36":"u"},{"SH_ID_36":"10fnfpe","区36":"c","地址":"报春路399弄","lng":121.38755896954356,"lat":31.123877198588993,"确诊日期36":"1"},{"SH_ID_36":"10g8yci","区36":"c","地址":"报春路399弄","lng":121.38755896954356,"lat":31.123877198588993,"确诊日期36":"w"},{"SH_ID_36":"10g9ec6","区36":"c","地址":"报春路399弄","lng":121.38755896954356,"lat":31.123877198588993,"确诊日期36":"y"},{"SH_ID_36":"10g9tpl","区36":"c","地址":"报春路399弄","lng":121.38755896954356,"lat":31.123877198588993,"确诊日期36":"10"},{"SH_ID_36":"10ga19e","区36":"c","地址":"报春路399弄","lng":121.38755896954356,"lat":31.123877198588993,"确诊日期36":"11"},{"SH_ID_36":"10ga90b","区36":"c","地址":"报春路399弄","lng":121.38755896954356,"lat":31.123877198588993,"确诊日期36":"12"},{"SH_ID_36":"10g9ec7","区36":"c","地址":"报春路488弄","lng":121.38642193076473,"lat":31.124519291509557,"确诊日期36":"y"},{"SH_ID_36":"10g9m5t","区36":"c","地址":"报春路488弄","lng":121.38642193076473,"lat":31.124519291509557,"确诊日期36":"z"},{"SH_ID_36":"10g9tpm","区36":"c","地址":"报春路488弄","lng":121.38642193076473,"lat":31.124519291509557,"确诊日期36":"10"},{"SH_ID_36":"10ga19f","区36":"c","地址":"报春路488弄","lng":121.38642193076473,"lat":31.124519291509557,"确诊日期36":"11"},{"SH_ID_36":"10ga90c","区36":"c","地址":"报春路488弄","lng":121.38642193076473,"lat":31.124519291509557,"确诊日期36":"12"},{"SH_ID_36":"10fs6ng","区36":"c","地址":"报春路558弄","lng":121.38412487855284,"lat":31.123829502377525,"确诊日期36":"n"},{"SH_ID_36":"10fsefn","区36":"c","地址":"报春路558弄","lng":121.38412487855284,"lat":31.123829502377525,"确诊日期36":"o"},{"SH_ID_36":"10g8qme","区36":"c","地址":"报春路558弄","lng":121.38412487855284,"lat":31.123829502377525,"确诊日期36":"v"},{"SH_ID_36":"10g9ec8","区36":"c","地址":"报春路558弄","lng":121.38412487855284,"lat":31.123829502377525,"确诊日期36":"y"},{"SH_ID_36":"10ga90d","区36":"c","地址":"报春路558弄","lng":121.38412487855284,"lat":31.123829502377525,"确诊日期36":"12"},{"SH_ID_36":"10fsefo","区36":"c","地址":"报春路748弄","lng":121.380206800197,"lat":31.12169891864378,"确诊日期36":"o"},{"SH_ID_36":"10g8i6k","区36":"c","地址":"报春路748弄","lng":121.380206800197,"lat":31.12169891864378,"确诊日期36":"u"},{"SH_ID_36":"10fq839","区36":"c","地址":"报春路748弄","lng":121.380206800197,"lat":31.12169891864378,"确诊日期36":"e"},{"SH_ID_36":"10g9ec9","区36":"c","地址":"报春路748弄","lng":121.380206800197,"lat":31.12169891864378,"确诊日期36":"y"},{"SH_ID_36":"10g9m5u","区36":"c","地址":"报春路748弄","lng":121.380206800197,"lat":31.12169891864378,"确诊日期36":"z"},{"SH_ID_36":"10ga19g","区36":"c","地址":"报春路748弄","lng":121.380206800197,"lat":31.12169891864378,"确诊日期36":"11"},{"SH_ID_36":"10fr34q","区36":"c","地址":"报春路816弄","lng":121.37770273653695,"lat":31.121386191807886,"确诊日期36":"i"},{"SH_ID_36":"10fripd","区36":"c","地址":"报春路816弄","lng":121.37770273653695,"lat":31.121386191807886,"确诊日期36":"k"},{"SH_ID_36":"10frqr0","区36":"c","地址":"报春路816弄","lng":121.37770273653695,"lat":31.121386191807886,"确诊日期36":"l"},{"SH_ID_36":"10fryxn","区36":"c","地址":"报春路816弄","lng":121.37770273653695,"lat":31.121386191807886,"确诊日期36":"m"},{"SH_ID_36":"10fslzq","区36":"c","地址":"报春路816弄","lng":121.37770273653695,"lat":31.121386191807886,"确诊日期36":"p"},{"SH_ID_36":"10fq83a","区36":"c","地址":"报春路816弄","lng":121.37770273653695,"lat":31.121386191807886,"确诊日期36":"e"},{"SH_ID_36":"10fqfv8","区36":"c","地址":"报春路816弄","lng":121.37770273653695,"lat":31.121386191807886,"确诊日期36":"f"},{"SH_ID_36":"10fqnj4","区36":"c","地址":"报春路816弄","lng":121.37770273653695,"lat":31.121386191807886,"确诊日期36":"g"},{"SH_ID_36":"10fqv9r","区36":"c","地址":"报春路816弄","lng":121.37770273653695,"lat":31.121386191807886,"确诊日期36":"h"},{"SH_ID_36":"10g9eca","区36":"c","地址":"报春路816弄","lng":121.37770273653695,"lat":31.121386191807886,"确诊日期36":"y"},{"SH_ID_36":"10ga90e","区36":"c","地址":"报春路816弄","lng":121.37770273653695,"lat":31.121386191807886,"确诊日期36":"12"},{"SH_ID_36":"10fr34r","区36":"c","地址":"报春路817弄","lng":121.37704174072879,"lat":31.120093268873497,"确诊日期36":"i"},{"SH_ID_36":"10fripe","区36":"c","地址":"报春路817弄","lng":121.37704174072879,"lat":31.120093268873497,"确诊日期36":"k"},{"SH_ID_36":"10frqr1","区36":"c","地址":"报春路817弄","lng":121.37704174072879,"lat":31.120093268873497,"确诊日期36":"l"},{"SH_ID_36":"10g8ah3","区36":"c","地址":"报春路817弄","lng":121.37704174072879,"lat":31.120093268873497,"确诊日期36":"t"},{"SH_ID_36":"10fq0dm","区36":"c","地址":"报春路817弄","lng":121.37704174072879,"lat":31.120093268873497,"确诊日期36":"d"},{"SH_ID_36":"10fq83b","区36":"c","地址":"报春路817弄","lng":121.37704174072879,"lat":31.120093268873497,"确诊日期36":"e"},{"SH_ID_36":"10fqnj5","区36":"c","地址":"报春路817弄","lng":121.37704174072879,"lat":31.120093268873497,"确诊日期36":"g"},{"SH_ID_36":"10g9ecb","区36":"c","地址":"报春路817弄","lng":121.37704174072879,"lat":31.120093268873497,"确诊日期36":"y"},{"SH_ID_36":"10g9tpn","区36":"c","地址":"报春路817弄","lng":121.37704174072879,"lat":31.120093268873497,"确诊日期36":"10"},{"SH_ID_36":"10ga19h","区36":"c","地址":"报春路817弄","lng":121.37704174072879,"lat":31.120093268873497,"确诊日期36":"11"},{"SH_ID_36":"10fr34s","区36":"c","地址":"报春路862弄","lng":121.3746376705021,"lat":31.1209195066685,"确诊日期36":"i"},{"SH_ID_36":"10frb4z","区36":"c","地址":"报春路862弄","lng":121.3746376705021,"lat":31.1209195066685,"确诊日期36":"j"},{"SH_ID_36":"10fripf","区36":"c","地址":"报春路862弄","lng":121.3746376705021,"lat":31.1209195066685,"确诊日期36":"k"},{"SH_ID_36":"10fsefp","区36":"c","地址":"报春路862弄","lng":121.3746376705021,"lat":31.1209195066685,"确诊日期36":"o"},{"SH_ID_36":"10g96ic","区36":"c","地址":"报春路862弄","lng":121.3746376705021,"lat":31.1209195066685,"确诊日期36":"x"},{"SH_ID_36":"10g9ecc","区36":"c","地址":"报春路862弄","lng":121.3746376705021,"lat":31.1209195066685,"确诊日期36":"y"},{"SH_ID_36":"10g9tpo","区36":"c","地址":"报春路862弄","lng":121.3746376705021,"lat":31.1209195066685,"确诊日期36":"10"},{"SH_ID_36":"10ga90f","区36":"c","地址":"报春路862弄","lng":121.3746376705021,"lat":31.1209195066685,"确诊日期36":"12"},{"SH_ID_36":"10fripg","区36":"c","地址":"报春路863弄","lng":121.37561172222527,"lat":31.119024422927886,"确诊日期36":"k"},{"SH_ID_36":"10frqr2","区36":"c","地址":"报春路863弄","lng":121.37561172222527,"lat":31.119024422927886,"确诊日期36":"l"},{"SH_ID_36":"10fsefq","区36":"c","地址":"报春路863弄","lng":121.37561172222527,"lat":31.119024422927886,"确诊日期36":"o"},{"SH_ID_36":"10foq0k","区36":"c","地址":"报春路863弄","lng":121.37561172222527,"lat":31.119024422927886,"确诊日期36":"7"},{"SH_ID_36":"10fq83c","区36":"c","地址":"报春路863弄","lng":121.37561172222527,"lat":31.119024422927886,"确诊日期36":"e"},{"SH_ID_36":"10fqnj6","区36":"c","地址":"报春路863弄","lng":121.37561172222527,"lat":31.119024422927886,"确诊日期36":"g"},{"SH_ID_36":"10ga90g","区36":"c","地址":"报春路863弄","lng":121.37561172222527,"lat":31.119024422927886,"确诊日期36":"12"},{"SH_ID_36":"10frqr5","区36":"c","地址":"北翟路1444弄","lng":121.34109109800292,"lat":31.229760611754443,"确诊日期36":"l"},{"SH_ID_36":"10fryxo","区36":"c","地址":"北翟路1444弄","lng":121.34109109800292,"lat":31.229760611754443,"确诊日期36":"m"},{"SH_ID_36":"10fslzt","区36":"c","地址":"北翟路1444弄","lng":121.34109109800292,"lat":31.229760611754443,"确诊日期36":"p"},{"SH_ID_36":"10g7uhw","区36":"c","地址":"北翟路1444弄","lng":121.34109109800292,"lat":31.229760611754443,"确诊日期36":"r"},{"SH_ID_36":"10g8ah5","区36":"c","地址":"北翟路1444弄","lng":121.34109109800292,"lat":31.229760611754443,"确诊日期36":"t"},{"SH_ID_36":"10g8ycm","区36":"c","地址":"北翟路1444弄","lng":121.34109109800292,"lat":31.229760611754443,"确诊日期36":"w"},{"SH_ID_36":"10g96ie","区36":"c","地址":"北翟路1444弄","lng":121.34109109800292,"lat":31.229760611754443,"确诊日期36":"x"},{"SH_ID_36":"10g9ecg","区36":"c","地址":"北翟路1444弄","lng":121.34109109800292,"lat":31.229760611754443,"确诊日期36":"y"},{"SH_ID_36":"10ga19y","区36":"c","地址":"北翟路1444弄","lng":121.34109109800292,"lat":31.229760611754443,"确诊日期36":"11"},{"SH_ID_36":"10ga90s","区36":"c","地址":"北翟路1444弄","lng":121.34109109800292,"lat":31.229760611754443,"确诊日期36":"12"},{"SH_ID_36":"10ga19z","区36":"c","地址":"北翟路1551号","lng":121.34116704467493,"lat":31.223082580449088,"确诊日期36":"11"},{"SH_ID_36":"10fpd6i","区36":"c","地址":"北翟路1554弄","lng":121.33949008236164,"lat":31.225645499581407,"确诊日期36":"a"},{"SH_ID_36":"10g96if","区36":"c","地址":"北翟路1554弄","lng":121.33949008236164,"lat":31.225645499581407,"确诊日期36":"x"},{"SH_ID_36":"10g9ech","区36":"c","地址":"北翟路1554弄","lng":121.33949008236164,"lat":31.225645499581407,"确诊日期36":"y"},{"SH_ID_36":"10g9m62","区36":"c","地址":"北翟路1554弄","lng":121.33949008236164,"lat":31.225645499581407,"确诊日期36":"z"},{"SH_ID_36":"10g9tpy","区36":"c","地址":"北翟路1554弄","lng":121.33949008236164,"lat":31.225645499581407,"确诊日期36":"10"},{"SH_ID_36":"10ga1a0","区36":"c","地址":"北翟路1554弄","lng":121.33949008236164,"lat":31.225645499581407,"确诊日期36":"11"},{"SH_ID_36":"10g82bv","区36":"c","地址":"北翟路1555号","lng":121.33591907310239,"lat":31.222919343349663,"确诊日期36":"s"},{"SH_ID_36":"10g8i6o","区36":"c","地址":"北翟路1555号","lng":121.33591907310239,"lat":31.222919343349663,"确诊日期36":"u"},{"SH_ID_36":"10g96ig","区36":"c","地址":"北翟路1555号","lng":121.33591907310239,"lat":31.222919343349663,"确诊日期36":"x"},{"SH_ID_36":"10g9eci","区36":"c","地址":"北翟路1555号","lng":121.33591907310239,"lat":31.222919343349663,"确诊日期36":"y"},{"SH_ID_36":"10g9m63","区36":"c","地址":"北翟路1555号","lng":121.33591907310239,"lat":31.222919343349663,"确诊日期36":"z"},{"SH_ID_36":"10g9tpz","区36":"c","地址":"北翟路1555号","lng":121.33591907310239,"lat":31.222919343349663,"确诊日期36":"10"},{"SH_ID_36":"10ga1a1","区36":"c","地址":"北翟路1555号","lng":121.33591907310239,"lat":31.222919343349663,"确诊日期36":"11"},{"SH_ID_36":"10ga90t","区36":"c","地址":"北翟路1555号","lng":121.33591907310239,"lat":31.222919343349663,"确诊日期36":"12"},{"SH_ID_36":"10g9m64","区36":"c","地址":"北翟路1630弄","lng":121.33584012008104,"lat":31.226917369797885,"确诊日期36":"z"},{"SH_ID_36":"10g9tq0","区36":"c","地址":"北翟路1630弄","lng":121.33584012008104,"lat":31.226917369797885,"确诊日期36":"10"},{"SH_ID_36":"10ga1a2","区36":"c","地址":"北翟路1630弄","lng":121.33584012008104,"lat":31.226917369797885,"确诊日期36":"11"},{"SH_ID_36":"10ga90u","区36":"c","地址":"北翟路1630弄","lng":121.33584012008104,"lat":31.226917369797885,"确诊日期36":"12"},{"SH_ID_36":"10g9m65","区36":"c","地址":"北翟路1905号","lng":121.33625807633234,"lat":31.223301355120203,"确诊日期36":"z"},{"SH_ID_36":"10ga1a3","区36":"c","地址":"北翟路1905号","lng":121.33625807633234,"lat":31.223301355120203,"确诊日期36":"11"},{"SH_ID_36":"10fr37s","区36":"c","地址":"北翟路2000弄","lng":121.3313780827271,"lat":31.224921351326913,"确诊日期36":"i"},{"SH_ID_36":"10fpsne","区36":"c","地址":"北翟路2000弄","lng":121.3313780827271,"lat":31.224921351326913,"确诊日期36":"c"},{"SH_ID_36":"10ga1a4","区36":"c","地址":"北翟路2000弄","lng":121.3313780827271,"lat":31.224921351326913,"确诊日期36":"11"},{"SH_ID_36":"10g9m66","区36":"c","地址":"北翟路2000弄51支弄","lng":121.32821805069152,"lat":31.224999452103567,"确诊日期36":"z"},{"SH_ID_36":"10g9tq1","区36":"c","地址":"北翟路2000弄51支弄","lng":121.32821805069152,"lat":31.224999452103567,"确诊日期36":"10"},{"SH_ID_36":"10ga90v","区36":"c","地址":"北翟路2000弄51支弄","lng":121.32821805069152,"lat":31.224999452103567,"确诊日期36":"12"},{"SH_ID_36":"10fryxp","区36":"c","地址":"北翟路2000弄70支弄","lng":121.33477711183488,"lat":31.22611634784795,"确诊日期36":"m"},{"SH_ID_36":"10fs6nh","区36":"c","地址":"北翟路2000弄70支弄","lng":121.33477711183488,"lat":31.22611634784795,"确诊日期36":"n"},{"SH_ID_36":"10fslzu","区36":"c","地址":"北翟路2000弄70支弄","lng":121.33477711183488,"lat":31.22611634784795,"确诊日期36":"p"},{"SH_ID_36":"10g7uhx","区36":"c","地址":"北翟路2000弄70支弄","lng":121.33477711183488,"lat":31.22611634784795,"确诊日期36":"r"},{"SH_ID_36":"10g82bw","区36":"c","地址":"北翟路2000弄70支弄","lng":121.33477711183488,"lat":31.22611634784795,"确诊日期36":"s"},{"SH_ID_36":"10g8ah6","区36":"c","地址":"北翟路2000弄70支弄","lng":121.33477711183488,"lat":31.22611634784795,"确诊日期36":"t"},{"SH_ID_36":"10g8i6p","区36":"c","地址":"北翟路2000弄70支弄","lng":121.33477711183488,"lat":31.22611634784795,"确诊日期36":"u"},{"SH_ID_36":"10g8qmi","区36":"c","地址":"北翟路2000弄70支弄","lng":121.33477711183488,"lat":31.22611634784795,"确诊日期36":"v"},{"SH_ID_36":"10g8ycn","区36":"c","地址":"北翟路2000弄70支弄","lng":121.33477711183488,"lat":31.22611634784795,"确诊日期36":"w"},{"SH_ID_36":"10g96ih","区36":"c","地址":"北翟路2000弄70支弄","lng":121.33477711183488,"lat":31.22611634784795,"确诊日期36":"x"},{"SH_ID_36":"10g9m67","区36":"c","地址":"北翟路2000弄70支弄","lng":121.33477711183488,"lat":31.22611634784795,"确诊日期36":"z"},{"SH_ID_36":"10g9tq2","区36":"c","地址":"北翟路2000弄70支弄","lng":121.33477711183488,"lat":31.22611634784795,"确诊日期36":"10"},{"SH_ID_36":"10ga90w","区36":"c","地址":"北翟路2000弄70支弄","lng":121.33477711183488,"lat":31.22611634784795,"确诊日期36":"12"},{"SH_ID_36":"10frb52","区36":"c","地址":"北翟路2900弄","lng":121.32440293843088,"lat":31.22211864644021,"确诊日期36":"j"},{"SH_ID_36":"10fripj","区36":"c","地址":"北翟路2900弄","lng":121.32440293843088,"lat":31.22211864644021,"确诊日期36":"k"},{"SH_ID_36":"10fslzv","区36":"c","地址":"北翟路2900弄","lng":121.32440293843088,"lat":31.22211864644021,"确诊日期36":"p"},{"SH_ID_36":"10g9m68","区36":"c","地址":"北翟路2900弄","lng":121.32440293843088,"lat":31.22211864644021,"确诊日期36":"z"},{"SH_ID_36":"10ga1a5","区36":"c","地址":"北翟路2900弄","lng":121.32440293843088,"lat":31.22211864644021,"确诊日期36":"11"},{"SH_ID_36":"10ga90x","区36":"c","地址":"北翟路2900弄","lng":121.32440293843088,"lat":31.22211864644021,"确诊日期36":"12"},{"SH_ID_36":"10g9tq3","区36":"c","地址":"北翟路2910弄","lng":121.32257490242512,"lat":31.222053772902527,"确诊日期36":"10"},{"SH_ID_36":"10g9tq4","区36":"c","地址":"北翟路3158号","lng":121.31807581865385,"lat":31.22223011055554,"确诊日期36":"10"},{"SH_ID_36":"10ga90y","区36":"c","地址":"北翟路3158号","lng":121.31807581865385,"lat":31.22223011055554,"确诊日期36":"12"},{"SH_ID_36":"10fp5k1","区36":"c","地址":"北翟路3318弄","lng":121.31347080886454,"lat":31.225651425716784,"确诊日期36":"9"},{"SH_ID_36":"10fpsnf","区36":"c","地址":"北翟路3318弄","lng":121.31347080886454,"lat":31.225651425716784,"确诊日期36":"c"},{"SH_ID_36":"10g9ecj","区36":"c","地址":"北翟路3318弄","lng":121.31347080886454,"lat":31.225651425716784,"确诊日期36":"y"},{"SH_ID_36":"10ga1a6","区36":"c","地址":"北翟路5088弄","lng":121.29798071222267,"lat":31.205857523399924,"确诊日期36":"11"},{"SH_ID_36":"10g9tq5","区36":"c","地址":"北翟路5103弄","lng":121.29855968936653,"lat":31.20531656532141,"确诊日期36":"10"},{"SH_ID_36":"10ga1a7","区36":"c","地址":"北翟路5259弄","lng":121.29761871362857,"lat":31.20412452908894,"确诊日期36":"11"},{"SH_ID_36":"10ga90z","区36":"c","地址":"北翟路5259弄","lng":121.29761871362857,"lat":31.20412452908894,"确诊日期36":"12"},{"SH_ID_36":"10ga1a8","区36":"c","地址":"北翟新村","lng":121.41464699972364,"lat":31.113118066093694,"确诊日期36":"11"},{"SH_ID_36":"10ga910","区36":"c","地址":"北翟支路57号","lng":121.29616176348298,"lat":31.203635440624293,"确诊日期36":"12"},{"SH_ID_36":"10ga19i","区36":"c","地址":"北华路168弄","lng":121.3299081223003,"lat":31.228198407540926,"确诊日期36":"11"},{"SH_ID_36":"10g9tpp","区36":"c","地址":"北华路22弄","lng":121.3329661492283,"lat":31.228822355528287,"确诊日期36":"10"},{"SH_ID_36":"10ga19j","区36":"c","地址":"北华路22弄","lng":121.3329661492283,"lat":31.228822355528287,"确诊日期36":"11"},{"SH_ID_36":"10ga90h","区36":"c","地址":"北华路22弄","lng":121.3329661492283,"lat":31.228822355528287,"确诊日期36":"12"},{"SH_ID_36":"10g9ecd","区36":"c","地址":"北江榉路588弄","lng":121.48626579202981,"lat":31.104702133467843,"确诊日期36":"y"},{"SH_ID_36":"10g9m5v","区36":"c","地址":"北江榉路588弄","lng":121.48626579202981,"lat":31.104702133467843,"确诊日期36":"z"},{"SH_ID_36":"10ga90i","区36":"c","地址":"北江榉路588弄","lng":121.48626579202981,"lat":31.104702133467843,"确诊日期36":"12"},{"SH_ID_36":"10g9ece","区36":"c","地址":"北江榉路688弄","lng":121.48511979246041,"lat":31.10392015538107,"确诊日期36":"y"},{"SH_ID_36":"10ga19k","区36":"c","地址":"北江榉路688弄","lng":121.48511979246041,"lat":31.10392015538107,"确诊日期36":"11"},{"SH_ID_36":"10ga90j","区36":"c","地址":"北江榉路688弄","lng":121.48511979246041,"lat":31.10392015538107,"确诊日期36":"12"},{"SH_ID_36":"10fr34t","区36":"c","地址":"北江燕路228弄","lng":121.5027054299179,"lat":31.079578841503853,"确诊日期36":"i"},{"SH_ID_36":"10friph","区36":"c","地址":"北江燕路228弄","lng":121.5027054299179,"lat":31.079578841503853,"确诊日期36":"k"},{"SH_ID_36":"10frqr3","区36":"c","地址":"北江燕路228弄","lng":121.5027054299179,"lat":31.079578841503853,"确诊日期36":"l"},{"SH_ID_36":"10fsefr","区36":"c","地址":"北江燕路228弄","lng":121.5027054299179,"lat":31.079578841503853,"确诊日期36":"o"},{"SH_ID_36":"10g7mbi","区36":"c","地址":"北江燕路228弄","lng":121.5027054299179,"lat":31.079578841503853,"确诊日期36":"q"},{"SH_ID_36":"10fp5k4","区36":"c","地址":"北江燕路228弄","lng":121.5027054299179,"lat":31.079578841503853,"确诊日期36":"9"},{"SH_ID_36":"10fq0dn","区36":"c","地址":"北江燕路228弄","lng":121.5027054299179,"lat":31.079578841503853,"确诊日期36":"d"},{"SH_ID_36":"10fq83d","区36":"c","地址":"北江燕路228弄","lng":121.5027054299179,"lat":31.079578841503853,"确诊日期36":"e"},{"SH_ID_36":"10fqfv9","区36":"c","地址":"北江燕路228弄","lng":121.5027054299179,"lat":31.079578841503853,"确诊日期36":"f"},{"SH_ID_36":"10g8ycj","区36":"c","地址":"北江燕路228弄","lng":121.5027054299179,"lat":31.079578841503853,"确诊日期36":"w"},{"SH_ID_36":"10g82bs","区36":"c","地址":"北江燕路68弄","lng":121.5043234617541,"lat":31.08061069662873,"确诊日期36":"s"},{"SH_ID_36":"10g8i6l","区36":"c","地址":"北江燕路68弄","lng":121.5043234617541,"lat":31.08061069662873,"确诊日期36":"u"},{"SH_ID_36":"10g9ecf","区36":"c","地址":"北江燕路68弄","lng":121.5043234617541,"lat":31.08061069662873,"确诊日期36":"y"},{"SH_ID_36":"10g9m5w","区36":"c","地址":"北江燕路68弄","lng":121.5043234617541,"lat":31.08061069662873,"确诊日期36":"z"},{"SH_ID_36":"10fsefs","区36":"c","地址":"北街新村","lng":121.45882506725945,"lat":31.070668991745293,"确诊日期36":"o"},{"SH_ID_36":"10fslzr","区36":"c","地址":"北街新村","lng":121.45882506725945,"lat":31.070668991745293,"确诊日期36":"p"},{"SH_ID_36":"10ga19l","区36":"c","地址":"北街新村","lng":121.45882506725945,"lat":31.070668991745293,"确诊日期36":"11"},{"SH_ID_36":"10ga90k","区36":"c","地址":"北街新村","lng":121.45882506725945,"lat":31.070668991745293,"确诊日期36":"12"},{"SH_ID_36":"10g9m5x","区36":"c","地址":"北桥村","lng":121.39906102202336,"lat":31.038074411871694,"确诊日期36":"z"},{"SH_ID_36":"10ga90l","区36":"c","地址":"北桥村","lng":121.39906102202336,"lat":31.038074411871694,"确诊日期36":"12"},{"SH_ID_36":"10g9m5y","区36":"c","地址":"北桥西街","lng":121.36766653232728,"lat":31.027852692665626,"确诊日期36":"z"},{"SH_ID_36":"10g9tpq","区36":"c","地址":"北桥西街","lng":121.36766653232728,"lat":31.027852692665626,"确诊日期36":"10"},{"SH_ID_36":"10ga90m","区36":"c","地址":"北桥西街","lng":121.36766653232728,"lat":31.027852692665626,"确诊日期36":"12"},{"SH_ID_36":"10g9tpr","区36":"c","地址":"北桥中街","lng":121.37124253948623,"lat":31.02881455195986,"确诊日期36":"10"},{"SH_ID_36":"10frb50","区36":"c","地址":"北青公路2055弄58支弄","lng":121.2692975197225,"lat":31.202921316298017,"确诊日期36":"j"},{"SH_ID_36":"10ga19m","区36":"c","地址":"北青公路2115弄","lng":121.26862751483982,"lat":31.202889356338726,"确诊日期36":"11"},{"SH_ID_36":"10g9tps","区36":"c","地址":"北沈路168号","lng":121.3348581147475,"lat":31.226299349506593,"确诊日期36":"10"},{"SH_ID_36":"10ga19n","区36":"c","地址":"北沈路168号","lng":121.3348581147475,"lat":31.226299349506593,"确诊日期36":"11"},{"SH_ID_36":"10ga90n","区36":"c","地址":"北沈路168号","lng":121.3348581147475,"lat":31.226299349506593,"确诊日期36":"12"},{"SH_ID_36":"10g9tpt","区36":"c","地址":"北沈路188号","lng":121.33510811959995,"lat":31.226691355242963,"确诊日期36":"10"},{"SH_ID_36":"10fr34u","区36":"c","地址":"北沈路260弄","lng":121.33560714953802,"lat":31.229109375730307,"确诊日期36":"i"},{"SH_ID_36":"10frb51","区36":"c","地址":"北沈路260弄","lng":121.33560714953802,"lat":31.229109375730307,"确诊日期36":"j"},{"SH_ID_36":"10fripi","区36":"c","地址":"北沈路260弄","lng":121.33560714953802,"lat":31.229109375730307,"确诊日期36":"k"},{"SH_ID_36":"10frqr4","区36":"c","地址":"北沈路260弄","lng":121.33560714953802,"lat":31.229109375730307,"确诊日期36":"l"},{"SH_ID_36":"10fslzs","区36":"c","地址":"北沈路260弄","lng":121.33560714953802,"lat":31.229109375730307,"确诊日期36":"p"},{"SH_ID_36":"10g82bt","区36":"c","地址":"北沈路260弄","lng":121.33560714953802,"lat":31.229109375730307,"确诊日期36":"s"},{"SH_ID_36":"10g8ah4","区36":"c","地址":"北沈路260弄","lng":121.33560714953802,"lat":31.229109375730307,"确诊日期36":"t"},{"SH_ID_36":"10g8i6m","区36":"c","地址":"北沈路260弄","lng":121.33560714953802,"lat":31.229109375730307,"确诊日期36":"u"},{"SH_ID_36":"10fqv9s","区36":"c","地址":"北沈路260弄","lng":121.33560714953802,"lat":31.229109375730307,"确诊日期36":"h"},{"SH_ID_36":"10g8yck","区36":"c","地址":"北沈路260弄","lng":121.33560714953802,"lat":31.229109375730307,"确诊日期36":"w"},{"SH_ID_36":"10g96id","区36":"c","地址":"北沈路260弄","lng":121.33560714953802,"lat":31.229109375730307,"确诊日期36":"x"},{"SH_ID_36":"10g9m5z","区36":"c","地址":"北沈路260弄","lng":121.33560714953802,"lat":31.229109375730307,"确诊日期36":"z"},{"SH_ID_36":"10g9tpu","区36":"c","地址":"北沈路260弄","lng":121.33560714953802,"lat":31.229109375730307,"确诊日期36":"10"},{"SH_ID_36":"10ga19o","区36":"c","地址":"北沈路260弄","lng":121.33560714953802,"lat":31.229109375730307,"确诊日期36":"11"},{"SH_ID_36":"10ga90o","区36":"c","地址":"北沈路260弄","lng":121.33560714953802,"lat":31.229109375730307,"确诊日期36":"12"},{"SH_ID_36":"10g9m60","区36":"c","地址":"北沈路288弄","lng":121.33511817712603,"lat":31.23096837376059,"确诊日期36":"z"},{"SH_ID_36":"10g9tpv","区36":"c","地址":"北沈路288弄","lng":121.33511817712603,"lat":31.23096837376059,"确诊日期36":"10"},{"SH_ID_36":"10ga19p","区36":"c","地址":"北沈路288弄","lng":121.33511817712603,"lat":31.23096837376059,"确诊日期36":"11"},{"SH_ID_36":"10ga19q","区36":"c","地址":"北沈路98号","lng":121.33417013046409,"lat":31.227452349305103,"确诊日期36":"11"},{"SH_ID_36":"10ga90p","区36":"c","地址":"北沈路98号","lng":121.33417013046409,"lat":31.227452349305103,"确诊日期36":"12"},{"SH_ID_36":"10g9tpw","区36":"c","地址":"北松公路1126号","lng":121.3853488441213,"lat":31.034797530698683,"确诊日期36":"10"},{"SH_ID_36":"10ga19r","区36":"c","地址":"北松公路133弄","lng":121.40708695861547,"lat":31.04219606218704,"确诊日期36":"11"},{"SH_ID_36":"10g8qmf","区36":"c","地址":"北松公路1815弄","lng":121.37597559902711,"lat":31.029773240624003,"确诊日期36":"v"},{"SH_ID_36":"10ga19s","区36":"c","地址":"北松公路588号","lng":121.3990640280784,"lat":31.03898942257047,"确诊日期36":"11"},{"SH_ID_36":"10g9tpx","区36":"c","地址":"北松公路609号","lng":121.39900401985801,"lat":31.037740405349908,"确诊日期36":"10"},{"SH_ID_36":"10ga19t","区36":"c","地址":"北松公路609号","lng":121.39900401985801,"lat":31.037740405349908,"确诊日期36":"11"},{"SH_ID_36":"10ga90q","区36":"c","地址":"北松公路609号","lng":121.39900401985801,"lat":31.037740405349908,"确诊日期36":"12"},{"SH_ID_36":"10g8i6n","区36":"c","地址":"北松公路838弄","lng":121.38926093705713,"lat":31.03645734138567,"确诊日期36":"u"},{"SH_ID_36":"10g8qmg","区36":"c","地址":"北松公路838弄","lng":121.38926093705713,"lat":31.03645734138567,"确诊日期36":"v"},{"SH_ID_36":"10ga19u","区36":"c","地址":"北吴路343弄","lng":121.45240314554522,"lat":31.05832791238453,"确诊日期36":"11"},{"SH_ID_36":"10ga19v","区36":"c","地址":"北吴路345号","lng":121.45367815781468,"lat":31.058701873037094,"确诊日期36":"11"},{"SH_ID_36":"10ga19w","区36":"c","地址":"北吴路348号","lng":121.45475016840929,"lat":31.05880185319632,"确诊日期36":"11"},{"SH_ID_36":"10fseft","区36":"c","地址":"北吴路501弄","lng":121.44297303547977,"lat":31.052312664820484,"确诊日期36":"o"},{"SH_ID_36":"10g7mbj","区36":"c","地址":"北吴路501弄","lng":121.44297303547977,"lat":31.052312664820484,"确诊日期36":"q"},{"SH_ID_36":"10g7uhv","区36":"c","地址":"北吴路501弄","lng":121.44297303547977,"lat":31.052312664820484,"确诊日期36":"r"},{"SH_ID_36":"10g82bu","区36":"c","地址":"北吴路501弄","lng":121.44297303547977,"lat":31.052312664820484,"确诊日期36":"s"},{"SH_ID_36":"10g8qmh","区36":"c","地址":"北吴路501弄","lng":121.44297303547977,"lat":31.052312664820484,"确诊日期36":"v"},{"SH_ID_36":"10g8ycl","区36":"c","地址":"北吴路501弄","lng":121.44297303547977,"lat":31.052312664820484,"确诊日期36":"w"},{"SH_ID_36":"10ga19x","区36":"c","地址":"北吴路501弄","lng":121.44297303547977,"lat":31.052312664820484,"确诊日期36":"11"},{"SH_ID_36":"10ga90r","区36":"c","地址":"北吴路501弄","lng":121.44297303547977,"lat":31.052312664820484,"确诊日期36":"12"},{"SH_ID_36":"10g9m61","区36":"c","地址":"北徐村","lng":121.54736500063349,"lat":31.029952041185023,"确诊日期36":"z"},{"SH_ID_36":"10fryxq","区36":"c","地址":"碧江路195弄","lng":121.40493012343427,"lat":31.00347926417387,"确诊日期36":"m"},{"SH_ID_36":"10ga911","区36":"c","地址":"碧江路195弄","lng":121.40493012343427,"lat":31.00347926417387,"确诊日期36":"12"},{"SH_ID_36":"10ga1a9","区36":"c","地址":"碧江路210弄","lng":121.40199512599445,"lat":31.004975074919926,"确诊日期36":"11"},{"SH_ID_36":"10ga912","区36":"c","地址":"碧江路210弄","lng":121.40199512599445,"lat":31.004975074919926,"确诊日期36":"12"},{"SH_ID_36":"10frb53","区36":"c","地址":"碧江路401弄","lng":121.40304806991227,"lat":31.011847236098625,"确诊日期36":"j"},{"SH_ID_36":"10fripk","区36":"c","地址":"碧江路401弄","lng":121.40304806991227,"lat":31.011847236098625,"确诊日期36":"k"},{"SH_ID_36":"10fryxr","区36":"c","地址":"碧江路401弄","lng":121.40304806991227,"lat":31.011847236098625,"确诊日期36":"m"},{"SH_ID_36":"10fs6ni","区36":"c","地址":"碧江路401弄","lng":121.40304806991227,"lat":31.011847236098625,"确诊日期36":"n"},{"SH_ID_36":"10g7mbk","区36":"c","地址":"碧江路401弄","lng":121.40304806991227,"lat":31.011847236098625,"确诊日期36":"q"},{"SH_ID_36":"10g7uhy","区36":"c","地址":"碧江路401弄","lng":121.40304806991227,"lat":31.011847236098625,"确诊日期36":"r"},{"SH_ID_36":"10g8i6q","区36":"c","地址":"碧江路401弄","lng":121.40304806991227,"lat":31.011847236098625,"确诊日期36":"u"},{"SH_ID_36":"10fqnj7","区36":"c","地址":"碧江路401弄","lng":121.40304806991227,"lat":31.011847236098625,"确诊日期36":"g"},{"SH_ID_36":"10g8qmj","区36":"c","地址":"碧江路401弄","lng":121.40304806991227,"lat":31.011847236098625,"确诊日期36":"v"},{"SH_ID_36":"10g8yco","区36":"c","地址":"碧江路401弄","lng":121.40304806991227,"lat":31.011847236098625,"确诊日期36":"w"},{"SH_ID_36":"10g9m69","区36":"c","地址":"碧江路401弄","lng":121.40304806991227,"lat":31.011847236098625,"确诊日期36":"z"},{"SH_ID_36":"10g9tq6","区36":"c","地址":"碧江路402弄","lng":121.39975607028524,"lat":31.01094103223722,"确诊日期36":"10"},{"SH_ID_36":"10ga1aa","区36":"c","地址":"碧江路402弄","lng":121.39975607028524,"lat":31.01094103223722,"确诊日期36":"11"},{"SH_ID_36":"10ga913","区36":"c","地址":"碧江路402弄","lng":121.39975607028524,"lat":31.01094103223722,"确诊日期36":"12"},{"SH_ID_36":"10fr34v","区36":"c","地址":"碧江路501弄","lng":121.39990104050204,"lat":31.01499609855363,"确诊日期36":"i"},{"SH_ID_36":"10frb54","区36":"c","地址":"碧江路501弄","lng":121.39990104050204,"lat":31.01499609855363,"确诊日期36":"j"},{"SH_ID_36":"10fripl","区36":"c","地址":"碧江路501弄","lng":121.39990104050204,"lat":31.01499609855363,"确诊日期36":"k"},{"SH_ID_36":"10frqr6","区36":"c","地址":"碧江路501弄","lng":121.39990104050204,"lat":31.01499609855363,"确诊日期36":"l"},{"SH_ID_36":"10fryxs","区36":"c","地址":"碧江路501弄","lng":121.39990104050204,"lat":31.01499609855363,"确诊日期36":"m"},{"SH_ID_36":"10fs6nj","区36":"c","地址":"碧江路501弄","lng":121.39990104050204,"lat":31.01499609855363,"确诊日期36":"n"},{"SH_ID_36":"10g7mbl","区36":"c","地址":"碧江路501弄","lng":121.39990104050204,"lat":31.01499609855363,"确诊日期36":"q"},{"SH_ID_36":"10g7uhz","区36":"c","地址":"碧江路501弄","lng":121.39990104050204,"lat":31.01499609855363,"确诊日期36":"r"},{"SH_ID_36":"10g82bx","区36":"c","地址":"碧江路501弄","lng":121.39990104050204,"lat":31.01499609855363,"确诊日期36":"s"},{"SH_ID_36":"10g8i6r","区36":"c","地址":"碧江路501弄","lng":121.39990104050204,"lat":31.01499609855363,"确诊日期36":"u"},{"SH_ID_36":"10fqv9t","区36":"c","地址":"碧江路501弄","lng":121.39990104050204,"lat":31.01499609855363,"确诊日期36":"h"},{"SH_ID_36":"10g8qmk","区36":"c","地址":"碧江路501弄","lng":121.39990104050204,"lat":31.01499609855363,"确诊日期36":"v"},{"SH_ID_36":"10g8ycp","区36":"c","地址":"碧江路501弄","lng":121.39990104050204,"lat":31.01499609855363,"确诊日期36":"w"},{"SH_ID_36":"10g9m6a","区36":"c","地址":"碧江路501弄","lng":121.39990104050204,"lat":31.01499609855363,"确诊日期36":"z"},{"SH_ID_36":"10ga1ab","区36":"c","地址":"碧江路501弄","lng":121.39990104050204,"lat":31.01499609855363,"确诊日期36":"11"},{"SH_ID_36":"10ga914","区36":"c","地址":"碧江路501弄","lng":121.39990104050204,"lat":31.01499609855363,"确诊日期36":"12"},{"SH_ID_36":"10frb55","区36":"c","地址":"碧江路502弄","lng":121.39957703930207,"lat":31.014874081763786,"确诊日期36":"j"},{"SH_ID_36":"10fryxt","区36":"c","地址":"碧江路502弄","lng":121.39957703930207,"lat":31.014874081763786,"确诊日期36":"m"},{"SH_ID_36":"10fs6nk","区36":"c","地址":"碧江路502弄","lng":121.39957703930207,"lat":31.014874081763786,"确诊日期36":"n"},{"SH_ID_36":"10g82by","区36":"c","地址":"碧江路502弄","lng":121.39957703930207,"lat":31.014874081763786,"确诊日期36":"s"},{"SH_ID_36":"10g8i6s","区36":"c","地址":"碧江路502弄","lng":121.39957703930207,"lat":31.014874081763786,"确诊日期36":"u"},{"SH_ID_36":"10g9m6b","区36":"c","地址":"碧江路502弄","lng":121.39957703930207,"lat":31.014874081763786,"确诊日期36":"z"},{"SH_ID_36":"10fs6nl","区36":"c","地址":"碧秀路98弄","lng":121.38454207118602,"lat":31.1132694864524,"确诊日期36":"n"},{"SH_ID_36":"10fsefu","区36":"c","地址":"碧秀路98弄","lng":121.38454207118602,"lat":31.1132694864524,"确诊日期36":"o"},{"SH_ID_36":"10fslzw","区36":"c","地址":"碧秀路98弄","lng":121.38454207118602,"lat":31.1132694864524,"确诊日期36":"p"},{"SH_ID_36":"10g7ui0","区36":"c","地址":"碧秀路98弄","lng":121.38454207118602,"lat":31.1132694864524,"确诊日期36":"r"},{"SH_ID_36":"10g8i6t","区36":"c","地址":"碧秀路98弄","lng":121.38454207118602,"lat":31.1132694864524,"确诊日期36":"u"},{"SH_ID_36":"10g8ycq","区36":"c","地址":"碧秀路98弄","lng":121.38454207118602,"lat":31.1132694864524,"确诊日期36":"w"},{"SH_ID_36":"10g96ii","区36":"c","地址":"碧秀路98弄","lng":121.38454207118602,"lat":31.1132694864524,"确诊日期36":"x"},{"SH_ID_36":"10g9eck","区36":"c","地址":"碧秀路98弄","lng":121.38454207118602,"lat":31.1132694864524,"确诊日期36":"y"},{"SH_ID_36":"10g9m6c","区36":"c","地址":"碧秀路98弄","lng":121.38454207118602,"lat":31.1132694864524,"确诊日期36":"z"},{"SH_ID_36":"10ga1ac","区36":"c","地址":"碧秀路98弄","lng":121.38454207118602,"lat":31.1132694864524,"确诊日期36":"11"},{"SH_ID_36":"10ga915","区36":"c","地址":"碧秀路98弄","lng":121.38454207118602,"lat":31.1132694864524,"确诊日期36":"12"},{"SH_ID_36":"10g9tq7","区36":"c","地址":"宾川路200弄","lng":121.41299003877025,"lat":31.005251029646807,"确诊日期36":"10"},{"SH_ID_36":"10fripm","区36":"c","地址":"宾川路380弄","lng":121.41175005175474,"lat":31.00489690661572,"确诊日期36":"k"},{"SH_ID_36":"10fryxu","区36":"c","地址":"宾川路380弄","lng":121.41175005175474,"lat":31.00489690661572,"确诊日期36":"m"},{"SH_ID_36":"10fs6nm","区36":"c","地址":"宾川路380弄","lng":121.41175005175474,"lat":31.00489690661572,"确诊日期36":"n"},{"SH_ID_36":"10g8i6u","区36":"c","地址":"宾川路380弄","lng":121.41175005175474,"lat":31.00489690661572,"确诊日期36":"u"},{"SH_ID_36":"10fqv9u","区36":"c","地址":"宾川路380弄","lng":121.41175005175474,"lat":31.00489690661572,"确诊日期36":"h"},{"SH_ID_36":"10g8qml","区36":"c","地址":"宾川路380弄","lng":121.41175005175474,"lat":31.00489690661572,"确诊日期36":"v"},{"SH_ID_36":"10g9tq8","区36":"c","地址":"宾川路380弄","lng":121.41175005175474,"lat":31.00489690661572,"确诊日期36":"10"},{"SH_ID_36":"10ga916","区36":"c","地址":"滨浦八村","lng":121.38170900028216,"lat":31.11281279017556,"确诊日期36":"12"},{"SH_ID_36":"10ga917","区36":"c","地址":"滨浦九村","lng":121.49231807884532,"lat":31.062895579379536,"确诊日期36":"12"},{"SH_ID_36":"10g9m6d","区36":"c","地址":"沧源路588弄","lng":121.42948309806631,"lat":31.009925765852593,"确诊日期36":"z"},{"SH_ID_36":"10ga918","区36":"c","地址":"沧源路588弄","lng":121.42948309806631,"lat":31.009925765852593,"确诊日期36":"12"},{"SH_ID_36":"10fqfva","区36":"c","地址":"沧源路660弄","lng":121.42899709989624,"lat":31.012041804605147,"确诊日期36":"f"},{"SH_ID_36":"10fr34w","区36":"c","地址":"沧源路755弄","lng":121.42945411587544,"lat":31.014962822488897,"确诊日期36":"i"},{"SH_ID_36":"10frb56","区36":"c","地址":"沧源路755弄","lng":121.42945411587544,"lat":31.014962822488897,"确诊日期36":"j"},{"SH_ID_36":"10frqr7","区36":"c","地址":"沧源路755弄","lng":121.42945411587544,"lat":31.014962822488897,"确诊日期36":"l"},{"SH_ID_36":"10g7mbm","区36":"c","地址":"沧源路755弄","lng":121.42945411587544,"lat":31.014962822488897,"确诊日期36":"q"},{"SH_ID_36":"10g8i6v","区36":"c","地址":"沧源路755弄","lng":121.42945411587544,"lat":31.014962822488897,"确诊日期36":"u"},{"SH_ID_36":"10g8ycr","区36":"c","地址":"沧源路755弄","lng":121.42945411587544,"lat":31.014962822488897,"确诊日期36":"w"},{"SH_ID_36":"10g9ecl","区36":"c","地址":"沧源路755弄","lng":121.42945411587544,"lat":31.014962822488897,"确诊日期36":"y"},{"SH_ID_36":"10ga1ad","区36":"c","地址":"沧源路755弄","lng":121.42945411587544,"lat":31.014962822488897,"确诊日期36":"11"},{"SH_ID_36":"10ga919","区36":"c","地址":"沧源路755弄","lng":121.42945411587544,"lat":31.014962822488897,"确诊日期36":"12"},{"SH_ID_36":"10ga1ae","区36":"c","地址":"沧源路770弄","lng":121.42818009120192,"lat":31.01458585517345,"确诊日期36":"11"},{"SH_ID_36":"10fr34x","区36":"c","地址":"曹家塘路220弄","lng":121.44600630337115,"lat":31.041641415647202,"确诊日期36":"i"},{"SH_ID_36":"10fripo","区36":"c","地址":"曹家塘路220弄","lng":121.44600630337115,"lat":31.041641415647202,"确诊日期36":"k"},{"SH_ID_36":"10frqr8","区36":"c","地址":"曹家塘路220弄","lng":121.44600630337115,"lat":31.041641415647202,"确诊日期36":"l"},{"SH_ID_36":"10fqnj8","区36":"c","地址":"曹家塘路220弄","lng":121.44600630337115,"lat":31.041641415647202,"确诊日期36":"g"},{"SH_ID_36":"10g8qmn","区36":"c","地址":"曹家塘路220弄","lng":121.44600630337115,"lat":31.041641415647202,"确诊日期36":"v"},{"SH_ID_36":"10g8yct","区36":"c","地址":"曹家塘路220弄","lng":121.44600630337115,"lat":31.041641415647202,"确诊日期36":"w"},{"SH_ID_36":"10fripp","区36":"c","地址":"曹家塘路299弄","lng":121.44499028956595,"lat":31.041106516404,"确诊日期36":"k"},{"SH_ID_36":"10fq83e","区36":"c","地址":"曹家塘路390弄","lng":121.44336720616971,"lat":31.043677667364758,"确诊日期36":"e"},{"SH_ID_36":"10g9tqb","区36":"c","地址":"曹家塘路390弄","lng":121.44336720616971,"lat":31.043677667364758,"确诊日期36":"10"},{"SH_ID_36":"10ga1ag","区36":"c","地址":"曹家塘路390弄","lng":121.44336720616971,"lat":31.043677667364758,"确诊日期36":"11"},{"SH_ID_36":"10ga91b","区36":"c","地址":"曹家塘路390弄","lng":121.44336720616971,"lat":31.043677667364758,"确诊日期36":"12"},{"SH_ID_36":"10fr37t","区36":"c","地址":"曹家塘路399弄","lng":121.44280918165171,"lat":31.0442157236245,"确诊日期36":"i"},{"SH_ID_36":"10fsefw","区36":"c","地址":"曹家塘路399弄","lng":121.44280918165171,"lat":31.0442157236245,"确诊日期36":"o"},{"SH_ID_36":"10g7ui1","区36":"c","地址":"曹家塘路399弄","lng":121.44280918165171,"lat":31.0442157236245,"确诊日期36":"r"},{"SH_ID_36":"10g82c0","区36":"c","地址":"曹家塘路399弄","lng":121.44280918165171,"lat":31.0442157236245,"确诊日期36":"s"},{"SH_ID_36":"10g8ycu","区36":"c","地址":"曹家塘路399弄","lng":121.44280918165171,"lat":31.0442157236245,"确诊日期36":"w"},{"SH_ID_36":"10fs6no","区36":"c","地址":"曹建路201弄","lng":121.43837366144508,"lat":31.09147805803859,"确诊日期36":"n"},{"SH_ID_36":"10fslzy","区36":"c","地址":"曹建路201弄","lng":121.43837366144508,"lat":31.09147805803859,"确诊日期36":"p"},{"SH_ID_36":"10g8ycv","区36":"c","地址":"曹建路201弄","lng":121.43837366144508,"lat":31.09147805803859,"确诊日期36":"w"},{"SH_ID_36":"10ga1ah","区36":"c","地址":"曹建路201弄","lng":121.43837366144508,"lat":31.09147805803859,"确诊日期36":"11"},{"SH_ID_36":"10g9m6f","区36":"c","地址":"曹建路220弄","lng":121.43706664110428,"lat":31.091847163076096,"确诊日期36":"z"},{"SH_ID_36":"10ga91c","区36":"c","地址":"曹建路230弄","lng":121.43620862499402,"lat":31.09171422880961,"确诊日期36":"12"},{"SH_ID_36":"10ga1ai","区36":"c","地址":"曹建路89号","lng":121.43893967603843,"lat":31.0918290125543,"确诊日期36":"11"},{"SH_ID_36":"10ga1aj","区36":"c","地址":"曹联路118号","lng":121.43971999512294,"lat":31.10985902360239,"确诊日期36":"11"},{"SH_ID_36":"10frb57","区36":"c","地址":"曹行村","lng":121.44556986167586,"lat":31.0955585281778,"确诊日期36":"j"},{"SH_ID_36":"10fripn","区36":"c","地址":"曹行村","lng":121.44556986167586,"lat":31.0955585281778,"确诊日期36":"k"},{"SH_ID_36":"10fs6nn","区36":"c","地址":"曹行村","lng":121.44556986167586,"lat":31.0955585281778,"确诊日期36":"n"},{"SH_ID_36":"10fsefv","区36":"c","地址":"曹行村","lng":121.44556986167586,"lat":31.0955585281778,"确诊日期36":"o"},{"SH_ID_36":"10fslzx","区36":"c","地址":"曹行村","lng":121.44556986167586,"lat":31.0955585281778,"确诊日期36":"p"},{"SH_ID_36":"10g7mbn","区36":"c","地址":"曹行村","lng":121.44556986167586,"lat":31.0955585281778,"确诊日期36":"q"},{"SH_ID_36":"10g82bz","区36":"c","地址":"曹行村","lng":121.44556986167586,"lat":31.0955585281778,"确诊日期36":"s"},{"SH_ID_36":"10g8ah7","区36":"c","地址":"曹行村","lng":121.44556986167586,"lat":31.0955585281778,"确诊日期36":"t"},{"SH_ID_36":"10g8i6w","区36":"c","地址":"曹行村","lng":121.44556986167586,"lat":31.0955585281778,"确诊日期36":"u"},{"SH_ID_36":"10fqfvb","区36":"c","地址":"曹行村","lng":121.44556986167586,"lat":31.0955585281778,"确诊日期36":"f"},{"SH_ID_36":"10g8qmm","区36":"c","地址":"曹行村","lng":121.44556986167586,"lat":31.0955585281778,"确诊日期36":"v"},{"SH_ID_36":"10g8ycs","区36":"c","地址":"曹行村","lng":121.44556986167586,"lat":31.0955585281778,"确诊日期36":"w"},{"SH_ID_36":"10g96ij","区36":"c","地址":"曹行村","lng":121.44556986167586,"lat":31.0955585281778,"确诊日期36":"x"},{"SH_ID_36":"10g9ecm","区36":"c","地址":"曹行村","lng":121.44556986167586,"lat":31.0955585281778,"确诊日期36":"y"},{"SH_ID_36":"10g9m6e","区36":"c","地址":"曹行村","lng":121.44556986167586,"lat":31.0955585281778,"确诊日期36":"z"},{"SH_ID_36":"10g9tq9","区36":"c","地址":"曹行村","lng":121.44556986167586,"lat":31.0955585281778,"确诊日期36":"10"},{"SH_ID_36":"10ga1af","区36":"c","地址":"曹行村","lng":121.44556986167586,"lat":31.0955585281778,"确诊日期36":"11"},{"SH_ID_36":"10ga91a","区36":"c","地址":"曹行村","lng":121.44556986167586,"lat":31.0955585281778,"确诊日期36":"12"},{"SH_ID_36":"10g9tqa","区36":"c","地址":"曹行支路81弄","lng":121.43784864413152,"lat":31.090865099892746,"确诊日期36":"10"},{"SH_ID_36":"10fr34y","区36":"c","地址":"曹中村","lng":121.43297054968617,"lat":31.08856446266446,"确诊日期36":"i"},{"SH_ID_36":"10fripq","区36":"c","地址":"曹中村","lng":121.43297054968617,"lat":31.08856446266446,"确诊日期36":"k"},{"SH_ID_36":"10frqr9","区36":"c","地址":"曹中村","lng":121.43297054968617,"lat":31.08856446266446,"确诊日期36":"l"},{"SH_ID_36":"10fryxv","区36":"c","地址":"曹中村","lng":121.43297054968617,"lat":31.08856446266446,"确诊日期36":"m"},{"SH_ID_36":"10fs6np","区36":"c","地址":"曹中村","lng":121.43297054968617,"lat":31.08856446266446,"确诊日期36":"n"},{"SH_ID_36":"10fsefx","区36":"c","地址":"曹中村","lng":121.43297054968617,"lat":31.08856446266446,"确诊日期36":"o"},{"SH_ID_36":"10fslzz","区36":"c","地址":"曹中村","lng":121.43297054968617,"lat":31.08856446266446,"确诊日期36":"p"},{"SH_ID_36":"10g7mbo","区36":"c","地址":"曹中村","lng":121.43297054968617,"lat":31.08856446266446,"确诊日期36":"q"},{"SH_ID_36":"10g7ui2","区36":"c","地址":"曹中村","lng":121.43297054968617,"lat":31.08856446266446,"确诊日期36":"r"},{"SH_ID_36":"10g82c1","区36":"c","地址":"曹中村","lng":121.43297054968617,"lat":31.08856446266446,"确诊日期36":"s"},{"SH_ID_36":"10g8ah8","区36":"c","地址":"曹中村","lng":121.43297054968617,"lat":31.08856446266446,"确诊日期36":"t"},{"SH_ID_36":"10g8i6x","区36":"c","地址":"曹中村","lng":121.43297054968617,"lat":31.08856446266446,"确诊日期36":"u"},{"SH_ID_36":"10fqnj9","区36":"c","地址":"曹中村","lng":121.43297054968617,"lat":31.08856446266446,"确诊日期36":"g"},{"SH_ID_36":"10g8qmo","区36":"c","地址":"曹中村","lng":121.43297054968617,"lat":31.08856446266446,"确诊日期36":"v"},{"SH_ID_36":"10g8ycw","区36":"c","地址":"曹中村","lng":121.43297054968617,"lat":31.08856446266446,"确诊日期36":"w"},{"SH_ID_36":"10g96ik","区36":"c","地址":"曹中村","lng":121.43297054968617,"lat":31.08856446266446,"确诊日期36":"x"},{"SH_ID_36":"10g9ecn","区36":"c","地址":"曹中村","lng":121.43297054968617,"lat":31.08856446266446,"确诊日期36":"y"},{"SH_ID_36":"10g9m6g","区36":"c","地址":"曹中村","lng":121.43297054968617,"lat":31.08856446266446,"确诊日期36":"z"},{"SH_ID_36":"10g9tqc","区36":"c","地址":"曹中村","lng":121.43297054968617,"lat":31.08856446266446,"确诊日期36":"10"},{"SH_ID_36":"10ga1ak","区36":"c","地址":"曹中村","lng":121.43297054968617,"lat":31.08856446266446,"确诊日期36":"11"},{"SH_ID_36":"10ga91d","区36":"c","地址":"曹中村","lng":121.43297054968617,"lat":31.08856446266446,"确诊日期36":"12"},{"SH_ID_36":"10ga1al","区36":"c","地址":"漕宝路1088号","lng":121.39926903879778,"lat":31.160423445113608,"确诊日期36":"11"},{"SH_ID_36":"10g8i6y","区36":"c","地址":"漕宝路1158弄","lng":121.39844203889697,"lat":31.160097401871056,"确诊日期36":"u"},{"SH_ID_36":"10g8qmp","区36":"c","地址":"漕宝路1158弄","lng":121.39844203889697,"lat":31.160097401871056,"确诊日期36":"v"},{"SH_ID_36":"10ga1am","区36":"c","地址":"漕宝路1158弄","lng":121.39844203889697,"lat":31.160097401871056,"确诊日期36":"11"},{"SH_ID_36":"10fripr","区36":"c","地址":"漕宝路1243号","lng":121.39355403078834,"lat":31.160139290428376,"确诊日期36":"k"},{"SH_ID_36":"10fryxw","区36":"c","地址":"漕宝路1243号","lng":121.39355403078834,"lat":31.160139290428376,"确诊日期36":"m"},{"SH_ID_36":"10fsefy","区36":"c","地址":"漕宝路1243号","lng":121.39355403078834,"lat":31.160139290428376,"确诊日期36":"o"},{"SH_ID_36":"10g8ah9","区36":"c","地址":"漕宝路1243号","lng":121.39355403078834,"lat":31.160139290428376,"确诊日期36":"t"},{"SH_ID_36":"10fr34z","区36":"c","地址":"漕宝路1467弄","lng":121.38361889457158,"lat":31.160701684126987,"确诊日期36":"i"},{"SH_ID_36":"10frb58","区36":"c","地址":"漕宝路1467弄","lng":121.38361889457158,"lat":31.160701684126987,"确诊日期36":"j"},{"SH_ID_36":"10frips","区36":"c","地址":"漕宝路1467弄","lng":121.38361889457158,"lat":31.160701684126987,"确诊日期36":"k"},{"SH_ID_36":"10frqra","区36":"c","地址":"漕宝路1467弄","lng":121.38361889457158,"lat":31.160701684126987,"确诊日期36":"l"},{"SH_ID_36":"10fs6nq","区36":"c","地址":"漕宝路1467弄","lng":121.38361889457158,"lat":31.160701684126987,"确诊日期36":"n"},{"SH_ID_36":"10fsm00","区36":"c","地址":"漕宝路1467弄","lng":121.38361889457158,"lat":31.160701684126987,"确诊日期36":"p"},{"SH_ID_36":"10g7mbp","区36":"c","地址":"漕宝路1467弄","lng":121.38361889457158,"lat":31.160701684126987,"确诊日期36":"q"},{"SH_ID_36":"10g7ui3","区36":"c","地址":"漕宝路1467弄","lng":121.38361889457158,"lat":31.160701684126987,"确诊日期36":"r"},{"SH_ID_36":"10g8aha","区36":"c","地址":"漕宝路1467弄","lng":121.38361889457158,"lat":31.160701684126987,"确诊日期36":"t"},{"SH_ID_36":"10g8i6z","区36":"c","地址":"漕宝路1467弄","lng":121.38361889457158,"lat":31.160701684126987,"确诊日期36":"u"},{"SH_ID_36":"10fqnja","区36":"c","地址":"漕宝路1467弄","lng":121.38361889457158,"lat":31.160701684126987,"确诊日期36":"g"},{"SH_ID_36":"10g8qmq","区36":"c","地址":"漕宝路1467弄","lng":121.38361889457158,"lat":31.160701684126987,"确诊日期36":"v"},{"SH_ID_36":"10g8ycx","区36":"c","地址":"漕宝路1467弄","lng":121.38361889457158,"lat":31.160701684126987,"确诊日期36":"w"},{"SH_ID_36":"10g96il","区36":"c","地址":"漕宝路1467弄","lng":121.38361889457158,"lat":31.160701684126987,"确诊日期36":"x"},{"SH_ID_36":"10g9eco","区36":"c","地址":"漕宝路1467弄","lng":121.38361889457158,"lat":31.160701684126987,"确诊日期36":"y"},{"SH_ID_36":"10g9m6h","区36":"c","地址":"漕宝路1467弄","lng":121.38361889457158,"lat":31.160701684126987,"确诊日期36":"z"},{"SH_ID_36":"10g9tqd","区36":"c","地址":"漕宝路1467弄","lng":121.38361889457158,"lat":31.160701684126987,"确诊日期36":"10"},{"SH_ID_36":"10ga1an","区36":"c","地址":"漕宝路1467弄","lng":121.38361889457158,"lat":31.160701684126987,"确诊日期36":"11"},{"SH_ID_36":"10ga91e","区36":"c","地址":"漕宝路1467弄","lng":121.38361889457158,"lat":31.160701684126987,"确诊日期36":"12"},{"SH_ID_36":"10fript","区36":"c","地址":"漕宝路1508弄","lng":121.38440983991711,"lat":31.15591059926971,"确诊日期36":"k"},{"SH_ID_36":"10frqrb","区36":"c","地址":"漕宝路1508弄","lng":121.38440983991711,"lat":31.15591059926971,"确诊日期36":"l"},{"SH_ID_36":"10fsefz","区36":"c","地址":"漕宝路1508弄","lng":121.38440983991711,"lat":31.15591059926971,"确诊日期36":"o"},{"SH_ID_36":"10g7mbq","区36":"c","地址":"漕宝路1508弄","lng":121.38440983991711,"lat":31.15591059926971,"确诊日期36":"q"},{"SH_ID_36":"10g8i70","区36":"c","地址":"漕宝路1508弄","lng":121.38440983991711,"lat":31.15591059926971,"确诊日期36":"u"},{"SH_ID_36":"10foia4","区36":"c","地址":"漕宝路1508弄","lng":121.38440983991711,"lat":31.15591059926971,"确诊日期36":"6"},{"SH_ID_36":"10g8qmr","区36":"c","地址":"漕宝路1508弄","lng":121.38440983991711,"lat":31.15591059926971,"确诊日期36":"v"},{"SH_ID_36":"10g8ycy","区36":"c","地址":"漕宝路1508弄","lng":121.38440983991711,"lat":31.15591059926971,"确诊日期36":"w"},{"SH_ID_36":"10g96im","区36":"c","地址":"漕宝路1508弄","lng":121.38440983991711,"lat":31.15591059926971,"确诊日期36":"x"},{"SH_ID_36":"10g9m6i","区36":"c","地址":"漕宝路1508弄","lng":121.38440983991711,"lat":31.15591059926971,"确诊日期36":"z"},{"SH_ID_36":"10g9tqe","区36":"c","地址":"漕宝路1508弄","lng":121.38440983991711,"lat":31.15591059926971,"确诊日期36":"10"},{"SH_ID_36":"10ga1ao","区36":"c","地址":"漕宝路1508弄","lng":121.38440983991711,"lat":31.15591059926971,"确诊日期36":"11"},{"SH_ID_36":"10fryxx","区36":"c","地址":"漕宝路1555号","lng":121.3774868097222,"lat":31.162597147828482,"确诊日期36":"m"},{"SH_ID_36":"10fs6nr","区36":"c","地址":"漕宝路1555号","lng":121.3774868097222,"lat":31.162597147828482,"确诊日期36":"n"},{"SH_ID_36":"10g9tqf","区36":"c","地址":"漕宝路1555号","lng":121.3774868097222,"lat":31.162597147828482,"确诊日期36":"10"},{"SH_ID_36":"10g8ahb","区36":"c","地址":"漕宝路1555弄","lng":121.37666978726736,"lat":31.162141204912217,"确诊日期36":"t"},{"SH_ID_36":"10g8i71","区36":"c","地址":"漕宝路1555弄","lng":121.37666978726736,"lat":31.162141204912217,"确诊日期36":"u"},{"SH_ID_36":"10g9tqg","区36":"c","地址":"漕宝路1555弄","lng":121.37666978726736,"lat":31.162141204912217,"确诊日期36":"10"},{"SH_ID_36":"10g9m6j","区36":"c","地址":"漕宝路1565弄","lng":121.37563871288317,"lat":31.158763268305396,"确诊日期36":"z"},{"SH_ID_36":"10g9tqh","区36":"c","地址":"漕宝路1565弄","lng":121.37563871288317,"lat":31.158763268305396,"确诊日期36":"10"},{"SH_ID_36":"10ga1ap","区36":"c","地址":"漕宝路1565弄","lng":121.37563871288317,"lat":31.158763268305396,"确诊日期36":"11"},{"SH_ID_36":"10ga91f","区36":"c","地址":"漕宝路1565弄","lng":121.37563871288317,"lat":31.158763268305396,"确诊日期36":"12"},{"SH_ID_36":"10g9m6k","区36":"c","地址":"漕宝路1800弄","lng":121.36860963163569,"lat":31.15694761506581,"确诊日期36":"z"},{"SH_ID_36":"10g9tqi","区36":"c","地址":"漕宝路1911弄","lng":121.36449468869664,"lat":31.159118627284727,"确诊日期36":"10"},{"SH_ID_36":"10ga1aq","区36":"c","地址":"漕宝路1911弄","lng":121.36449468869664,"lat":31.159118627284727,"确诊日期36":"11"},{"SH_ID_36":"10fq83f","区36":"c","地址":"柴塘北路38号","lng":121.29487495471969,"lat":31.22561008288955,"确诊日期36":"e"},{"SH_ID_36":"10g9m6l","区36":"c","地址":"昌林路168号","lng":121.52256219980534,"lat":31.065059642659,"确诊日期36":"z"},{"SH_ID_36":"10g9tqj","区36":"c","地址":"昌林路168号","lng":121.52256219980534,"lat":31.065059642659,"确诊日期36":"10"},{"SH_ID_36":"10fr37u","区36":"c","地址":"昌林路430号","lng":121.51779432068389,"lat":31.064910398529467,"确诊日期36":"i"},{"SH_ID_36":"10fripu","区36":"c","地址":"昌林路430号","lng":121.51779432068389,"lat":31.064910398529467,"确诊日期36":"k"},{"SH_ID_36":"10fryxy","区36":"c","地址":"昌林路430号","lng":121.51779432068389,"lat":31.064910398529467,"确诊日期36":"m"},{"SH_ID_36":"10fnv5l","区36":"c","地址":"昌林路430号","lng":121.51779432068389,"lat":31.064910398529467,"确诊日期36":"3"},{"SH_ID_36":"10foq1x","区36":"c","地址":"昌林路430号","lng":121.51779432068389,"lat":31.064910398529467,"确诊日期36":"7"},{"SH_ID_36":"10foxsr","区36":"c","地址":"昌林路430号","lng":121.51779432068389,"lat":31.064910398529467,"确诊日期36":"8"},{"SH_ID_36":"10fq83g","区36":"c","地址":"昌林路430号","lng":121.51779432068389,"lat":31.064910398529467,"确诊日期36":"e"},{"SH_ID_36":"10g96in","区36":"c","地址":"昌林路430号","lng":121.51779432068389,"lat":31.064910398529467,"确诊日期36":"x"},{"SH_ID_36":"10ga91g","区36":"c","地址":"昌林路430号","lng":121.51779432068389,"lat":31.064910398529467,"确诊日期36":"12"},{"SH_ID_36":"10fqnjb","区36":"c","地址":"昌林路430弄","lng":121.51803131596121,"lat":31.06489540710855,"确诊日期36":"g"},{"SH_ID_36":"10g9tqk","区36":"c","地址":"昌林路68弄","lng":121.52496712908564,"lat":31.066295806842355,"确诊日期36":"10"},{"SH_ID_36":"10ga1ar","区36":"c","地址":"车沟村","lng":121.4572879824064,"lat":31.083432131009467,"确诊日期36":"11"},{"SH_ID_36":"10ga91h","区36":"c","地址":"车沟村","lng":121.4572879824064,"lat":31.083432131009467,"确诊日期36":"12"},{"SH_ID_36":"10fnfq9","区36":"c","地址":"陈南路386号","lng":121.50067933932138,"lat":31.089953007317852,"确诊日期36":"1"},{"SH_ID_36":"10ga1as","区36":"c","地址":"陈行公路552号","lng":121.5281671227494,"lat":31.116323479495378,"确诊日期36":"11"},{"SH_ID_36":"10g9tql","区36":"c","地址":"程家桥路168弄","lng":121.37246812678934,"lat":31.187043609922014,"确诊日期36":"10"},{"SH_ID_36":"10ga91i","区36":"c","地址":"程家桥路185号","lng":121.37350214931163,"lat":31.18713755201435,"确诊日期36":"12"},{"SH_ID_36":"10g9tqm","区36":"c","地址":"程家桥路211弄","lng":121.37412315786737,"lat":31.18680151052227,"确诊日期36":"10"},{"SH_ID_36":"10ga1at","区36":"c","地址":"程家桥路211弄","lng":121.37412315786737,"lat":31.18680151052227,"确诊日期36":"11"},{"SH_ID_36":"10g9tqn","区36":"c","地址":"程家桥路218弄","lng":121.37407214603375,"lat":31.185775506377592,"确诊日期36":"10"},{"SH_ID_36":"10ga1au","区36":"c","地址":"程家桥路269弄","lng":121.37579218568389,"lat":31.186027392352884,"确诊日期36":"11"},{"SH_ID_36":"10ga91j","区36":"c","地址":"程家桥路288号","lng":121.37610917624673,"lat":31.184742361768294,"确诊日期36":"12"},{"SH_ID_36":"10g9tqo","区36":"c","地址":"程家桥路64号","lng":121.37372214558106,"lat":31.186425532378248,"确诊日期36":"10"},{"SH_ID_36":"10fqv9v","区36":"c","地址":"澄江路1290号","lng":121.4412816610473,"lat":31.081498792914232,"确诊日期36":"h"},{"SH_ID_36":"10g9m6m","区36":"c","地址":"澄江路1290号","lng":121.4412816610473,"lat":31.081498792914232,"确诊日期36":"z"},{"SH_ID_36":"10g9tqp","区36":"c","地址":"澄江路1290号","lng":121.4412816610473,"lat":31.081498792914232,"确诊日期36":"10"},{"SH_ID_36":"10ga1av","区36":"c","地址":"澄江路1290号","lng":121.4412816610473,"lat":31.081498792914232,"确诊日期36":"11"},{"SH_ID_36":"10fs6ns","区36":"c","地址":"澄江路1290弄","lng":121.44153067100912,"lat":31.083191773422918,"确诊日期36":"n"},{"SH_ID_36":"10fseg0","区36":"c","地址":"澄江路1290弄","lng":121.44153067100912,"lat":31.083191773422918,"确诊日期36":"o"},{"SH_ID_36":"10g7ui4","区36":"c","地址":"澄江路1290弄","lng":121.44153067100912,"lat":31.083191773422918,"确诊日期36":"r"},{"SH_ID_36":"10g8ycz","区36":"c","地址":"澄江路1290弄","lng":121.44153067100912,"lat":31.083191773422918,"确诊日期36":"w"},{"SH_ID_36":"10g9m6n","区36":"c","地址":"澄江路1290弄","lng":121.44153067100912,"lat":31.083191773422918,"确诊日期36":"z"},{"SH_ID_36":"10ga91k","区36":"c","地址":"澄江路1290弄","lng":121.44153067100912,"lat":31.083191773422918,"确诊日期36":"12"},{"SH_ID_36":"10g9ecp","区36":"c","地址":"澄江路1322号","lng":121.44046164099919,"lat":31.081349867583665,"确诊日期36":"y"},{"SH_ID_36":"10frqrc","区36":"c","地址":"澄江路1530号","lng":121.43627954972729,"lat":31.079315251735295,"确诊日期36":"l"},{"SH_ID_36":"10fq83h","区36":"c","地址":"澄江路1530号","lng":121.43627954972729,"lat":31.079315251735295,"确诊日期36":"e"},{"SH_ID_36":"10ga1aw","区36":"c","地址":"澄江路1530号","lng":121.43627954972729,"lat":31.079315251735295,"确诊日期36":"11"},{"SH_ID_36":"10g9m6o","区36":"c","地址":"澄江路505号","lng":121.45742798428232,"lat":31.083323133809035,"确诊日期36":"z"},{"SH_ID_36":"10g9tqq","区36":"c","地址":"澄江路505号","lng":121.45742798428232,"lat":31.083323133809035,"确诊日期36":"10"},{"SH_ID_36":"10ga1ax","区36":"c","地址":"澄江路505号","lng":121.45742798428232,"lat":31.083323133809035,"确诊日期36":"11"},{"SH_ID_36":"10ga91l","区36":"c","地址":"澄江路505号","lng":121.45742798428232,"lat":31.083323133809035,"确诊日期36":"12"},{"SH_ID_36":"10ga1ay","区36":"c","地址":"澄江路605号","lng":121.45674397969506,"lat":31.08214209823988,"确诊日期36":"11"},{"SH_ID_36":"10g9m6p","区36":"c","地址":"春东路950弄","lng":121.38550541714771,"lat":31.09295951535569,"确诊日期36":"z"},{"SH_ID_36":"10g9tqr","区36":"c","地址":"春东路950弄","lng":121.38550541714771,"lat":31.09295951535569,"确诊日期36":"10"},{"SH_ID_36":"10ga1az","区36":"c","地址":"春东路950弄","lng":121.38550541714771,"lat":31.09295951535569,"确诊日期36":"11"},{"SH_ID_36":"10fripv","区36":"c","地址":"春都路358弄","lng":121.41431183718305,"lat":31.083838294720696,"确诊日期36":"k"},{"SH_ID_36":"10fs6nt","区36":"c","地址":"春都路358弄","lng":121.41431183718305,"lat":31.083838294720696,"确诊日期36":"n"},{"SH_ID_36":"10g7ui5","区36":"c","地址":"春都路358弄","lng":121.41431183718305,"lat":31.083838294720696,"确诊日期36":"r"},{"SH_ID_36":"10g8ahc","区36":"c","地址":"春都路358弄","lng":121.41431183718305,"lat":31.083838294720696,"确诊日期36":"t"},{"SH_ID_36":"10g8i72","区36":"c","地址":"春都路358弄","lng":121.41431183718305,"lat":31.083838294720696,"确诊日期36":"u"},{"SH_ID_36":"10g8qms","区36":"c","地址":"春都路358弄","lng":121.41431183718305,"lat":31.083838294720696,"确诊日期36":"v"},{"SH_ID_36":"10g8yd0","区36":"c","地址":"春都路358弄","lng":121.41431183718305,"lat":31.083838294720696,"确诊日期36":"w"},{"SH_ID_36":"10g96io","区36":"c","地址":"春都路358弄","lng":121.41431183718305,"lat":31.083838294720696,"确诊日期36":"x"},{"SH_ID_36":"10g9ecq","区36":"c","地址":"春都路358弄","lng":121.41431183718305,"lat":31.083838294720696,"确诊日期36":"y"},{"SH_ID_36":"10g9m6q","区36":"c","地址":"春都路358弄","lng":121.41431183718305,"lat":31.083838294720696,"确诊日期36":"z"},{"SH_ID_36":"10g9tqs","区36":"c","地址":"春都路358弄","lng":121.41431183718305,"lat":31.083838294720696,"确诊日期36":"10"},{"SH_ID_36":"10ga91m","区36":"c","地址":"春都路358弄","lng":121.41431183718305,"lat":31.083838294720696,"确诊日期36":"12"},{"SH_ID_36":"10fs6nu","区36":"c","地址":"春都路75弄","lng":121.42010562742041,"lat":31.082703683292642,"确诊日期36":"n"},{"SH_ID_36":"10fseg1","区36":"c","地址":"春都路75弄","lng":121.42010562742041,"lat":31.082703683292642,"确诊日期36":"o"},{"SH_ID_36":"10g7mbr","区36":"c","地址":"春都路75弄","lng":121.42010562742041,"lat":31.082703683292642,"确诊日期36":"q"},{"SH_ID_36":"10g7ui6","区36":"c","地址":"春都路75弄","lng":121.42010562742041,"lat":31.082703683292642,"确诊日期36":"r"},{"SH_ID_36":"10g82c2","区36":"c","地址":"春都路75弄","lng":121.42010562742041,"lat":31.082703683292642,"确诊日期36":"s"},{"SH_ID_36":"10g8ahd","区36":"c","地址":"春都路75弄","lng":121.42010562742041,"lat":31.082703683292642,"确诊日期36":"t"},{"SH_ID_36":"10g8i73","区36":"c","地址":"春都路75弄","lng":121.42010562742041,"lat":31.082703683292642,"确诊日期36":"u"},{"SH_ID_36":"10g8yd1","区36":"c","地址":"春都路75弄","lng":121.42010562742041,"lat":31.082703683292642,"确诊日期36":"w"},{"SH_ID_36":"10g96ip","区36":"c","地址":"春都路75弄","lng":121.42010562742041,"lat":31.082703683292642,"确诊日期36":"x"},{"SH_ID_36":"10g9ecr","区36":"c","地址":"春都路75弄","lng":121.42010562742041,"lat":31.082703683292642,"确诊日期36":"y"},{"SH_ID_36":"10g9m6r","区36":"c","地址":"春都路75弄","lng":121.42010562742041,"lat":31.082703683292642,"确诊日期36":"z"},{"SH_ID_36":"10g9tqt","区36":"c","地址":"春都路75弄","lng":121.42010562742041,"lat":31.082703683292642,"确诊日期36":"10"},{"SH_ID_36":"10ga1b0","区36":"c","地址":"春都路75弄","lng":121.42010562742041,"lat":31.082703683292642,"确诊日期36":"11"},{"SH_ID_36":"10ga91n","区36":"c","地址":"春都路75弄","lng":121.42010562742041,"lat":31.082703683292642,"确诊日期36":"12"},{"SH_ID_36":"10fs6nv","区36":"c","地址":"春都路88弄","lng":121.41937465846144,"lat":31.08425762447447,"确诊日期36":"n"},{"SH_ID_36":"10fseg2","区36":"c","地址":"春都路88弄","lng":121.41937465846144,"lat":31.08425762447447,"确诊日期36":"o"},{"SH_ID_36":"10fsm01","区36":"c","地址":"春都路88弄","lng":121.41937465846144,"lat":31.08425762447447,"确诊日期36":"p"},{"SH_ID_36":"10g7mbs","区36":"c","地址":"春都路88弄","lng":121.41937465846144,"lat":31.08425762447447,"确诊日期36":"q"},{"SH_ID_36":"10g7ui7","区36":"c","地址":"春都路88弄","lng":121.41937465846144,"lat":31.08425762447447,"确诊日期36":"r"},{"SH_ID_36":"10g82c3","区36":"c","地址":"春都路88弄","lng":121.41937465846144,"lat":31.08425762447447,"确诊日期36":"s"},{"SH_ID_36":"10g8qmt","区36":"c","地址":"春都路88弄","lng":121.41937465846144,"lat":31.08425762447447,"确诊日期36":"v"},{"SH_ID_36":"10g8yd2","区36":"c","地址":"春都路88弄","lng":121.41937465846144,"lat":31.08425762447447,"确诊日期36":"w"},{"SH_ID_36":"10g96iq","区36":"c","地址":"春都路88弄","lng":121.41937465846144,"lat":31.08425762447447,"确诊日期36":"x"},{"SH_ID_36":"10g9ecs","区36":"c","地址":"春都路88弄","lng":121.41937465846144,"lat":31.08425762447447,"确诊日期36":"y"},{"SH_ID_36":"10g9m6s","区36":"c","地址":"春都路88弄","lng":121.41937465846144,"lat":31.08425762447447,"确诊日期36":"z"},{"SH_ID_36":"10g9tqu","区36":"c","地址":"春都路88弄","lng":121.41937465846144,"lat":31.08425762447447,"确诊日期36":"10"},{"SH_ID_36":"10ga1b1","区36":"c","地址":"春都路88弄","lng":121.41937465846144,"lat":31.08425762447447,"确诊日期36":"11"},{"SH_ID_36":"10ga91o","区36":"c","地址":"春都路88弄","lng":121.41937465846144,"lat":31.08425762447447,"确诊日期36":"12"},{"SH_ID_36":"10ga91p","区36":"c","地址":"春光路699弄","lng":121.38347441669482,"lat":31.088498733613378,"确诊日期36":"12"},{"SH_ID_36":"10fripw","区36":"c","地址":"春申路1580弄","lng":121.43204996966773,"lat":31.11563354399579,"确诊日期36":"k"},{"SH_ID_36":"10fs6nw","区36":"c","地址":"春申路1580弄","lng":121.43204996966773,"lat":31.11563354399579,"确诊日期36":"n"},{"SH_ID_36":"10fseg3","区36":"c","地址":"春申路1580弄","lng":121.43204996966773,"lat":31.11563354399579,"确诊日期36":"o"},{"SH_ID_36":"10g7ui8","区36":"c","地址":"春申路1580弄","lng":121.43204996966773,"lat":31.11563354399579,"确诊日期36":"r"},{"SH_ID_36":"10g8ahe","区36":"c","地址":"春申路1580弄","lng":121.43204996966773,"lat":31.11563354399579,"确诊日期36":"t"},{"SH_ID_36":"10fpkvk","区36":"c","地址":"春申路1580弄","lng":121.43204996966773,"lat":31.11563354399579,"确诊日期36":"b"},{"SH_ID_36":"10fpsng","区36":"c","地址":"春申路1580弄","lng":121.43204996966773,"lat":31.11563354399579,"确诊日期36":"c"},{"SH_ID_36":"10fq83i","区36":"c","地址":"春申路1580弄","lng":121.43204996966773,"lat":31.11563354399579,"确诊日期36":"e"},{"SH_ID_36":"10fqfvc","区36":"c","地址":"春申路1580弄","lng":121.43204996966773,"lat":31.11563354399579,"确诊日期36":"f"},{"SH_ID_36":"10g8yd3","区36":"c","地址":"春申路1580弄","lng":121.43204996966773,"lat":31.11563354399579,"确诊日期36":"w"},{"SH_ID_36":"10g96ir","区36":"c","地址":"春申路1580弄","lng":121.43204996966773,"lat":31.11563354399579,"确诊日期36":"x"},{"SH_ID_36":"10g9m6t","区36":"c","地址":"春申路1580弄","lng":121.43204996966773,"lat":31.11563354399579,"确诊日期36":"z"},{"SH_ID_36":"10g9tqv","区36":"c","地址":"春申路1580弄","lng":121.43204996966773,"lat":31.11563354399579,"确诊日期36":"10"},{"SH_ID_36":"10fr350","区36":"c","地址":"春申路1581弄","lng":121.43218994322075,"lat":31.11392852703283,"确诊日期36":"i"},{"SH_ID_36":"10fripx","区36":"c","地址":"春申路1581弄","lng":121.43218994322075,"lat":31.11392852703283,"确诊日期36":"k"},{"SH_ID_36":"10g7ui9","区36":"c","地址":"春申路1581弄","lng":121.43218994322075,"lat":31.11392852703283,"确诊日期36":"r"},{"SH_ID_36":"10g82c4","区36":"c","地址":"春申路1581弄","lng":121.43218994322075,"lat":31.11392852703283,"确诊日期36":"s"},{"SH_ID_36":"10g8ahf","区36":"c","地址":"春申路1581弄","lng":121.43218994322075,"lat":31.11392852703283,"确诊日期36":"t"},{"SH_ID_36":"10fo2vq","区36":"c","地址":"春申路1581弄","lng":121.43218994322075,"lat":31.11392852703283,"确诊日期36":"4"},{"SH_ID_36":"10foi9u","区36":"c","地址":"春申路1581弄","lng":121.43218994322075,"lat":31.11392852703283,"确诊日期36":"6"},{"SH_ID_36":"10fqv9w","区36":"c","地址":"春申路1581弄","lng":121.43218994322075,"lat":31.11392852703283,"确诊日期36":"h"},{"SH_ID_36":"10g8qmu","区36":"c","地址":"春申路1581弄","lng":121.43218994322075,"lat":31.11392852703283,"确诊日期36":"v"},{"SH_ID_36":"10g8yd4","区36":"c","地址":"春申路1581弄","lng":121.43218994322075,"lat":31.11392852703283,"确诊日期36":"w"},{"SH_ID_36":"10g96is","区36":"c","地址":"春申路1581弄","lng":121.43218994322075,"lat":31.11392852703283,"确诊日期36":"x"},{"SH_ID_36":"10g9ect","区36":"c","地址":"春申路1581弄","lng":121.43218994322075,"lat":31.11392852703283,"确诊日期36":"y"},{"SH_ID_36":"10g9m6u","区36":"c","地址":"春申路1581弄","lng":121.43218994322075,"lat":31.11392852703283,"确诊日期36":"z"},{"SH_ID_36":"10ga1b2","区36":"c","地址":"春申路1581弄","lng":121.43218994322075,"lat":31.11392852703283,"确诊日期36":"11"},{"SH_ID_36":"10ga91q","区36":"c","地址":"春申路1581弄","lng":121.43218994322075,"lat":31.11392852703283,"确诊日期36":"12"},{"SH_ID_36":"10fr351","区36":"c","地址":"春申路1717弄","lng":121.41736998883187,"lat":31.119905341978676,"确诊日期36":"i"},{"SH_ID_36":"10frb59","区36":"c","地址":"春申路1717弄","lng":121.41736998883187,"lat":31.119905341978676,"确诊日期36":"j"},{"SH_ID_36":"10frqrd","区36":"c","地址":"春申路1717弄","lng":121.41736998883187,"lat":31.119905341978676,"确诊日期36":"l"},{"SH_ID_36":"10fseg4","区36":"c","地址":"春申路1717弄","lng":121.41736998883187,"lat":31.119905341978676,"确诊日期36":"o"},{"SH_ID_36":"10fo2vr","区36":"c","地址":"春申路1717弄","lng":121.41736998883187,"lat":31.119905341978676,"确诊日期36":"4"},{"SH_ID_36":"10fqfvd","区36":"c","地址":"春申路1717弄","lng":121.41736998883187,"lat":31.119905341978676,"确诊日期36":"f"},{"SH_ID_36":"10fqv9x","区36":"c","地址":"春申路1717弄","lng":121.41736998883187,"lat":31.119905341978676,"确诊日期36":"h"},{"SH_ID_36":"10ga1b3","区36":"c","地址":"春申路1717弄","lng":121.41736998883187,"lat":31.119905341978676,"确诊日期36":"11"},{"SH_ID_36":"10fs6nx","区36":"c","地址":"春申路1888弄","lng":121.42230689914301,"lat":31.113589576344328,"确诊日期36":"n"},{"SH_ID_36":"10fo2vl","区36":"c","地址":"春申路1888弄","lng":121.42230689914301,"lat":31.113589576344328,"确诊日期36":"4"},{"SH_ID_36":"10fpkwp","区36":"c","地址":"春申路1888弄","lng":121.42230689914301,"lat":31.113589576344328,"确诊日期36":"b"},{"SH_ID_36":"10ga1b4","区36":"c","地址":"春申路1888弄","lng":121.42230689914301,"lat":31.113589576344328,"确诊日期36":"11"},{"SH_ID_36":"10ga91r","区36":"c","地址":"春申路1888弄","lng":121.42230689914301,"lat":31.113589576344328,"确诊日期36":"12"},{"SH_ID_36":"10g9tqw","区36":"c","地址":"春申路1929号","lng":121.4261778759728,"lat":31.11260165239319,"确诊日期36":"10"},{"SH_ID_36":"10fq83j","区36":"c","地址":"春申路1985弄","lng":121.4237468673232,"lat":31.111593612324082,"确诊日期36":"e"},{"SH_ID_36":"10g9m6v","区36":"c","地址":"春申路1985弄","lng":121.4237468673232,"lat":31.111593612324082,"确诊日期36":"z"},{"SH_ID_36":"10ga1b5","区36":"c","地址":"春申路1985弄","lng":121.4237468673232,"lat":31.111593612324082,"确诊日期36":"11"},{"SH_ID_36":"10ga91s","区36":"c","地址":"春申路1985弄","lng":121.4237468673232,"lat":31.111593612324082,"确诊日期36":"12"},{"SH_ID_36":"10fr38q","区36":"c","地址":"春申路2458弄","lng":121.41480399341043,"lat":31.112294077270878,"确诊日期36":"i"},{"SH_ID_36":"10fripy","区36":"c","地址":"春申路2458弄","lng":121.41480399341043,"lat":31.112294077270878,"确诊日期36":"k"},{"SH_ID_36":"10frqre","区36":"c","地址":"春申路2458弄","lng":121.41480399341043,"lat":31.112294077270878,"确诊日期36":"l"},{"SH_ID_36":"10fryxz","区36":"c","地址":"春申路2458弄","lng":121.41480399341043,"lat":31.112294077270878,"确诊日期36":"m"},{"SH_ID_36":"10g7mbt","区36":"c","地址":"春申路2458弄","lng":121.41480399341043,"lat":31.112294077270878,"确诊日期36":"q"},{"SH_ID_36":"10fqfve","区36":"c","地址":"春申路2458弄","lng":121.41480399341043,"lat":31.112294077270878,"确诊日期36":"f"},{"SH_ID_36":"10fqv9y","区36":"c","地址":"春申路2458弄","lng":121.41480399341043,"lat":31.112294077270878,"确诊日期36":"h"},{"SH_ID_36":"10g9m6w","区36":"c","地址":"春申路2458弄","lng":121.41480399341043,"lat":31.112294077270878,"确诊日期36":"z"},{"SH_ID_36":"10ga1b6","区36":"c","地址":"春申路2458弄","lng":121.41480399341043,"lat":31.112294077270878,"确诊日期36":"11"},{"SH_ID_36":"10g9m6x","区36":"c","地址":"春申路2560号","lng":121.41372500886446,"lat":31.11071197681615,"确诊日期36":"z"},{"SH_ID_36":"10ga1b7","区36":"c","地址":"春申路2728弄","lng":121.40258626730815,"lat":31.10709304312647,"确诊日期36":"11"},{"SH_ID_36":"10ga1b8","区36":"c","地址":"春申路2768弄","lng":121.40009730880573,"lat":31.106664925176982,"确诊日期36":"11"},{"SH_ID_36":"10ga91t","区36":"c","地址":"春申路3355弄","lng":121.39600738630448,"lat":31.10249988372402,"确诊日期36":"12"},{"SH_ID_36":"10ga91u","区36":"c","地址":"春申路3455弄","lng":121.39358339531927,"lat":31.102120925374095,"确诊日期36":"12"},{"SH_ID_36":"10g96it","区36":"c","地址":"春申路3799弄100支弄","lng":121.38754538199225,"lat":31.098834292929542,"确诊日期36":"x"},{"SH_ID_36":"10g9m6y","区36":"c","地址":"春申路3799弄100支弄","lng":121.38754538199225,"lat":31.098834292929542,"确诊日期36":"z"},{"SH_ID_36":"10ga91v","区36":"c","地址":"春申路3799弄100支弄","lng":121.38754538199225,"lat":31.098834292929542,"确诊日期36":"12"},{"SH_ID_36":"10fq83k","区36":"c","地址":"春申路3799弄18支弄","lng":121.38752837839631,"lat":31.099027292865493,"确诊日期36":"e"},{"SH_ID_36":"10ga91w","区36":"c","地址":"春申路3799弄18支弄","lng":121.38752837839631,"lat":31.099027292865493,"确诊日期36":"12"},{"SH_ID_36":"10ga1b9","区36":"c","地址":"春申路3799弄65支弄","lng":121.38867939944262,"lat":31.098787205747964,"确诊日期36":"11"},{"SH_ID_36":"10foakc","区36":"c","地址":"德宏路2465号","lng":121.43524923756206,"lat":31.013265482163213,"确诊日期36":"5"},{"SH_ID_36":"10g9tqx","区36":"c","地址":"德宏路2513号","lng":121.4338042009854,"lat":31.01270057863357,"确诊日期36":"10"},{"SH_ID_36":"10frqrf","区36":"c","地址":"灯辉路1058号","lng":121.41177594007775,"lat":31.029665349322944,"确诊日期36":"l"},{"SH_ID_36":"10fryy0","区36":"c","地址":"灯辉路1058号","lng":121.41177594007775,"lat":31.029665349322944,"确诊日期36":"m"},{"SH_ID_36":"10g7mbu","区36":"c","地址":"灯辉路1058号","lng":121.41177594007775,"lat":31.029665349322944,"确诊日期36":"q"},{"SH_ID_36":"10g8ahg","区36":"c","地址":"灯辉路1058号","lng":121.41177594007775,"lat":31.029665349322944,"确诊日期36":"t"},{"SH_ID_36":"10g8i74","区36":"c","地址":"灯辉路1058号","lng":121.41177594007775,"lat":31.029665349322944,"确诊日期36":"u"},{"SH_ID_36":"10g8qmv","区36":"c","地址":"灯辉路1058号","lng":121.41177594007775,"lat":31.029665349322944,"确诊日期36":"v"},{"SH_ID_36":"10g96iu","区36":"c","地址":"灯辉路1058号","lng":121.41177594007775,"lat":31.029665349322944,"确诊日期36":"x"},{"SH_ID_36":"10g9ecw","区36":"c","地址":"灯辉路1058号","lng":121.41177594007775,"lat":31.029665349322944,"确诊日期36":"y"},{"SH_ID_36":"10g9m6z","区36":"c","地址":"灯辉路1058号","lng":121.41177594007775,"lat":31.029665349322944,"确诊日期36":"z"},{"SH_ID_36":"10g9tqy","区36":"c","地址":"灯辉路1058号","lng":121.41177594007775,"lat":31.029665349322944,"确诊日期36":"10"},{"SH_ID_36":"10ga1ba","区36":"c","地址":"灯辉路1058号","lng":121.41177594007775,"lat":31.029665349322944,"确诊日期36":"11"},{"SH_ID_36":"10ga91x","区36":"c","地址":"灯辉路1058号","lng":121.41177594007775,"lat":31.029665349322944,"确诊日期36":"12"},{"SH_ID_36":"10g9ecv","区36":"c","地址":"灯辉路1109号","lng":121.41208194032862,"lat":31.029300372783897,"确诊日期36":"y"},{"SH_ID_36":"10g9m70","区36":"c","地址":"灯辉路1109号","lng":121.41208194032862,"lat":31.029300372783897,"确诊日期36":"z"},{"SH_ID_36":"10g9tqz","区36":"c","地址":"灯辉路1109号","lng":121.41208194032862,"lat":31.029300372783897,"确诊日期36":"10"},{"SH_ID_36":"10ga1bb","区36":"c","地址":"灯辉路1109号","lng":121.41208194032862,"lat":31.029300372783897,"确诊日期36":"11"},{"SH_ID_36":"10ga1bc","区36":"c","地址":"灯辉路1111号","lng":121.41081094946362,"lat":31.029001246426017,"确诊日期36":"11"},{"SH_ID_36":"10ga91y","区36":"c","地址":"灯辉路1111号","lng":121.41081094946362,"lat":31.029001246426017,"确诊日期36":"12"},{"SH_ID_36":"10ga1bd","区36":"c","地址":"灯辉路1128号","lng":121.40870596464784,"lat":31.02881403801231,"确诊日期36":"11"},{"SH_ID_36":"10ga1be","区36":"c","地址":"灯辉路1129号","lng":121.41078695132636,"lat":31.028686237907785,"确诊日期36":"11"},{"SH_ID_36":"10ga91z","区36":"c","地址":"灯辉路1129号","lng":121.41078695132636,"lat":31.028686237907785,"确诊日期36":"12"},{"SH_ID_36":"10ga920","区36":"c","地址":"灯辉路1145号","lng":121.40858296843591,"lat":31.02799201154008,"确诊日期36":"12"},{"SH_ID_36":"10g9m71","区36":"c","地址":"灯辉路1169号","lng":121.40612298802648,"lat":31.026105744421237,"确诊日期36":"z"},{"SH_ID_36":"10fr352","区36":"c","地址":"灯辉路1169弄","lng":121.41780292690832,"lat":31.028565828086904,"确诊日期36":"i"},{"SH_ID_36":"10frb5a","区36":"c","地址":"灯辉路1169弄","lng":121.41780292690832,"lat":31.028565828086904,"确诊日期36":"j"},{"SH_ID_36":"10fripz","区36":"c","地址":"灯辉路1169弄","lng":121.41780292690832,"lat":31.028565828086904,"确诊日期36":"k"},{"SH_ID_36":"10fs6ny","区36":"c","地址":"灯辉路1169弄","lng":121.41780292690832,"lat":31.028565828086904,"确诊日期36":"n"},{"SH_ID_36":"10fseg5","区36":"c","地址":"灯辉路1169弄","lng":121.41780292690832,"lat":31.028565828086904,"确诊日期36":"o"},{"SH_ID_36":"10fsm02","区36":"c","地址":"灯辉路1169弄","lng":121.41780292690832,"lat":31.028565828086904,"确诊日期36":"p"},{"SH_ID_36":"10g7mbv","区36":"c","地址":"灯辉路1169弄","lng":121.41780292690832,"lat":31.028565828086904,"确诊日期36":"q"},{"SH_ID_36":"10fqv9z","区36":"c","地址":"灯辉路1169弄","lng":121.41780292690832,"lat":31.028565828086904,"确诊日期36":"h"},{"SH_ID_36":"10g8yd5","区36":"c","地址":"灯辉路1169弄","lng":121.41780292690832,"lat":31.028565828086904,"确诊日期36":"w"},{"SH_ID_36":"10g96iv","区36":"c","地址":"灯辉路1169弄","lng":121.41780292690832,"lat":31.028565828086904,"确诊日期36":"x"},{"SH_ID_36":"10g9ecu","区36":"c","地址":"灯辉路1169弄","lng":121.41780292690832,"lat":31.028565828086904,"确诊日期36":"y"},{"SH_ID_36":"10ga921","区36":"c","地址":"灯辉路1169弄","lng":121.41780292690832,"lat":31.028565828086904,"确诊日期36":"12"},{"SH_ID_36":"10g82c5","区36":"c","地址":"灯辉路501弄","lng":121.42274892239375,"lat":31.03147807604915,"确诊日期36":"s"},{"SH_ID_36":"10g8ahh","区36":"c","地址":"灯辉路501弄","lng":121.42274892239375,"lat":31.03147807604915,"确诊日期36":"t"},{"SH_ID_36":"10g8i75","区36":"c","地址":"灯辉路501弄","lng":121.42274892239375,"lat":31.03147807604915,"确诊日期36":"u"},{"SH_ID_36":"10g8qmw","区36":"c","地址":"灯辉路501弄","lng":121.42274892239375,"lat":31.03147807604915,"确诊日期36":"v"},{"SH_ID_36":"10g96iw","区36":"c","地址":"灯辉路501弄","lng":121.42274892239375,"lat":31.03147807604915,"确诊日期36":"x"},{"SH_ID_36":"10g9tr0","区36":"c","地址":"灯辉路501弄","lng":121.42274892239375,"lat":31.03147807604915,"确诊日期36":"10"},{"SH_ID_36":"10ga1bf","区36":"c","地址":"灯辉路501弄","lng":121.42274892239375,"lat":31.03147807604915,"确诊日期36":"11"},{"SH_ID_36":"10ga922","区36":"c","地址":"灯辉路501弄","lng":121.42274892239375,"lat":31.03147807604915,"确诊日期36":"12"},{"SH_ID_36":"10g9tr1","区36":"c","地址":"灯辉路601弄","lng":121.41996692603713,"lat":31.029242958404037,"确诊日期36":"10"},{"SH_ID_36":"10ga923","区36":"c","地址":"灯辉路601弄","lng":121.41996692603713,"lat":31.029242958404037,"确诊日期36":"12"},{"SH_ID_36":"10fseg6","区36":"c","地址":"丁连村","lng":121.48109587935423,"lat":31.094783068628335,"确诊日期36":"o"},{"SH_ID_36":"10fsm03","区36":"c","地址":"丁连村","lng":121.48109587935423,"lat":31.094783068628335,"确诊日期36":"p"},{"SH_ID_36":"10g7mbw","区36":"c","地址":"丁连村","lng":121.48109587935423,"lat":31.094783068628335,"确诊日期36":"q"},{"SH_ID_36":"10g7uia","区36":"c","地址":"丁连村","lng":121.48109587935423,"lat":31.094783068628335,"确诊日期36":"r"},{"SH_ID_36":"10g8i76","区36":"c","地址":"丁连村","lng":121.48109587935423,"lat":31.094783068628335,"确诊日期36":"u"},{"SH_ID_36":"10g8qmx","区36":"c","地址":"丁连村","lng":121.48109587935423,"lat":31.094783068628335,"确诊日期36":"v"},{"SH_ID_36":"10g8yd6","区36":"c","地址":"丁连村","lng":121.48109587935423,"lat":31.094783068628335,"确诊日期36":"w"},{"SH_ID_36":"10g96ix","区36":"c","地址":"丁连村","lng":121.48109587935423,"lat":31.094783068628335,"确诊日期36":"x"},{"SH_ID_36":"10g9ecx","区36":"c","地址":"丁连村","lng":121.48109587935423,"lat":31.094783068628335,"确诊日期36":"y"},{"SH_ID_36":"10ga1bg","区36":"c","地址":"丁连村","lng":121.48109587935423,"lat":31.094783068628335,"确诊日期36":"11"},{"SH_ID_36":"10ga924","区36":"c","地址":"丁连村","lng":121.48109587935423,"lat":31.094783068628335,"确诊日期36":"12"},{"SH_ID_36":"10frb5b","区36":"c","地址":"东川路2626弄","lng":121.40342508426096,"lat":31.00979923182391,"确诊日期36":"j"},{"SH_ID_36":"10frqrg","区36":"c","地址":"东川路2626弄","lng":121.40342508426096,"lat":31.00979923182391,"确诊日期36":"l"},{"SH_ID_36":"10frb5c","区36":"c","地址":"东川路2718弄","lng":121.40019308762938,"lat":31.0091900287837,"确诊日期36":"j"},{"SH_ID_36":"10friq0","区36":"c","地址":"东川路2718弄","lng":121.40019308762938,"lat":31.0091900287837,"确诊日期36":"k"},{"SH_ID_36":"10frqrh","区36":"c","地址":"东川路2718弄","lng":121.40019308762938,"lat":31.0091900287837,"确诊日期36":"l"},{"SH_ID_36":"10g7mbx","区36":"c","地址":"东川路2718弄","lng":121.40019308762938,"lat":31.0091900287837,"确诊日期36":"q"},{"SH_ID_36":"10g7uib","区36":"c","地址":"东川路2718弄","lng":121.40019308762938,"lat":31.0091900287837,"确诊日期36":"r"},{"SH_ID_36":"10g8i77","区36":"c","地址":"东川路2718弄","lng":121.40019308762938,"lat":31.0091900287837,"确诊日期36":"u"},{"SH_ID_36":"10g9m72","区36":"c","地址":"东川路2759弄","lng":121.3989520923275,"lat":31.008115965601,"确诊日期36":"z"},{"SH_ID_36":"10ga925","区36":"c","地址":"东川路2759弄","lng":121.3989520923275,"lat":31.008115965601,"确诊日期36":"12"},{"SH_ID_36":"10g7mby","区36":"c","地址":"东川路333弄","lng":121.46788011865684,"lat":31.026669688018625,"确诊日期36":"q"},{"SH_ID_36":"10g8qmy","区36":"c","地址":"东川路333弄","lng":121.46788011865684,"lat":31.026669688018625,"确诊日期36":"v"},{"SH_ID_36":"10g8yd7","区36":"c","地址":"东川路333弄","lng":121.46788011865684,"lat":31.026669688018625,"确诊日期36":"w"},{"SH_ID_36":"10g9ecy","区36":"c","地址":"东川路333弄","lng":121.46788011865684,"lat":31.026669688018625,"确诊日期36":"y"},{"SH_ID_36":"10ga1bh","区36":"c","地址":"东川路333弄","lng":121.46788011865684,"lat":31.026669688018625,"确诊日期36":"11"},{"SH_ID_36":"10frqri","区36":"c","地址":"东川路500号","lng":121.45372048517383,"lat":31.031448043155617,"确诊日期36":"l"},{"SH_ID_36":"10fqnjc","区36":"c","地址":"东川路500号","lng":121.45372048517383,"lat":31.031448043155617,"确诊日期36":"g"},{"SH_ID_36":"10g9tr2","区36":"c","地址":"东川路500号","lng":121.45372048517383,"lat":31.031448043155617,"确诊日期36":"10"},{"SH_ID_36":"10ga1bi","区36":"c","地址":"东川路500号","lng":121.45372048517383,"lat":31.031448043155617,"确诊日期36":"11"},{"SH_ID_36":"10fr353","区36":"c","地址":"东川路800号","lng":121.43624826128054,"lat":31.023988449599887,"确诊日期36":"i"},{"SH_ID_36":"10frb5d","区36":"c","地址":"东川路800号","lng":121.43624826128054,"lat":31.023988449599887,"确诊日期36":"j"},{"SH_ID_36":"10friq1","区36":"c","地址":"东川路800号","lng":121.43624826128054,"lat":31.023988449599887,"确诊日期36":"k"},{"SH_ID_36":"10frqrj","区36":"c","地址":"东川路800号","lng":121.43624826128054,"lat":31.023988449599887,"确诊日期36":"l"},{"SH_ID_36":"10g82c6","区36":"c","地址":"东川路800号","lng":121.43624826128054,"lat":31.023988449599887,"确诊日期36":"s"},{"SH_ID_36":"10fo2ui","区36":"c","地址":"东川路800号","lng":121.43624826128054,"lat":31.023988449599887,"确诊日期36":"4"},{"SH_ID_36":"10fo2vi","区36":"c","地址":"东川路800号","lng":121.43624826128054,"lat":31.023988449599887,"确诊日期36":"4"},{"SH_ID_36":"10foi9t","区36":"c","地址":"东川路800号","lng":121.43624826128054,"lat":31.023988449599887,"确诊日期36":"6"},{"SH_ID_36":"10foiaj","区36":"c","地址":"东川路800号","lng":121.43624826128054,"lat":31.023988449599887,"确诊日期36":"6"},{"SH_ID_36":"10foiak","区36":"c","地址":"东川路800号","lng":121.43624826128054,"lat":31.023988449599887,"确诊日期36":"6"},{"SH_ID_36":"10fopzm","区36":"c","地址":"东川路800号","lng":121.43624826128054,"lat":31.023988449599887,"确诊日期36":"7"},{"SH_ID_36":"10fopzo","区36":"c","地址":"东川路800号","lng":121.43624826128054,"lat":31.023988449599887,"确诊日期36":"7"},{"SH_ID_36":"10foq1t","区36":"c","地址":"东川路800号","lng":121.43624826128054,"lat":31.023988449599887,"确诊日期36":"7"},{"SH_ID_36":"10foq1v","区36":"c","地址":"东川路800号","lng":121.43624826128054,"lat":31.023988449599887,"确诊日期36":"7"},{"SH_ID_36":"10foq1w","区36":"c","地址":"东川路800号","lng":121.43624826128054,"lat":31.023988449599887,"确诊日期36":"7"},{"SH_ID_36":"10foq1y","区36":"c","地址":"东川路800号","lng":121.43624826128054,"lat":31.023988449599887,"确诊日期36":"7"},{"SH_ID_36":"10foq2u","区36":"c","地址":"东川路800号","lng":121.43624826128054,"lat":31.023988449599887,"确诊日期36":"7"},{"SH_ID_36":"10foxpg","区36":"c","地址":"东川路800号","lng":121.43624826128054,"lat":31.023988449599887,"确诊日期36":"8"},{"SH_ID_36":"10foxph","区36":"c","地址":"东川路800号","lng":121.43624826128054,"lat":31.023988449599887,"确诊日期36":"8"},{"SH_ID_36":"10foxqw","区36":"c","地址":"东川路800号","lng":121.43624826128054,"lat":31.023988449599887,"确诊日期36":"8"},{"SH_ID_36":"10foxqx","区36":"c","地址":"东川路800号","lng":121.43624826128054,"lat":31.023988449599887,"确诊日期36":"8"},{"SH_ID_36":"10foxqy","区36":"c","地址":"东川路800号","lng":121.43624826128054,"lat":31.023988449599887,"确诊日期36":"8"},{"SH_ID_36":"10foxqz","区36":"c","地址":"东川路800号","lng":121.43624826128054,"lat":31.023988449599887,"确诊日期36":"8"},{"SH_ID_36":"10foxr0","区36":"c","地址":"东川路800号","lng":121.43624826128054,"lat":31.023988449599887,"确诊日期36":"8"},{"SH_ID_36":"10foxr1","区36":"c","地址":"东川路800号","lng":121.43624826128054,"lat":31.023988449599887,"确诊日期36":"8"},{"SH_ID_36":"10foxr2","区36":"c","地址":"东川路800号","lng":121.43624826128054,"lat":31.023988449599887,"确诊日期36":"8"},{"SH_ID_36":"10foxr3","区36":"c","地址":"东川路800号","lng":121.43624826128054,"lat":31.023988449599887,"确诊日期36":"8"},{"SH_ID_36":"10foxr5","区36":"c","地址":"东川路800号","lng":121.43624826128054,"lat":31.023988449599887,"确诊日期36":"8"},{"SH_ID_36":"10foxr8","区36":"c","地址":"东川路800号","lng":121.43624826128054,"lat":31.023988449599887,"确诊日期36":"8"},{"SH_ID_36":"10fp5fh","区36":"c","地址":"东川路800号","lng":121.43624826128054,"lat":31.023988449599887,"确诊日期36":"9"},{"SH_ID_36":"10fp5fi","区36":"c","地址":"东川路800号","lng":121.43624826128054,"lat":31.023988449599887,"确诊日期36":"9"},{"SH_ID_36":"10fp5hq","区36":"c","地址":"东川路800号","lng":121.43624826128054,"lat":31.023988449599887,"确诊日期36":"9"},{"SH_ID_36":"10fp5ht","区36":"c","地址":"东川路800号","lng":121.43624826128054,"lat":31.023988449599887,"确诊日期36":"9"},{"SH_ID_36":"10fp5hu","区36":"c","地址":"东川路800号","lng":121.43624826128054,"lat":31.023988449599887,"确诊日期36":"9"},{"SH_ID_36":"10fp5hw","区36":"c","地址":"东川路800号","lng":121.43624826128054,"lat":31.023988449599887,"确诊日期36":"9"},{"SH_ID_36":"10fp5hx","区36":"c","地址":"东川路800号","lng":121.43624826128054,"lat":31.023988449599887,"确诊日期36":"9"},{"SH_ID_36":"10fp5ii","区36":"c","地址":"东川路800号","lng":121.43624826128054,"lat":31.023988449599887,"确诊日期36":"9"},{"SH_ID_36":"10fp5j0","区36":"c","地址":"东川路800号","lng":121.43624826128054,"lat":31.023988449599887,"确诊日期36":"9"},{"SH_ID_36":"10fpkvj","区36":"c","地址":"东川路800号","lng":121.43624826128054,"lat":31.023988449599887,"确诊日期36":"b"},{"SH_ID_36":"10fpsnh","区36":"c","地址":"东川路800号","lng":121.43624826128054,"lat":31.023988449599887,"确诊日期36":"c"},{"SH_ID_36":"10fq83l","区36":"c","地址":"东川路800号","lng":121.43624826128054,"lat":31.023988449599887,"确诊日期36":"e"},{"SH_ID_36":"10fqfvf","区36":"c","地址":"东川路800号","lng":121.43624826128054,"lat":31.023988449599887,"确诊日期36":"f"},{"SH_ID_36":"10fqnjd","区36":"c","地址":"东川路800号","lng":121.43624826128054,"lat":31.023988449599887,"确诊日期36":"g"},{"SH_ID_36":"10fqva0","区36":"c","地址":"东川路800号","lng":121.43624826128054,"lat":31.023988449599887,"确诊日期36":"h"},{"SH_ID_36":"10g9tr3","区36":"c","地址":"东川路800号","lng":121.43624826128054,"lat":31.023988449599887,"确诊日期36":"10"},{"SH_ID_36":"10frb5e","区36":"c","地址":"东川路811弄","lng":121.43357220866993,"lat":31.017393628270845,"确诊日期36":"j"},{"SH_ID_36":"10frqrk","区36":"c","地址":"东川路811弄","lng":121.43357220866993,"lat":31.017393628270845,"确诊日期36":"l"},{"SH_ID_36":"10fseg7","区36":"c","地址":"东川路811弄","lng":121.43357220866993,"lat":31.017393628270845,"确诊日期36":"o"},{"SH_ID_36":"10g82c7","区36":"c","地址":"东川路811弄","lng":121.43357220866993,"lat":31.017393628270845,"确诊日期36":"s"},{"SH_ID_36":"10g8i78","区36":"c","地址":"东川路811弄","lng":121.43357220866993,"lat":31.017393628270845,"确诊日期36":"u"},{"SH_ID_36":"10g8yd8","区36":"c","地址":"东川路811弄","lng":121.43357220866993,"lat":31.017393628270845,"确诊日期36":"w"},{"SH_ID_36":"10g96iy","区36":"c","地址":"东川路811弄","lng":121.43357220866993,"lat":31.017393628270845,"确诊日期36":"x"},{"SH_ID_36":"10g9tr4","区36":"c","地址":"东川路811弄","lng":121.43357220866993,"lat":31.017393628270845,"确诊日期36":"10"},{"SH_ID_36":"10ga926","区36":"c","地址":"东川路811弄","lng":121.43357220866993,"lat":31.017393628270845,"确诊日期36":"12"},{"SH_ID_36":"10g9tr5","区36":"c","地址":"东川路865弄","lng":121.43224517740434,"lat":31.01722071232719,"确诊日期36":"10"},{"SH_ID_36":"10g8i79","区36":"c","地址":"东川路925弄","lng":121.42617406002348,"lat":31.01542389333511,"确诊日期36":"u"},{"SH_ID_36":"10g96iz","区36":"c","地址":"东川路925弄","lng":121.42617406002348,"lat":31.01542389333511,"确诊日期36":"x"},{"SH_ID_36":"10g9ecz","区36":"c","地址":"东川路925弄","lng":121.42617406002348,"lat":31.01542389333511,"确诊日期36":"y"},{"SH_ID_36":"10fr354","区36":"c","地址":"东风村","lng":121.5447027373364,"lat":31.102591619898778,"确诊日期36":"i"},{"SH_ID_36":"10friq2","区36":"c","地址":"东风村","lng":121.5447027373364,"lat":31.102591619898778,"确诊日期36":"k"},{"SH_ID_36":"10frqrl","区36":"c","地址":"东风村","lng":121.5447027373364,"lat":31.102591619898778,"确诊日期36":"l"},{"SH_ID_36":"10fryy1","区36":"c","地址":"东风村","lng":121.5447027373364,"lat":31.102591619898778,"确诊日期36":"m"},{"SH_ID_36":"10fs6nz","区36":"c","地址":"东风村","lng":121.5447027373364,"lat":31.102591619898778,"确诊日期36":"n"},{"SH_ID_36":"10fseg8","区36":"c","地址":"东风村","lng":121.5447027373364,"lat":31.102591619898778,"确诊日期36":"o"},{"SH_ID_36":"10fsm04","区36":"c","地址":"东风村","lng":121.5447027373364,"lat":31.102591619898778,"确诊日期36":"p"},{"SH_ID_36":"10g7mbz","区36":"c","地址":"东风村","lng":121.5447027373364,"lat":31.102591619898778,"确诊日期36":"q"},{"SH_ID_36":"10g7uic","区36":"c","地址":"东风村","lng":121.5447027373364,"lat":31.102591619898778,"确诊日期36":"r"},{"SH_ID_36":"10g82c8","区36":"c","地址":"东风村","lng":121.5447027373364,"lat":31.102591619898778,"确诊日期36":"s"},{"SH_ID_36":"10g8ahi","区36":"c","地址":"东风村","lng":121.5447027373364,"lat":31.102591619898778,"确诊日期36":"t"},{"SH_ID_36":"10g8i7a","区36":"c","地址":"东风村","lng":121.5447027373364,"lat":31.102591619898778,"确诊日期36":"u"},{"SH_ID_36":"10fpkw6","区36":"c","地址":"东风村","lng":121.5447027373364,"lat":31.102591619898778,"确诊日期36":"b"},{"SH_ID_36":"10fpsni","区36":"c","地址":"东风村","lng":121.5447027373364,"lat":31.102591619898778,"确诊日期36":"c"},{"SH_ID_36":"10fqfvg","区36":"c","地址":"东风村","lng":121.5447027373364,"lat":31.102591619898778,"确诊日期36":"f"},{"SH_ID_36":"10fqva1","区36":"c","地址":"东风村","lng":121.5447027373364,"lat":31.102591619898778,"确诊日期36":"h"},{"SH_ID_36":"10g8qmz","区36":"c","地址":"东风村","lng":121.5447027373364,"lat":31.102591619898778,"确诊日期36":"v"},{"SH_ID_36":"10g8yd9","区36":"c","地址":"东风村","lng":121.5447027373364,"lat":31.102591619898778,"确诊日期36":"w"},{"SH_ID_36":"10g96j0","区36":"c","地址":"东风村","lng":121.5447027373364,"lat":31.102591619898778,"确诊日期36":"x"},{"SH_ID_36":"10g9ed0","区36":"c","地址":"东风村","lng":121.5447027373364,"lat":31.102591619898778,"确诊日期36":"y"},{"SH_ID_36":"10g9m73","区36":"c","地址":"东风村","lng":121.5447027373364,"lat":31.102591619898778,"确诊日期36":"z"},{"SH_ID_36":"10g9tr6","区36":"c","地址":"东风村","lng":121.5447027373364,"lat":31.102591619898778,"确诊日期36":"10"},{"SH_ID_36":"10ga1bj","区36":"c","地址":"东风村","lng":121.5447027373364,"lat":31.102591619898778,"确诊日期36":"11"},{"SH_ID_36":"10ga927","区36":"c","地址":"东风村","lng":121.5447027373364,"lat":31.102591619898778,"确诊日期36":"12"},{"SH_ID_36":"10g9m74","区36":"c","地址":"东华美路10弄","lng":121.33311101392816,"lat":31.21863527901299,"确诊日期36":"z"},{"SH_ID_36":"10g9tr7","区36":"c","地址":"东华美路10弄","lng":121.33311101392816,"lat":31.21863527901299,"确诊日期36":"10"},{"SH_ID_36":"10ga1bk","区36":"c","地址":"东华美路10弄","lng":121.33311101392816,"lat":31.21863527901299,"确诊日期36":"11"},{"SH_ID_36":"10ga928","区36":"c","地址":"东华美路10弄","lng":121.33311101392816,"lat":31.21863527901299,"确诊日期36":"12"},{"SH_ID_36":"10g7uid","区36":"c","地址":"东华美路151弄","lng":121.33188403664694,"lat":31.22138131606418,"确诊日期36":"r"},{"SH_ID_36":"10fq0do","区36":"c","地址":"东华美路151弄","lng":121.33188403664694,"lat":31.22138131606418,"确诊日期36":"d"},{"SH_ID_36":"10g9ed1","区36":"c","地址":"东华美路151弄","lng":121.33188403664694,"lat":31.22138131606418,"确诊日期36":"y"},{"SH_ID_36":"10g9m75","区36":"c","地址":"东华美路151弄","lng":121.33188403664694,"lat":31.22138131606418,"确诊日期36":"z"},{"SH_ID_36":"10g9tr8","区36":"c","地址":"东华美路151弄","lng":121.33188403664694,"lat":31.22138131606418,"确诊日期36":"10"},{"SH_ID_36":"10ga1bl","区36":"c","地址":"东华美路151弄","lng":121.33188403664694,"lat":31.22138131606418,"确诊日期36":"11"},{"SH_ID_36":"10ga929","区36":"c","地址":"东华美路151弄","lng":121.33188403664694,"lat":31.22138131606418,"确诊日期36":"12"},{"SH_ID_36":"10fr355","区36":"c","地址":"东华美路220弄","lng":121.33235104697066,"lat":31.221833314270356,"确诊日期36":"i"},{"SH_ID_36":"10g8ahj","区36":"c","地址":"东华美路220弄","lng":121.33235104697066,"lat":31.221833314270356,"确诊日期36":"t"},{"SH_ID_36":"10g8i7b","区36":"c","地址":"东华美路220弄","lng":121.33235104697066,"lat":31.221833314270356,"确诊日期36":"u"},{"SH_ID_36":"10g8qn0","区36":"c","地址":"东华美路220弄","lng":121.33235104697066,"lat":31.221833314270356,"确诊日期36":"v"},{"SH_ID_36":"10g8yda","区36":"c","地址":"东华美路220弄","lng":121.33235104697066,"lat":31.221833314270356,"确诊日期36":"w"},{"SH_ID_36":"10g96j1","区36":"c","地址":"东华美路220弄","lng":121.33235104697066,"lat":31.221833314270356,"确诊日期36":"x"},{"SH_ID_36":"10g9m76","区36":"c","地址":"东华美路220弄","lng":121.33235104697066,"lat":31.221833314270356,"确诊日期36":"z"},{"SH_ID_36":"10g9tr9","区36":"c","地址":"东华美路220弄","lng":121.33235104697066,"lat":31.221833314270356,"确诊日期36":"10"},{"SH_ID_36":"10ga1bm","区36":"c","地址":"东华美路220弄","lng":121.33235104697066,"lat":31.221833314270356,"确诊日期36":"11"},{"SH_ID_36":"10ga92a","区36":"c","地址":"东华美路220弄","lng":121.33235104697066,"lat":31.221833314270356,"确诊日期36":"12"},{"SH_ID_36":"10g9tra","区36":"c","地址":"东佳路18号","lng":121.54189585489533,"lat":31.10942554284061,"确诊日期36":"10"},{"SH_ID_36":"10fs6o0","区36":"c","地址":"东兰路1111弄","lng":121.38577782545431,"lat":31.152118481753444,"确诊日期36":"n"},{"SH_ID_36":"10g7uie","区36":"c","地址":"东兰路1111弄","lng":121.38577782545431,"lat":31.152118481753444,"确诊日期36":"r"},{"SH_ID_36":"10g8ahk","区36":"c","地址":"东兰路1111弄","lng":121.38577782545431,"lat":31.152118481753444,"确诊日期36":"t"},{"SH_ID_36":"10g8i7c","区36":"c","地址":"东兰路1111弄","lng":121.38577782545431,"lat":31.152118481753444,"确诊日期36":"u"},{"SH_ID_36":"10g8qn1","区36":"c","地址":"东兰路1111弄","lng":121.38577782545431,"lat":31.152118481753444,"确诊日期36":"v"},{"SH_ID_36":"10g8ydb","区36":"c","地址":"东兰路1111弄","lng":121.38577782545431,"lat":31.152118481753444,"确诊日期36":"w"},{"SH_ID_36":"10g96j2","区36":"c","地址":"东兰路1111弄","lng":121.38577782545431,"lat":31.152118481753444,"确诊日期36":"x"},{"SH_ID_36":"10g9ed2","区36":"c","地址":"东兰路1111弄","lng":121.38577782545431,"lat":31.152118481753444,"确诊日期36":"y"},{"SH_ID_36":"10g9trb","区36":"c","地址":"东兰路1111弄","lng":121.38577782545431,"lat":31.152118481753444,"确诊日期36":"10"},{"SH_ID_36":"10ga1bn","区36":"c","地址":"东兰路1111弄","lng":121.38577782545431,"lat":31.152118481753444,"确诊日期36":"11"},{"SH_ID_36":"10friq3","区36":"c","地址":"东兰路1349弄","lng":121.38078569280358,"lat":31.149815847531194,"确诊日期36":"k"},{"SH_ID_36":"10fryy2","区36":"c","地址":"东兰路1349弄","lng":121.38078569280358,"lat":31.149815847531194,"确诊日期36":"m"},{"SH_ID_36":"10g7mc0","区36":"c","地址":"东兰路1349弄","lng":121.38078569280358,"lat":31.149815847531194,"确诊日期36":"q"},{"SH_ID_36":"10g8i7d","区36":"c","地址":"东兰路1349弄","lng":121.38078569280358,"lat":31.149815847531194,"确诊日期36":"u"},{"SH_ID_36":"10g96j3","区36":"c","地址":"东兰路1349弄","lng":121.38078569280358,"lat":31.149815847531194,"确诊日期36":"x"},{"SH_ID_36":"10g9ed3","区36":"c","地址":"东兰路1349弄","lng":121.38078569280358,"lat":31.149815847531194,"确诊日期36":"y"},{"SH_ID_36":"10g9trc","区36":"c","地址":"东兰路1349弄","lng":121.38078569280358,"lat":31.149815847531194,"确诊日期36":"10"},{"SH_ID_36":"10ga1bo","区36":"c","地址":"东兰路1349弄","lng":121.38078569280358,"lat":31.149815847531194,"确诊日期36":"11"},{"SH_ID_36":"10g7mc1","区36":"c","地址":"东兰路220号","lng":121.40260100429177,"lat":31.158102632538384,"确诊日期36":"q"},{"SH_ID_36":"10g8i7e","区36":"c","地址":"东兰路220号","lng":121.40260100429177,"lat":31.158102632538384,"确诊日期36":"u"},{"SH_ID_36":"10g8ydc","区36":"c","地址":"东兰路220号","lng":121.40260100429177,"lat":31.158102632538384,"确诊日期36":"w"},{"SH_ID_36":"10g96j4","区36":"c","地址":"东兰路220号","lng":121.40260100429177,"lat":31.158102632538384,"确诊日期36":"x"},{"SH_ID_36":"10g9trd","区36":"c","地址":"东兰路220号","lng":121.40260100429177,"lat":31.158102632538384,"确诊日期36":"10"},{"SH_ID_36":"10ga1bp","区36":"c","地址":"东兰路220号","lng":121.40260100429177,"lat":31.158102632538384,"确诊日期36":"11"},{"SH_ID_36":"10ga92b","区36":"c","地址":"东兰路220号","lng":121.40260100429177,"lat":31.158102632538384,"确诊日期36":"12"},{"SH_ID_36":"10fs6o1","区36":"c","地址":"东兰路258号","lng":121.40072201340834,"lat":31.157392493567748,"确诊日期36":"n"},{"SH_ID_36":"10g8ydd","区36":"c","地址":"东兰路258号","lng":121.40072201340834,"lat":31.157392493567748,"确诊日期36":"w"},{"SH_ID_36":"10g9ed4","区36":"c","地址":"东兰路258号","lng":121.40072201340834,"lat":31.157392493567748,"确诊日期36":"y"},{"SH_ID_36":"10ga92c","区36":"c","地址":"东兰路258号","lng":121.40072201340834,"lat":31.157392493567748,"确诊日期36":"12"},{"SH_ID_36":"10g8yde","区36":"c","地址":"东兰路288号","lng":121.39942801734064,"lat":31.157189417163238,"确诊日期36":"w"},{"SH_ID_36":"10g96j5","区36":"c","地址":"东兰路288号","lng":121.39942801734064,"lat":31.157189417163238,"确诊日期36":"x"},{"SH_ID_36":"10g9ed5","区36":"c","地址":"东兰路288号","lng":121.39942801734064,"lat":31.157189417163238,"确诊日期36":"y"},{"SH_ID_36":"10g9tre","区36":"c","地址":"东兰路288号","lng":121.39942801734064,"lat":31.157189417163238,"确诊日期36":"10"},{"SH_ID_36":"10ga92d","区36":"c","地址":"东兰路288号","lng":121.39942801734064,"lat":31.157189417163238,"确诊日期36":"12"},{"SH_ID_36":"10fryy3","区36":"c","地址":"东兰路307号","lng":121.39471098064763,"lat":31.153475222540617,"确诊日期36":"m"},{"SH_ID_36":"10g7mc2","区36":"c","地址":"东兰路307号","lng":121.39471098064763,"lat":31.153475222540617,"确诊日期36":"q"},{"SH_ID_36":"10g82c9","区36":"c","地址":"东兰路307号","lng":121.39471098064763,"lat":31.153475222540617,"确诊日期36":"s"},{"SH_ID_36":"10fr356","区36":"c","地址":"东兰路307弄","lng":121.39171595488982,"lat":31.15446124860742,"确诊日期36":"i"},{"SH_ID_36":"10g7mc3","区36":"c","地址":"东兰路37弄","lng":121.40255000123081,"lat":31.15708461671299,"确诊日期36":"q"},{"SH_ID_36":"10g8qn2","区36":"c","地址":"东兰路37弄","lng":121.40255000123081,"lat":31.15708461671299,"确诊日期36":"v"},{"SH_ID_36":"10frb5f","区36":"c","地址":"东兰路751弄","lng":121.39079293649824,"lat":31.153855262697505,"确诊日期36":"j"},{"SH_ID_36":"10g82ca","区36":"c","地址":"东兰路751弄","lng":121.39079293649824,"lat":31.153855262697505,"确诊日期36":"s"},{"SH_ID_36":"10g8ydf","区36":"c","地址":"东兰路751弄","lng":121.39079293649824,"lat":31.153855262697505,"确诊日期36":"w"},{"SH_ID_36":"10g9trf","区36":"c","地址":"东兰路751弄","lng":121.39079293649824,"lat":31.153855262697505,"确诊日期36":"10"},{"SH_ID_36":"10ga92e","区36":"c","地址":"东兰路751弄","lng":121.39079293649824,"lat":31.153855262697505,"确诊日期36":"12"},{"SH_ID_36":"10g9trg","区36":"c","地址":"东美路100弄","lng":121.33417104551052,"lat":31.22084530049254,"确诊日期36":"10"},{"SH_ID_36":"10g9m77","区36":"c","地址":"东美路108弄","lng":121.33406504432261,"lat":31.22074429938201,"确诊日期36":"z"},{"SH_ID_36":"10ga1bq","区36":"c","地址":"东美路108弄","lng":121.33406504432261,"lat":31.22074429938201,"确诊日期36":"11"},{"SH_ID_36":"10ga92f","区36":"c","地址":"东美路108弄","lng":121.33406504432261,"lat":31.22074429938201,"确诊日期36":"12"},{"SH_ID_36":"10ga1br","区36":"c","地址":"东新街","lng":121.3706455508869,"lat":31.030250572636536,"确诊日期36":"11"},{"SH_ID_36":"10g9trh","区36":"c","地址":"东新街11号","lng":121.37048654199396,"lat":31.029408585003253,"确诊日期36":"10"},{"SH_ID_36":"10g9m78","区36":"c","地址":"东新街2弄","lng":121.37084853737964,"lat":31.028827571360683,"确诊日期36":"z"},{"SH_ID_36":"10g7uif","区36":"c","地址":"东新街4号","lng":121.37086354173688,"lat":31.02924956837871,"确诊日期36":"r"},{"SH_ID_36":"10g9ed6","区36":"c","地址":"东新街4号","lng":121.37086354173688,"lat":31.02924956837871,"确诊日期36":"y"},{"SH_ID_36":"10g9tri","区36":"c","地址":"东新街4号","lng":121.37086354173688,"lat":31.02924956837871,"确诊日期36":"10"},{"SH_ID_36":"10fq83m","区36":"c","地址":"董家队","lng":121.38170900028216,"lat":31.11281279017556,"确诊日期36":"e"},{"SH_ID_36":"10ga92g","区36":"c","地址":"都会路1500号工地","lng":121.41997062301176,"lat":31.063484983220647,"确诊日期36":"12"},{"SH_ID_36":"10fryy4","区36":"c","地址":"都会路2288号","lng":121.41795966124914,"lat":31.06859081724373,"确诊日期36":"m"},{"SH_ID_36":"10g8qn3","区36":"c","地址":"都会路2288号","lng":121.41795966124914,"lat":31.06859081724373,"确诊日期36":"v"},{"SH_ID_36":"10ga92h","区36":"c","地址":"都会路2338弄","lng":121.41785866487021,"lat":31.07188175820146,"确诊日期36":"12"},{"SH_ID_36":"10ga92i","区36":"c","地址":"都会路2385号","lng":121.4161927191309,"lat":31.071275665366798,"确诊日期36":"12"},{"SH_ID_36":"10friq4","区36":"c","地址":"都会路258号","lng":121.43142699388518,"lat":31.037047875833768,"确诊日期36":"k"},{"SH_ID_36":"10fs6o2","区36":"c","地址":"都会路258号","lng":121.43142699388518,"lat":31.037047875833768,"确诊日期36":"n"},{"SH_ID_36":"10g7mc4","区36":"c","地址":"都会路258号","lng":121.43142699388518,"lat":31.037047875833768,"确诊日期36":"q"},{"SH_ID_36":"10g8i7f","区36":"c","地址":"都会路258号","lng":121.43142699388518,"lat":31.037047875833768,"确诊日期36":"u"},{"SH_ID_36":"10foq09","区36":"c","地址":"都会路258号","lng":121.43142699388518,"lat":31.037047875833768,"确诊日期36":"7"},{"SH_ID_36":"10fpsnj","区36":"c","地址":"都会路258号","lng":121.43142699388518,"lat":31.037047875833768,"确诊日期36":"c"},{"SH_ID_36":"10fq83n","区36":"c","地址":"都会路258号","lng":121.43142699388518,"lat":31.037047875833768,"确诊日期36":"e"},