[{"SH_ID_36":"10g9mjq","区36":"e","地址":"阿克苏路66弄","lng":121.27407050380138,"lat":31.328425064065396,"确诊日期36":"z"},{"SH_ID_36":"10fs6tb","区36":"e","地址":"爱特路185弄","lng":121.31642497511784,"lat":31.23199927194567,"确诊日期36":"n"},{"SH_ID_36":"10g82hg","区36":"e","地址":"爱特路185弄","lng":121.31642497511784,"lat":31.23199927194567,"确诊日期36":"s"},{"SH_ID_36":"10g9mjr","区36":"e","地址":"爱特路185弄","lng":121.31642497511784,"lat":31.23199927194567,"确诊日期36":"z"},{"SH_ID_36":"10ga1tk","区36":"e","地址":"爱特路185弄","lng":121.31642497511784,"lat":31.23199927194567,"确诊日期36":"11"},{"SH_ID_36":"10g8ykf","区36":"e","地址":"爱特路333弄","lng":121.31088189014815,"lat":31.231858570554685,"确诊日期36":"w"},{"SH_ID_36":"10g96r1","区36":"e","地址":"爱特路333弄","lng":121.31088189014815,"lat":31.231858570554685,"确诊日期36":"x"},{"SH_ID_36":"10g9mjs","区36":"e","地址":"爱特路333弄","lng":121.31088189014815,"lat":31.231858570554685,"确诊日期36":"z"},{"SH_ID_36":"10ga1tl","区36":"e","地址":"爱特路333弄","lng":121.31088189014815,"lat":31.231858570554685,"确诊日期36":"11"},{"SH_ID_36":"10frivv","区36":"e","地址":"爱特路68弄","lng":121.32227412835441,"lat":31.234295857459387,"确诊日期36":"k"},{"SH_ID_36":"10g7uod","区36":"e","地址":"爱特路68弄","lng":121.32227412835441,"lat":31.234295857459387,"确诊日期36":"r"},{"SH_ID_36":"10g82hh","区36":"e","地址":"爱特路68弄","lng":121.32227412835441,"lat":31.234295857459387,"确诊日期36":"s"},{"SH_ID_36":"10g8qv8","区36":"e","地址":"爱特路68弄","lng":121.32227412835441,"lat":31.234295857459387,"确诊日期36":"v"},{"SH_ID_36":"10g8ykg","区36":"e","地址":"爱特路68弄","lng":121.32227412835441,"lat":31.234295857459387,"确诊日期36":"w"},{"SH_ID_36":"10g96r2","区36":"e","地址":"爱特路68弄","lng":121.32227412835441,"lat":31.234295857459387,"确诊日期36":"x"},{"SH_ID_36":"10g9mjt","区36":"e","地址":"爱特路68弄","lng":121.32227412835441,"lat":31.234295857459387,"确诊日期36":"z"},{"SH_ID_36":"10ga9h3","区36":"e","地址":"爱特路68弄","lng":121.32227412835441,"lat":31.234295857459387,"确诊日期36":"12"},{"SH_ID_36":"10frz0p","区36":"e","地址":"爱特路81号","lng":121.31724603810022,"lat":31.23457222886256,"确诊日期36":"m"},{"SH_ID_36":"10g8qv9","区36":"e","地址":"爱特路877号","lng":121.30182188260258,"lat":31.231866550552784,"确诊日期36":"v"},{"SH_ID_36":"10g9mju","区36":"e","地址":"爱特路877号","lng":121.30182188260258,"lat":31.231866550552784,"确诊日期36":"z"},{"SH_ID_36":"10ga9h4","区36":"e","地址":"爱特路877号","lng":121.30182188260258,"lat":31.231866550552784,"确诊日期36":"12"},{"SH_ID_36":"10fqfsr","区36":"e","地址":"爱特路89弄","lng":121.31679997357527,"lat":31.23156224344413,"确诊日期36":"f"},{"SH_ID_36":"10g8ykh","区36":"e","地址":"爱特路89弄","lng":121.31679997357527,"lat":31.23156224344413,"确诊日期36":"w"},{"SH_ID_36":"10g9mjv","区36":"e","地址":"爱特路89弄","lng":121.31679997357527,"lat":31.23156224344413,"确诊日期36":"z"},{"SH_ID_36":"10fr38t","区36":"e","地址":"安边路1558号","lng":121.36894948510663,"lat":31.253013814313785,"确诊日期36":"i"},{"SH_ID_36":"10ga9h5","区36":"e","地址":"安诚路180弄","lng":121.17163394729775,"lat":31.26834231428048,"确诊日期36":"12"},{"SH_ID_36":"10fqnhi","区36":"e","地址":"安虹路299弄","lng":121.19792111364964,"lat":31.28022327874874,"确诊日期36":"g"},{"SH_ID_36":"10fqfss","区36":"e","地址":"安礼路255弄","lng":121.17026793982285,"lat":31.27186124037431,"确诊日期36":"f"},{"SH_ID_36":"10g8yki","区36":"e","地址":"安礼路399弄","lng":121.17615791369352,"lat":31.270223740803562,"确诊日期36":"w"},{"SH_ID_36":"10g8qva","区36":"e","地址":"安亭街119号","lng":121.15528823053674,"lat":31.294947378323524,"确诊日期36":"v"},{"SH_ID_36":"10g8ykj","区36":"e","地址":"安亭街119号","lng":121.15528823053674,"lat":31.294947378323524,"确诊日期36":"w"},{"SH_ID_36":"10g8qvb","区36":"e","地址":"安亭水产村","lng":121.15712729093161,"lat":31.301139401498837,"确诊日期36":"v"},{"SH_ID_36":"10g7ut8","区36":"e","地址":"安亭玉兰二村","lng":121.15839522002166,"lat":31.297021464265143,"确诊日期36":"r"},{"SH_ID_36":"10fsemu","区36":"e","地址":"安亭镇安亭集贸市场","lng":121.1619820923111,"lat":31.290998673149115,"确诊日期36":"o"},{"SH_ID_36":"10g7ut4","区36":"e","地址":"安亭镇安亭水产村","lng":121.15712729093161,"lat":31.301139401498837,"确诊日期36":"r"},{"SH_ID_36":"10frz38","区36":"e","地址":"安亭镇博泰景苑","lng":121.15220032280739,"lat":31.300142371558465,"确诊日期36":"m"},{"SH_ID_36":"10g7usz","区36":"e","地址":"安亭镇顾浦村","lng":121.16276411507147,"lat":31.2957507240602,"确诊日期36":"r"},{"SH_ID_36":"10g7ut0","区36":"e","地址":"安亭镇火炬村","lng":121.14837451189425,"lat":31.319704397897205,"确诊日期36":"r"},{"SH_ID_36":"10frz37","区36":"e","地址":"安亭镇兰棠景苑","lng":121.16406107215593,"lat":31.294311828248247,"确诊日期36":"m"},{"SH_ID_36":"10fqnhj","区36":"e","地址":"安亭镇老宅村","lng":121.22550920853287,"lat":31.28695924432342,"确诊日期36":"g"},{"SH_ID_36":"10fsemq","区36":"e","地址":"安亭镇联丰村","lng":121.16406107215593,"lat":31.294311828248247,"确诊日期36":"o"},{"SH_ID_36":"10frqxl","区36":"e","地址":"安亭镇联群村","lng":121.24629663691297,"lat":31.27662865159417,"确诊日期36":"l"},{"SH_ID_36":"10frz35","区36":"e","地址":"安亭镇联群村","lng":121.24629663691297,"lat":31.27662865159417,"确诊日期36":"m"},{"SH_ID_36":"10fs6vd","区36":"e","地址":"安亭镇联群村","lng":121.24629663691297,"lat":31.27662865159417,"确诊日期36":"n"},{"SH_ID_36":"10fsemr","区36":"e","地址":"安亭镇联群村","lng":121.24629663691297,"lat":31.27662865159417,"确诊日期36":"o"},{"SH_ID_36":"10g7mj1","区36":"e","地址":"安亭镇联群村","lng":121.24629663691297,"lat":31.27662865159417,"确诊日期36":"q"},{"SH_ID_36":"10g7ut1","区36":"e","地址":"安亭镇联群村","lng":121.24629663691297,"lat":31.27662865159417,"确诊日期36":"r"},{"SH_ID_36":"10fpslv","区36":"e","地址":"安亭镇联群村","lng":121.24629663691297,"lat":31.27662865159417,"确诊日期36":"c"},{"SH_ID_36":"10fq0c7","区36":"e","地址":"安亭镇联群村","lng":121.24629663691297,"lat":31.27662865159417,"确诊日期36":"d"},{"SH_ID_36":"10fq81f","区36":"e","地址":"安亭镇联群村泥岗村","lng":121.20114639029353,"lat":31.26256998878761,"确诊日期36":"e"},{"SH_ID_36":"10fsemp","区36":"e","地址":"安亭镇联西村","lng":121.25109357028536,"lat":31.27203054753251,"确诊日期36":"o"},{"SH_ID_36":"10g7mj2","区36":"e","地址":"安亭镇联西村","lng":121.25109357028536,"lat":31.27203054753251,"确诊日期36":"q"},{"SH_ID_36":"10g7ut2","区36":"e","地址":"安亭镇联西村","lng":121.25109357028536,"lat":31.27203054753251,"确诊日期36":"r"},{"SH_ID_36":"10fs6ve","区36":"e","地址":"安亭镇罗家村","lng":121.20991950864314,"lat":31.267405240675853,"确诊日期36":"n"},{"SH_ID_36":"10fsm3o","区36":"e","地址":"安亭镇泥岗村","lng":121.20114639029353,"lat":31.26256998878761,"确诊日期36":"p"},{"SH_ID_36":"10g7ut3","区36":"e","地址":"安亭镇钱家村","lng":121.21691345846489,"lat":31.259870187767326,"确诊日期36":"r"},{"SH_ID_36":"10friyx","区36":"e","地址":"安亭镇星光村","lng":121.2355690072465,"lat":31.30016920242428,"确诊日期36":"k"},{"SH_ID_36":"10g7mj3","区36":"e","地址":"安亭镇星明村","lng":121.24205500278597,"lat":31.308072723911707,"确诊日期36":"q"},{"SH_ID_36":"10g7ut5","区36":"e","地址":"安亭镇星明村","lng":121.24205500278597,"lat":31.308072723911707,"确诊日期36":"r"},{"SH_ID_36":"10frqxm","区36":"e","地址":"安亭镇星塔村","lng":121.23772091299712,"lat":31.289110306126947,"确诊日期36":"l"},{"SH_ID_36":"10frz36","区36":"e","地址":"安亭镇星塔村","lng":121.23772091299712,"lat":31.289110306126947,"确诊日期36":"m"},{"SH_ID_36":"10g7ut6","区36":"e","地址":"安亭镇许家村","lng":121.22425325892479,"lat":31.26543242268891,"确诊日期36":"r"},{"SH_ID_36":"10g7mj4","区36":"e","地址":"安亭镇迎春新苑","lng":121.15353528760656,"lat":31.29812036386832,"确诊日期36":"q"},{"SH_ID_36":"10frqxo","区36":"e","地址":"安亭镇玉兰二村","lng":121.15839522002166,"lat":31.297021464265143,"确诊日期36":"l"},{"SH_ID_36":"10frz3a","区36":"e","地址":"安亭镇玉兰二村","lng":121.15839522002166,"lat":31.297021464265143,"确诊日期36":"m"},{"SH_ID_36":"10g82l1","区36":"e","地址":"安亭镇玉兰二村","lng":121.15839522002166,"lat":31.297021464265143,"确诊日期36":"s"},{"SH_ID_36":"10frqxp","区36":"e","地址":"安亭镇玉兰三村","lng":121.16023721250332,"lat":31.299600541514494,"确诊日期36":"l"},{"SH_ID_36":"10frz3b","区36":"e","地址":"安亭镇玉兰三村","lng":121.16023721250332,"lat":31.299600541514494,"确诊日期36":"m"},{"SH_ID_36":"10fs6vg","区36":"e","地址":"安亭镇玉兰三村","lng":121.16023721250332,"lat":31.299600541514494,"确诊日期36":"n"},{"SH_ID_36":"10fsemt","区36":"e","地址":"安亭镇玉兰三村","lng":121.16023721250332,"lat":31.299600541514494,"确诊日期36":"o"},{"SH_ID_36":"10g7mj6","区36":"e","地址":"安亭镇玉兰三村","lng":121.16023721250332,"lat":31.299600541514494,"确诊日期36":"q"},{"SH_ID_36":"10g7ut9","区36":"e","地址":"安亭镇玉兰三村","lng":121.16023721250332,"lat":31.299600541514494,"确诊日期36":"r"},{"SH_ID_36":"10fs6vh","区36":"e","地址":"安亭镇玉兰四村","lng":121.16609703503278,"lat":31.297361986542825,"确诊日期36":"n"},{"SH_ID_36":"10frqxn","区36":"e","地址":"安亭镇玉兰一村","lng":121.16134916519265,"lat":31.297444619018506,"确诊日期36":"l"},{"SH_ID_36":"10frz39","区36":"e","地址":"安亭镇玉兰一村","lng":121.16134916519265,"lat":31.297444619018506,"确诊日期36":"m"},{"SH_ID_36":"10fs6vf","区36":"e","地址":"安亭镇玉兰一村","lng":121.16134916519265,"lat":31.297444619018506,"确诊日期36":"n"},{"SH_ID_36":"10fsems","区36":"e","地址":"安亭镇玉兰一村","lng":121.16134916519265,"lat":31.297444619018506,"确诊日期36":"o"},{"SH_ID_36":"10g7mj5","区36":"e","地址":"安亭镇玉兰一村","lng":121.16134916519265,"lat":31.297444619018506,"确诊日期36":"q"},{"SH_ID_36":"10g7ut7","区36":"e","地址":"安亭镇玉兰一村","lng":121.16134916519265,"lat":31.297444619018506,"确诊日期36":"r"},{"SH_ID_36":"10g82l0","区36":"e","地址":"安亭镇玉兰一村","lng":121.16134916519265,"lat":31.297444619018506,"确诊日期36":"s"},{"SH_ID_36":"10g7uta","区36":"e","地址":"安亭镇赵巷村","lng":121.21998715906786,"lat":31.302037940807534,"确诊日期36":"r"},{"SH_ID_36":"10fpd5h","区36":"e","地址":"安新村","lng":121.31275359574552,"lat":31.453120465941836,"确诊日期36":"a"},{"SH_ID_36":"10g8qvc","区36":"e","地址":"安新村","lng":121.31275359574552,"lat":31.453120465941836,"确诊日期36":"v"},{"SH_ID_36":"10g8ykk","区36":"e","地址":"安新村","lng":121.31275359574552,"lat":31.453120465941836,"确诊日期36":"w"},{"SH_ID_36":"10g96r3","区36":"e","地址":"安新村","lng":121.31275359574552,"lat":31.453120465941836,"确诊日期36":"x"},{"SH_ID_36":"10g9mjw","区36":"e","地址":"安新村","lng":121.31275359574552,"lat":31.453120465941836,"确诊日期36":"z"},{"SH_ID_36":"10g9u6f","区36":"e","地址":"安新村","lng":121.31275359574552,"lat":31.453120465941836,"确诊日期36":"10"},{"SH_ID_36":"10ga1tm","区36":"e","地址":"安新村","lng":121.31275359574552,"lat":31.453120465941836,"确诊日期36":"11"},{"SH_ID_36":"10ga9h6","区36":"e","地址":"安新村","lng":121.31275359574552,"lat":31.453120465941836,"确诊日期36":"12"},{"SH_ID_36":"10g8ali","区36":"e","地址":"安新路968号","lng":121.31440475832267,"lat":31.46229736586136,"确诊日期36":"t"},{"SH_ID_36":"10g8ifa","区36":"e","地址":"安新路968号","lng":121.31440475832267,"lat":31.46229736586136,"确诊日期36":"u"},{"SH_ID_36":"10g96r4","区36":"e","地址":"安新路968号","lng":121.31440475832267,"lat":31.46229736586136,"确诊日期36":"x"},{"SH_ID_36":"10g9u6g","区36":"e","地址":"安新路968号","lng":121.31440475832267,"lat":31.46229736586136,"确诊日期36":"10"},{"SH_ID_36":"10ga1tn","区36":"e","地址":"安新路968号","lng":121.31440475832267,"lat":31.46229736586136,"确诊日期36":"11"},{"SH_ID_36":"10fq0c8","区36":"e","地址":"安研路66弄","lng":121.19094201557921,"lat":31.27449390578122,"确诊日期36":"d"},{"SH_ID_36":"10fqfst","区36":"e","地址":"安研路66弄","lng":121.19094201557921,"lat":31.27449390578122,"确诊日期36":"f"},{"SH_ID_36":"10g96r5","区36":"e","地址":"安研路66弄","lng":121.19094201557921,"lat":31.27449390578122,"确诊日期36":"x"},{"SH_ID_36":"10g8qvd","区36":"e","地址":"安研路67弄","lng":121.1862519132212,"lat":31.27539311172932,"确诊日期36":"v"},{"SH_ID_36":"10g8ykl","区36":"e","地址":"安研路67弄","lng":121.1862519132212,"lat":31.27539311172932,"确诊日期36":"w"},{"SH_ID_36":"10g96r6","区36":"e","地址":"白墙村","lng":121.208111351181,"lat":31.40134323223433,"确诊日期36":"x"},{"SH_ID_36":"10ga1to","区36":"e","地址":"白墙村","lng":121.208111351181,"lat":31.40134323223433,"确诊日期36":"11"},{"SH_ID_36":"10g8qve","区36":"e","地址":"白银路1563号","lng":121.24081977425615,"lat":31.344001121132052,"确诊日期36":"v"},{"SH_ID_36":"10g8ykm","区36":"e","地址":"白银路1563号","lng":121.24081977425615,"lat":31.344001121132052,"确诊日期36":"w"},{"SH_ID_36":"10g8qvf","区36":"e","地址":"白银路355弄","lng":121.26005198555583,"lat":31.351113983356733,"确诊日期36":"v"},{"SH_ID_36":"10ga1tp","区36":"e","地址":"白银路355弄","lng":121.26005198555583,"lat":31.351113983356733,"确诊日期36":"11"},{"SH_ID_36":"10g8alj","区36":"e","地址":"白银路399号","lng":121.25921395104432,"lat":31.351652075277944,"确诊日期36":"t"},{"SH_ID_36":"10ga1tq","区36":"e","地址":"白银路399号","lng":121.25921395104432,"lat":31.351652075277944,"确诊日期36":"11"},{"SH_ID_36":"10frz0q","区36":"e","地址":"百安公路1535号","lng":121.1897885694893,"lat":31.332163609027386,"确诊日期36":"m"},{"SH_ID_36":"10g8qvg","区36":"e","地址":"半图村","lng":121.33551497993338,"lat":31.319112029555225,"确诊日期36":"v"},{"SH_ID_36":"10g8qvh","区36":"e","地址":"包桥村","lng":121.31983393033426,"lat":31.346443997803384,"确诊日期36":"v"},{"SH_ID_36":"10g96r7","区36":"e","地址":"包桥村","lng":121.31983393033426,"lat":31.346443997803384,"确诊日期36":"x"},{"SH_ID_36":"10g9mjx","区36":"e","地址":"包桥村","lng":121.31983393033426,"lat":31.346443997803384,"确诊日期36":"z"},{"SH_ID_36":"10ga1tr","区36":"e","地址":"包桥村","lng":121.31983393033426,"lat":31.346443997803384,"确诊日期36":"11"},{"SH_ID_36":"10ga9h7","区36":"e","地址":"包桥村","lng":121.31983393033426,"lat":31.346443997803384,"确诊日期36":"12"},{"SH_ID_36":"10ga9h8","区36":"e","地址":"宝安公路2442号","lng":121.33073412106691,"lat":31.347630378530894,"确诊日期36":"12"},{"SH_ID_36":"10fnv5s","区36":"e","地址":"宝安公路2444号","lng":121.33128712398006,"lat":31.347544366272817,"确诊日期36":"3"},{"SH_ID_36":"10fs6uf","区36":"e","地址":"宝安公路2466号","lng":121.32682909141667,"lat":31.34836453614804,"确诊日期36":"n"},{"SH_ID_36":"10g8qvi","区36":"e","地址":"宝安公路2466弄","lng":121.32664408760574,"lat":31.34833254613087,"确诊日期36":"v"},{"SH_ID_36":"10g9em5","区36":"e","地址":"宝安公路2466弄","lng":121.32664408760574,"lat":31.34833254613087,"确诊日期36":"y"},{"SH_ID_36":"10g8qvj","区36":"e","地址":"宝安公路2682号","lng":121.31426180060959,"lat":31.34470237924439,"确诊日期36":"v"},{"SH_ID_36":"10g8ykq","区36":"e","地址":"宝安公路2682号","lng":121.31426180060959,"lat":31.34470237924439,"确诊日期36":"w"},{"SH_ID_36":"10g96r8","区36":"e","地址":"宝安公路2682号","lng":121.31426180060959,"lat":31.34470237924439,"确诊日期36":"x"},{"SH_ID_36":"10ga1ts","区36":"e","地址":"宝安公路2682号","lng":121.31426180060959,"lat":31.34470237924439,"确诊日期36":"11"},{"SH_ID_36":"10fq81g","区36":"e","地址":"宝安公路2888弄","lng":121.29623585902894,"lat":31.337776244903203,"确诊日期36":"e"},{"SH_ID_36":"10fnv4u","区36":"e","地址":"宝安公路2948号","lng":121.2958608503141,"lat":31.335110244526962,"确诊日期36":"3"},{"SH_ID_36":"10fnv5u","区36":"e","地址":"宝安公路2948号","lng":121.2958608503141,"lat":31.335110244526962,"确诊日期36":"3"},{"SH_ID_36":"10fqfsu","区36":"e","地址":"宝安公路2948号","lng":121.2958608503141,"lat":31.335110244526962,"确诊日期36":"f"},{"SH_ID_36":"10g7mgm","区36":"e","地址":"宝安公路2999弄","lng":121.2922529575299,"lat":31.330736004030506,"确诊日期36":"q"},{"SH_ID_36":"10g7uqw","区36":"e","地址":"宝安公路2999弄","lng":121.2922529575299,"lat":31.330736004030506,"确诊日期36":"r"},{"SH_ID_36":"10g96r9","区36":"e","地址":"宝安公路2999弄","lng":121.2922529575299,"lat":31.330736004030506,"确诊日期36":"x"},{"SH_ID_36":"10frqwy","区36":"e","地址":"宝安公路3136号","lng":121.28747715473281,"lat":31.332921546030732,"确诊日期36":"l"},{"SH_ID_36":"10ga9h9","区36":"e","地址":"宝安公路3136弄","lng":121.28700617284285,"lat":31.332725510051226,"确诊日期36":"12"},{"SH_ID_36":"10g8qvk","区36":"e","地址":"宝安公路3421弄","lng":121.2802733931809,"lat":31.329848118307876,"确诊日期36":"v"},{"SH_ID_36":"10g96ra","区36":"e","地址":"宝安公路3421弄","lng":121.2802733931809,"lat":31.329848118307876,"确诊日期36":"x"},{"SH_ID_36":"10g96rb","区36":"e","地址":"宝安公路3525弄","lng":121.27675147116082,"lat":31.328583049899063,"确诊日期36":"x"},{"SH_ID_36":"10g9em6","区36":"e","地址":"宝安公路3525弄","lng":121.27675147116082,"lat":31.328583049899063,"确诊日期36":"y"},{"SH_ID_36":"10fsel5","区36":"e","地址":"宝安公路3650弄","lng":121.2695275090575,"lat":31.327895249700184,"确诊日期36":"o"},{"SH_ID_36":"10fopzp","区36":"e","地址":"宝安公路3705号","lng":121.2688675158304,"lat":31.32447932405474,"确诊日期36":"7"},{"SH_ID_36":"10g96rc","区36":"e","地址":"宝安公路3705号","lng":121.2688675158304,"lat":31.32447932405474,"确诊日期36":"x"},{"SH_ID_36":"10g9em7","区36":"e","地址":"宝安公路3705号","lng":121.2688675158304,"lat":31.32447932405474,"确诊日期36":"y"},{"SH_ID_36":"10ga1tt","区36":"e","地址":"宝安公路3705号","lng":121.2688675158304,"lat":31.32447932405474,"确诊日期36":"11"},{"SH_ID_36":"10friy5","区36":"e","地址":"宝安公路3705弄","lng":121.26857351122989,"lat":31.32556933202012,"确诊日期36":"k"},{"SH_ID_36":"10g7mgn","区36":"e","地址":"宝安公路3705弄","lng":121.26857351122989,"lat":31.32556933202012,"确诊日期36":"q"},{"SH_ID_36":"10g7uqx","区36":"e","地址":"宝安公路3705弄","lng":121.26857351122989,"lat":31.32556933202012,"确诊日期36":"r"},{"SH_ID_36":"10fn807","区36":"e","地址":"宝安公路3705弄","lng":121.26857351122989,"lat":31.32556933202012,"确诊日期36":"0"},{"SH_ID_36":"10fn808","区36":"e","地址":"宝安公路3705弄","lng":121.26857351122989,"lat":31.32556933202012,"确诊日期36":"0"},{"SH_ID_36":"10fn809","区36":"e","地址":"宝安公路3705弄","lng":121.26857351122989,"lat":31.32556933202012,"确诊日期36":"0"},{"SH_ID_36":"10fn80a","区36":"e","地址":"宝安公路3705弄","lng":121.26857351122989,"lat":31.32556933202012,"确诊日期36":"0"},{"SH_ID_36":"10fn80b","区36":"e","地址":"宝安公路3705弄","lng":121.26857351122989,"lat":31.32556933202012,"确诊日期36":"0"},{"SH_ID_36":"10fn80d","区36":"e","地址":"宝安公路3705弄","lng":121.26857351122989,"lat":31.32556933202012,"确诊日期36":"0"},{"SH_ID_36":"10fnfp8","区36":"e","地址":"宝安公路3705弄","lng":121.26857351122989,"lat":31.32556933202012,"确诊日期36":"1"},{"SH_ID_36":"10fnfpa","区36":"e","地址":"宝安公路3705弄","lng":121.26857351122989,"lat":31.32556933202012,"确诊日期36":"1"},{"SH_ID_36":"10fnfpc","区36":"e","地址":"宝安公路3705弄","lng":121.26857351122989,"lat":31.32556933202012,"确诊日期36":"1"},{"SH_ID_36":"10fnfpd","区36":"e","地址":"宝安公路3705弄","lng":121.26857351122989,"lat":31.32556933202012,"确诊日期36":"1"},{"SH_ID_36":"10fnnf6","区36":"e","地址":"宝安公路3705弄","lng":121.26857351122989,"lat":31.32556933202012,"确诊日期36":"2"},{"SH_ID_36":"10fnnf7","区36":"e","地址":"宝安公路3705弄","lng":121.26857351122989,"lat":31.32556933202012,"确诊日期36":"2"},{"SH_ID_36":"10fnv4q","区36":"e","地址":"宝安公路3705弄","lng":121.26857351122989,"lat":31.32556933202012,"确诊日期36":"3"},{"SH_ID_36":"10fnv4s","区36":"e","地址":"宝安公路3705弄","lng":121.26857351122989,"lat":31.32556933202012,"确诊日期36":"3"},{"SH_ID_36":"10fnv4t","区36":"e","地址":"宝安公路3705弄","lng":121.26857351122989,"lat":31.32556933202012,"确诊日期36":"3"},{"SH_ID_36":"10fnv5t","区36":"e","地址":"宝安公路3705弄","lng":121.26857351122989,"lat":31.32556933202012,"确诊日期36":"3"},{"SH_ID_36":"10foakq","区36":"e","地址":"宝安公路3705弄","lng":121.26857351122989,"lat":31.32556933202012,"确诊日期36":"5"},{"SH_ID_36":"10foxpl","区36":"e","地址":"宝安公路3705弄","lng":121.26857351122989,"lat":31.32556933202012,"确诊日期36":"8"},{"SH_ID_36":"10g8ykn","区36":"e","地址":"宝安公路3705弄","lng":121.26857351122989,"lat":31.32556933202012,"确诊日期36":"w"},{"SH_ID_36":"10g9mjy","区36":"e","地址":"宝安公路3705弄","lng":121.26857351122989,"lat":31.32556933202012,"确诊日期36":"z"},{"SH_ID_36":"10ga9ha","区36":"e","地址":"宝安公路3705弄","lng":121.26857351122989,"lat":31.32556933202012,"确诊日期36":"12"},{"SH_ID_36":"10g7uqy","区36":"e","地址":"宝安公路3799号","lng":121.26325943903214,"lat":31.323137778404938,"确诊日期36":"r"},{"SH_ID_36":"10g82hi","区36":"e","地址":"宝安公路3799号","lng":121.26325943903214,"lat":31.323137778404938,"确诊日期36":"s"},{"SH_ID_36":"10g8ifb","区36":"e","地址":"宝安公路3799号","lng":121.26325943903214,"lat":31.323137778404938,"确诊日期36":"u"},{"SH_ID_36":"10g96rd","区36":"e","地址":"宝安公路3799号","lng":121.26325943903214,"lat":31.323137778404938,"确诊日期36":"x"},{"SH_ID_36":"10g9em8","区36":"e","地址":"宝安公路3799号","lng":121.26325943903214,"lat":31.323137778404938,"确诊日期36":"y"},{"SH_ID_36":"10ga1tu","区36":"e","地址":"宝安公路3799号","lng":121.26325943903214,"lat":31.323137778404938,"确诊日期36":"11"},{"SH_ID_36":"10g7mgo","区36":"e","地址":"宝安公路3799弄","lng":121.26329243861004,"lat":31.323691773038394,"确诊日期36":"q"},{"SH_ID_36":"10g8qvl","区36":"e","地址":"宝安公路3799弄","lng":121.26329243861004,"lat":31.323691773038394,"确诊日期36":"v"},{"SH_ID_36":"10g9mjz","区36":"e","地址":"宝安公路3799弄","lng":121.26329243861004,"lat":31.323691773038394,"确诊日期36":"z"},{"SH_ID_36":"10g8ifc","区36":"e","地址":"宝安公路4188号","lng":121.22818501593235,"lat":31.31858979489852,"确诊日期36":"u"},{"SH_ID_36":"10g8qvm","区36":"e","地址":"宝安公路4188号","lng":121.22818501593235,"lat":31.31858979489852,"确诊日期36":"v"},{"SH_ID_36":"10g96re","区36":"e","地址":"宝安公路4188号","lng":121.22818501593235,"lat":31.31858979489852,"确诊日期36":"x"},{"SH_ID_36":"10g9mk0","区36":"e","地址":"宝安公路4188号工地","lng":121.22818501593235,"lat":31.31858979489852,"确诊日期36":"z"},{"SH_ID_36":"10ga1tv","区36":"e","地址":"宝安公路4188号工地","lng":121.22818501593235,"lat":31.31858979489852,"确诊日期36":"11"},{"SH_ID_36":"10ga9hb","区36":"e","地址":"宝安公路4188号工地","lng":121.22818501593235,"lat":31.31858979489852,"确诊日期36":"12"},{"SH_ID_36":"10g7una","区36":"e","地址":"宝安公路4259号","lng":121.22698803092601,"lat":31.316781646905014,"确诊日期36":"r"},{"SH_ID_36":"10g8yko","区36":"e","地址":"宝安公路4339号","lng":121.22637603225324,"lat":31.316988594129146,"确诊日期36":"w"},{"SH_ID_36":"10g9mk1","区36":"e","地址":"宝安公路4339号","lng":121.22637603225324,"lat":31.316988594129146,"确诊日期36":"z"},{"SH_ID_36":"10ga1tw","区36":"e","地址":"宝安公路4339号","lng":121.22637603225324,"lat":31.316988594129146,"确诊日期36":"11"},{"SH_ID_36":"10ga9hc","区36":"e","地址":"宝安公路4339号","lng":121.22637603225324,"lat":31.316988594129146,"确诊日期36":"12"},{"SH_ID_36":"10g96rf","区36":"e","地址":"宝安公路4385弄","lng":121.22150103959422,"lat":31.316539205203245,"确诊日期36":"x"},{"SH_ID_36":"10g9mk2","区36":"e","地址":"宝安公路5037号","lng":121.18881748200026,"lat":31.31283182737212,"确诊日期36":"z"},{"SH_ID_36":"10g7mgp","区36":"e","地址":"宝安公路5063号","lng":121.18643649033547,"lat":31.312401913554627,"确诊日期36":"q"},{"SH_ID_36":"10g7unb","区36":"e","地址":"宝安公路5063号","lng":121.18643649033547,"lat":31.312401913554627,"确诊日期36":"r"},{"SH_ID_36":"10g8ykp","区36":"e","地址":"宝安公路安晓路交叉口工地","lng":121.19080749210397,"lat":31.312450725558215,"确诊日期36":"w"},{"SH_ID_36":"10fnfph","区36":"e","地址":"宝安公路李家村","lng":121.339175038856,"lat":31.33993743184885,"确诊日期36":"1"},{"SH_ID_36":"10fnfpi","区36":"e","地址":"宝安公路李家村","lng":121.339175038856,"lat":31.33993743184885,"确诊日期36":"1"},{"SH_ID_36":"10g8qvn","区36":"e","地址":"宝凤路519号","lng":121.2912869224946,"lat":31.43517520710831,"确诊日期36":"v"},{"SH_ID_36":"10g8ykr","区36":"e","地址":"宝凤路519号","lng":121.2912869224946,"lat":31.43517520710831,"确诊日期36":"w"},{"SH_ID_36":"10g9mk3","区36":"e","地址":"宝凤路519号","lng":121.2912869224946,"lat":31.43517520710831,"确诊日期36":"z"},{"SH_ID_36":"10ga1tx","区36":"e","地址":"宝凤路519号","lng":121.2912869224946,"lat":31.43517520710831,"确诊日期36":"11"},{"SH_ID_36":"10ga1ty","区36":"e","地址":"宝凤路699号","lng":121.28677710868068,"lat":31.434029829576446,"确诊日期36":"11"},{"SH_ID_36":"10fr38u","区36":"e","地址":"宝乐路58弄","lng":121.2894710717793,"lat":31.331144748956966,"确诊日期36":"i"},{"SH_ID_36":"10fnneq","区36":"e","地址":"宝乐路58弄","lng":121.2894710717793,"lat":31.331144748956966,"确诊日期36":"2"},{"SH_ID_36":"10fnnf1","区36":"e","地址":"宝乐路58弄","lng":121.2894710717793,"lat":31.331144748956966,"确诊日期36":"2"},{"SH_ID_36":"10g8yks","区36":"e","地址":"宝乐路58弄","lng":121.2894710717793,"lat":31.331144748956966,"确诊日期36":"w"},{"SH_ID_36":"10g96rg","区36":"e","地址":"宝乐路58弄","lng":121.2894710717793,"lat":31.331144748956966,"确诊日期36":"x"},{"SH_ID_36":"10fr38v","区36":"e","地址":"宝钱公路1083号","lng":121.2769584713161,"lat":31.444670108072305,"确诊日期36":"i"},{"SH_ID_36":"10g7unv","区36":"e","地址":"宝钱公路2977号","lng":121.2075830120041,"lat":31.420922196836184,"确诊日期36":"r"},{"SH_ID_36":"10fqv7t","区36":"e","地址":"宝钱公路3488弄","lng":121.19243375263046,"lat":31.412334773642794,"确诊日期36":"h"},{"SH_ID_36":"10g9mk4","区36":"e","地址":"宝钱公路438号","lng":121.30094664975205,"lat":31.44965562393428,"确诊日期36":"z"},{"SH_ID_36":"10fsel6","区36":"e","地址":"宝钱公路5888弄","lng":121.1163427106236,"lat":31.365184773512862,"确诊日期36":"o"},{"SH_ID_36":"10g7urp","区36":"e","地址":"宝钱公路5888弄","lng":121.1163427106236,"lat":31.365184773512862,"确诊日期36":"r"},{"SH_ID_36":"10fq81h","区36":"e","地址":"宝钱公路嘉朱公路757号","lng":121.19240777573515,"lat":31.410986782678286,"确诊日期36":"e"},{"SH_ID_36":"10g7mgq","区36":"e","地址":"宝塔路286号","lng":121.26049411658047,"lat":31.34481996387646,"确诊日期36":"q"},{"SH_ID_36":"10g8ykt","区36":"e","地址":"宝翔路158弄","lng":121.32612094484821,"lat":31.30265032230255,"确诊日期36":"w"},{"SH_ID_36":"10ga9hd","区36":"e","地址":"宝翔路158弄","lng":121.32612094484821,"lat":31.30265032230255,"确诊日期36":"12"},{"SH_ID_36":"10g8qvo","区36":"e","地址":"宝翔路225弄","lng":121.31965267246619,"lat":31.309774959519615,"确诊日期36":"v"},{"SH_ID_36":"10g8yku","区36":"e","地址":"宝翔路225弄","lng":121.31965267246619,"lat":31.309774959519615,"确诊日期36":"w"},{"SH_ID_36":"10g96rh","区36":"e","地址":"宝翔路225弄","lng":121.31965267246619,"lat":31.309774959519615,"确诊日期36":"x"},{"SH_ID_36":"10g9mk5","区36":"e","地址":"宝翔路225弄","lng":121.31965267246619,"lat":31.309774959519615,"确诊日期36":"z"},{"SH_ID_36":"10g8ykv","区36":"e","地址":"宝翔路556弄","lng":121.32026770158868,"lat":31.30852489946676,"确诊日期36":"w"},{"SH_ID_36":"10fnfpb","区36":"e","地址":"宝翔路560弄","lng":121.3224677534659,"lat":31.30945767138216,"确诊日期36":"1"},{"SH_ID_36":"10fqfsv","区36":"e","地址":"宝翔路560弄","lng":121.3224677534659,"lat":31.30945767138216,"确诊日期36":"f"},{"SH_ID_36":"10g8qvp","区36":"e","地址":"宝翔路560弄","lng":121.3224677534659,"lat":31.30945767138216,"确诊日期36":"v"},{"SH_ID_36":"10g8ykw","区36":"e","地址":"宝翔路560弄","lng":121.3224677534659,"lat":31.30945767138216,"确诊日期36":"w"},{"SH_ID_36":"10g96ri","区36":"e","地址":"宝翔路560弄","lng":121.3224677534659,"lat":31.30945767138216,"确诊日期36":"x"},{"SH_ID_36":"10g9em9","区36":"e","地址":"宝翔路560弄","lng":121.3224677534659,"lat":31.30945767138216,"确诊日期36":"y"},{"SH_ID_36":"10g9mk6","区36":"e","地址":"宝翔路560弄","lng":121.3224677534659,"lat":31.30945767138216,"确诊日期36":"z"},{"SH_ID_36":"10g9u6h","区36":"e","地址":"宝翔路560弄","lng":121.3224677534659,"lat":31.30945767138216,"确诊日期36":"10"},{"SH_ID_36":"10ga1tz","区36":"e","地址":"宝翔路560弄","lng":121.3224677534659,"lat":31.30945767138216,"确诊日期36":"11"},{"SH_ID_36":"10ga9he","区36":"e","地址":"宝翔路560弄","lng":121.3224677534659,"lat":31.30945767138216,"确诊日期36":"12"},{"SH_ID_36":"10g96rj","区36":"e","地址":"宝翔路888弄","lng":121.31863462119274,"lat":31.31283205358452,"确诊日期36":"x"},{"SH_ID_36":"10g9mk7","区36":"e","地址":"宝翔路888弄","lng":121.31863462119274,"lat":31.31283205358452,"确诊日期36":"z"},{"SH_ID_36":"10frivw","区36":"e","地址":"宝翔路998弄","lng":121.3182125974289,"lat":31.315342087331025,"确诊日期36":"k"},{"SH_ID_36":"10g8ykx","区36":"e","地址":"宝翔路998弄","lng":121.3182125974289,"lat":31.315342087331025,"确诊日期36":"w"},{"SH_ID_36":"10g96rk","区36":"e","地址":"宝翔路998弄","lng":121.3182125974289,"lat":31.315342087331025,"确诊日期36":"x"},{"SH_ID_36":"10g9mk8","区36":"e","地址":"宝翔路998弄","lng":121.3182125974289,"lat":31.315342087331025,"确诊日期36":"z"},{"SH_ID_36":"10ga1u0","区36":"e","地址":"宝翔路998弄","lng":121.3182125974289,"lat":31.315342087331025,"确诊日期36":"11"},{"SH_ID_36":"10g8qvq","区36":"e","地址":"宝翔路小学工地","lng":121.26546623207663,"lat":31.34583342791115,"确诊日期36":"v"},{"SH_ID_36":"10g9ema","区36":"e","地址":"宝翔路小学工地","lng":121.26546623207663,"lat":31.34583342791115,"确诊日期36":"y"},{"SH_ID_36":"10g9mk9","区36":"e","地址":"宝翔路小学工地","lng":121.26546623207663,"lat":31.34583342791115,"确诊日期36":"z"},{"SH_ID_36":"10ga9hf","区36":"e","地址":"宝翔路小学工地","lng":121.26546623207663,"lat":31.34583342791115,"确诊日期36":"12"},{"SH_ID_36":"10g8yky","区36":"e","地址":"宝翔路一建小学项目部","lng":121.32026770158868,"lat":31.30852489946676,"确诊日期36":"w"},{"SH_ID_36":"10g96rl","区36":"e","地址":"北陈路320号","lng":121.32412681049911,"lat":31.333635609736163,"确诊日期36":"x"},{"SH_ID_36":"10fp5ge","区36":"e","地址":"北大街108弄","lng":121.24817351705566,"lat":31.3868966965153,"确诊日期36":"9"},{"SH_ID_36":"10g7uo8","区36":"e","地址":"北大街280弄","lng":121.2466675676539,"lat":31.391279687742145,"确诊日期36":"r"},{"SH_ID_36":"10g8qvr","区36":"e","地址":"北管村","lng":121.32542082783574,"lat":31.33272351328936,"确诊日期36":"v"},{"SH_ID_36":"10g96rm","区36":"e","地址":"北管村","lng":121.32542082783574,"lat":31.33272351328936,"确诊日期36":"x"},{"SH_ID_36":"10g9mka","区36":"e","地址":"北管村","lng":121.32542082783574,"lat":31.33272351328936,"确诊日期36":"z"},{"SH_ID_36":"10ga1u1","区36":"e","地址":"北管村","lng":121.32542082783574,"lat":31.33272351328936,"确诊日期36":"11"},{"SH_ID_36":"10ga9hg","区36":"e","地址":"北管村","lng":121.32542082783574,"lat":31.33272351328936,"确诊日期36":"12"},{"SH_ID_36":"10fr38w","区36":"e","地址":"北和公路1650号","lng":121.17897063662588,"lat":31.424663931746995,"确诊日期36":"i"},{"SH_ID_36":"10frb74","区36":"e","地址":"北和公路1650号","lng":121.17897063662588,"lat":31.424663931746995,"确诊日期36":"j"},{"SH_ID_36":"10frivx","区36":"e","地址":"北和公路1650号","lng":121.17897063662588,"lat":31.424663931746995,"确诊日期36":"k"},{"SH_ID_36":"10frqvi","区36":"e","地址":"北和公路1650号","lng":121.17897063662588,"lat":31.424663931746995,"确诊日期36":"l"},{"SH_ID_36":"10frz0r","区36":"e","地址":"北和公路1650号","lng":121.17897063662588,"lat":31.424663931746995,"确诊日期36":"m"},{"SH_ID_36":"10fs6t5","区36":"e","地址":"北和公路1650号","lng":121.17897063662588,"lat":31.424663931746995,"确诊日期36":"n"},{"SH_ID_36":"10fsm31","区36":"e","地址":"北和公路1650号","lng":121.17897063662588,"lat":31.424663931746995,"确诊日期36":"p"},{"SH_ID_36":"10g7mgr","区36":"e","地址":"北和公路1650号","lng":121.17897063662588,"lat":31.424663931746995,"确诊日期36":"q"},{"SH_ID_36":"10g7unw","区36":"e","地址":"北和公路1650号","lng":121.17897063662588,"lat":31.424663931746995,"确诊日期36":"r"},{"SH_ID_36":"10fqv7u","区36":"e","地址":"北和公路1650号","lng":121.17897063662588,"lat":31.424663931746995,"确诊日期36":"h"},{"SH_ID_36":"10g8ykz","区36":"e","地址":"北和公路1650号","lng":121.17897063662588,"lat":31.424663931746995,"确诊日期36":"w"},{"SH_ID_36":"10g9emb","区36":"e","地址":"北和公路1650号","lng":121.17897063662588,"lat":31.424663931746995,"确诊日期36":"y"},{"SH_ID_36":"10ga1u2","区36":"e","地址":"北和公路1650号","lng":121.17897063662588,"lat":31.424663931746995,"确诊日期36":"11"},{"SH_ID_36":"10g8alk","区36":"e","地址":"北新村","lng":121.25882102898973,"lat":31.466924142850424,"确诊日期36":"t"},{"SH_ID_36":"10g8qvs","区36":"e","地址":"北新村","lng":121.25882102898973,"lat":31.466924142850424,"确诊日期36":"v"},{"SH_ID_36":"10g8yl0","区36":"e","地址":"北新村","lng":121.25882102898973,"lat":31.466924142850424,"确诊日期36":"w"},{"SH_ID_36":"10g96rn","区36":"e","地址":"北新村","lng":121.25882102898973,"lat":31.466924142850424,"确诊日期36":"x"},{"SH_ID_36":"10g9mkb","区36":"e","地址":"北新村","lng":121.25882102898973,"lat":31.466924142850424,"确诊日期36":"z"},{"SH_ID_36":"10g8qvt","区36":"e","地址":"北栅桥路199号","lng":121.35879564594701,"lat":31.258153701523753,"确诊日期36":"v"},{"SH_ID_36":"10g9u6i","区36":"e","地址":"博学路89号","lng":121.31068872451586,"lat":31.342462551849696,"确诊日期36":"10"},{"SH_ID_36":"10ga9hh","区36":"e","地址":"博学路89号","lng":121.31068872451586,"lat":31.342462551849696,"确诊日期36":"12"},{"SH_ID_36":"10fsel7","区36":"e","地址":"博园路2199弄","lng":121.25987562919397,"lat":31.26078291181887,"确诊日期36":"o"},{"SH_ID_36":"10frivy","区36":"e","地址":"博园路422号","lng":121.17920282019901,"lat":31.279980038646357,"确诊日期36":"k"},{"SH_ID_36":"10frz0s","区36":"e","地址":"博园路4508号","lng":121.17920282019901,"lat":31.279980038646357,"确诊日期36":"m"},{"SH_ID_36":"10fp5hl","区36":"e","地址":"博园路7578号","lng":121.1697099163802,"lat":31.28189030743054,"确诊日期36":"9"},{"SH_ID_36":"10g8qvu","区36":"e","地址":"博园路8200弄","lng":121.15792604227377,"lat":31.280116378229618,"确诊日期36":"v"},{"SH_ID_36":"10g96ro","区36":"e","地址":"博园路8200弄","lng":121.15792604227377,"lat":31.280116378229618,"确诊日期36":"x"},{"SH_ID_36":"10g96rp","区36":"e","地址":"博园路888号","lng":121.20550647374591,"lat":31.264263582673113,"确诊日期36":"x"},{"SH_ID_36":"10g9emc","区36":"e","地址":"博园路888号","lng":121.20550647374591,"lat":31.264263582673113,"确诊日期36":"y"},{"SH_ID_36":"10ga9hi","区36":"e","地址":"博园路888号","lng":121.20550647374591,"lat":31.264263582673113,"确诊日期36":"12"},{"SH_ID_36":"10g8yl2","区36":"e","地址":"博园路898号","lng":121.2854250413278,"lat":31.255947491223566,"确诊日期36":"w"},{"SH_ID_36":"10g9mkc","区36":"e","地址":"博园路898号","lng":121.2854250413278,"lat":31.255947491223566,"确诊日期36":"z"},{"SH_ID_36":"10g9u6j","区36":"e","地址":"博园路898号","lng":121.2854250413278,"lat":31.255947491223566,"确诊日期36":"10"},{"SH_ID_36":"10ga1u3","区36":"e","地址":"博园路898号","lng":121.2854250413278,"lat":31.255947491223566,"确诊日期36":"11"},{"SH_ID_36":"10g96rq","区36":"e","地址":"仓场村","lng":121.27656715767101,"lat":31.361518848207126,"确诊日期36":"x"},{"SH_ID_36":"10g9mkd","区36":"e","地址":"仓场村","lng":121.27656715767101,"lat":31.361518848207126,"确诊日期36":"z"},{"SH_ID_36":"10ga1u4","区36":"e","地址":"仓场村","lng":121.27656715767101,"lat":31.361518848207126,"确诊日期36":"11"},{"SH_ID_36":"10ga9hj","区36":"e","地址":"仓场村","lng":121.27656715767101,"lat":31.361518848207126,"确诊日期36":"12"},{"SH_ID_36":"10g82h6","区36":"e","地址":"仓场路421弄","lng":121.27098989840363,"lat":31.382225122025467,"确诊日期36":"s"},{"SH_ID_36":"10g8all","区36":"e","地址":"仓场路421弄","lng":121.27098989840363,"lat":31.382225122025467,"确诊日期36":"t"},{"SH_ID_36":"10g8qvv","区36":"e","地址":"仓场路421弄","lng":121.27098989840363,"lat":31.382225122025467,"确诊日期36":"v"},{"SH_ID_36":"10g8qvw","区36":"e","地址":"仓场路441弄","lng":121.26993587632417,"lat":31.382061161289993,"确诊日期36":"v"},{"SH_ID_36":"10frz0t","区36":"e","地址":"曹安公路1090号","lng":121.2693899115753,"lat":31.273550302909992,"确诊日期36":"m"},{"SH_ID_36":"10fr38x","区36":"e","地址":"曹安公路1183号","lng":121.2693899115753,"lat":31.273550302909992,"确诊日期36":"i"},{"SH_ID_36":"10g8qvx","区36":"e","地址":"曹安公路1191号","lng":121.2693899115753,"lat":31.273550302909992,"确诊日期36":"v"},{"SH_ID_36":"10g9mke","区36":"e","地址":"曹安公路1501号","lng":121.37042951314591,"lat":31.249217774832847,"确诊日期36":"z"},{"SH_ID_36":"10g9emd","区36":"e","地址":"曹安公路1525号","lng":121.36980049448324,"lat":31.251450788379323,"确诊日期36":"y"},{"SH_ID_36":"10frix9","区36":"e","地址":"曹安公路1558号","lng":121.36884448564282,"lat":31.2529038200831,"确诊日期36":"k"},{"SH_ID_36":"10g8qvy","区36":"e","地址":"曹安公路1583号","lng":121.36906549292253,"lat":31.251341827433034,"确诊日期36":"v"},{"SH_ID_36":"10g96rr","区36":"e","地址":"曹安公路1583号","lng":121.36906549292253,"lat":31.251341827433034,"确诊日期36":"x"},{"SH_ID_36":"10g96rs","区36":"e","地址":"曹安公路1588弄","lng":121.36956748514072,"lat":31.25352477833127,"确诊日期36":"x"},{"SH_ID_36":"10g8qvz","区36":"e","地址":"曹安公路1611号","lng":121.36792949021121,"lat":31.251721871923184,"确诊日期36":"v"},{"SH_ID_36":"10g96rt","区36":"e","地址":"曹安公路1611号","lng":121.36792949021121,"lat":31.251721871923184,"确诊日期36":"x"},{"SH_ID_36":"10fqv7v","区36":"e","地址":"曹安公路1615号","lng":121.36731649207124,"lat":31.251650894027787,"确诊日期36":"h"},{"SH_ID_36":"10g8qw0","区36":"e","地址":"曹安公路1636号","lng":121.2693899115753,"lat":31.273550302909992,"确诊日期36":"v"},{"SH_ID_36":"10frivz","区36":"e","地址":"曹安公路1685号","lng":121.36576749939246,"lat":31.252274923396474,"确诊日期36":"k"},{"SH_ID_36":"10fs6uy","区36":"e","地址":"曹安公路1685号","lng":121.36576749939246,"lat":31.252274923396474,"确诊日期36":"n"},{"SH_ID_36":"10g7mgs","区36":"e","地址":"曹安公路1685号","lng":121.36576749939246,"lat":31.252274923396474,"确诊日期36":"q"},{"SH_ID_36":"10g7usb","区36":"e","地址":"曹安公路1685号","lng":121.36576749939246,"lat":31.252274923396474,"确诊日期36":"r"},{"SH_ID_36":"10g8qw1","区36":"e","地址":"曹安公路1685号","lng":121.36576749939246,"lat":31.252274923396474,"确诊日期36":"v"},{"SH_ID_36":"10g8yl3","区36":"e","地址":"曹安公路1685号","lng":121.36576749939246,"lat":31.252274923396474,"确诊日期36":"w"},{"SH_ID_36":"10g96ru","区36":"e","地址":"曹安公路1685号","lng":121.36576749939246,"lat":31.252274923396474,"确诊日期36":"x"},{"SH_ID_36":"10g9eme","区36":"e","地址":"曹安公路1685号","lng":121.36576749939246,"lat":31.252274923396474,"确诊日期36":"y"},{"SH_ID_36":"10g8qw2","区36":"e","地址":"曹安公路1688号","lng":121.36422551336949,"lat":31.254027911560396,"确诊日期36":"v"},{"SH_ID_36":"10g9mkf","区36":"e","地址":"曹安公路1688号","lng":121.36422551336949,"lat":31.254027911560396,"确诊日期36":"z"},{"SH_ID_36":"10g7usc","区36":"e","地址":"曹安公路1718号","lng":121.36466050756742,"lat":31.253937912507215,"确诊日期36":"r"},{"SH_ID_36":"10fqv7w","区36":"e","地址":"曹安公路1718号","lng":121.36466050756742,"lat":31.253937912507215,"确诊日期36":"h"},{"SH_ID_36":"10g8qw3","区36":"e","地址":"曹安公路1718号","lng":121.36466050756742,"lat":31.253937912507215,"确诊日期36":"v"},{"SH_ID_36":"10g8yl4","区36":"e","地址":"曹安公路1718号","lng":121.36466050756742,"lat":31.253937912507215,"确诊日期36":"w"},{"SH_ID_36":"10g96rv","区36":"e","地址":"曹安公路1718号","lng":121.36466050756742,"lat":31.253937912507215,"确诊日期36":"x"},{"SH_ID_36":"10g9mkg","区36":"e","地址":"曹安公路1718号","lng":121.36466050756742,"lat":31.253937912507215,"确诊日期36":"z"},{"SH_ID_36":"10frixa","区36":"e","地址":"曹安公路1760号","lng":121.36387551807452,"lat":31.25435090648841,"确诊日期36":"k"},{"SH_ID_36":"10g8qw4","区36":"e","地址":"曹安公路1775号","lng":121.36343852671126,"lat":31.25265892930374,"确诊日期36":"v"},{"SH_ID_36":"10g96rw","区36":"e","地址":"曹安公路1775号","lng":121.36343852671126,"lat":31.25265892930374,"确诊日期36":"x"},{"SH_ID_36":"10g9emf","区36":"e","地址":"曹安公路1775号","lng":121.36343852671126,"lat":31.25265892930374,"确诊日期36":"y"},{"SH_ID_36":"10ga9hk","区36":"e","地址":"曹安公路1775弄","lng":121.36343852671126,"lat":31.25265892930374,"确诊日期36":"12"},{"SH_ID_36":"10fr38y","区36":"e","地址":"曹安公路1777号","lng":121.36317253211699,"lat":31.25239393146067,"确诊日期36":"i"},{"SH_ID_36":"10frixf","区36":"e","地址":"曹安公路1777号","lng":121.36317253211699,"lat":31.25239393146067,"确诊日期36":"k"},{"SH_ID_36":"10fqfsw","区36":"e","地址":"曹安公路1777号","lng":121.36317253211699,"lat":31.25239393146067,"确诊日期36":"f"},{"SH_ID_36":"10fqv7x","区36":"e","地址":"曹安公路1777号","lng":121.36317253211699,"lat":31.25239393146067,"确诊日期36":"h"},{"SH_ID_36":"10frqx7","区36":"e","地址":"曹安公路1781弄","lng":121.38655983906227,"lat":31.252671299863945,"确诊日期36":"l"},{"SH_ID_36":"10g8alr","区36":"e","地址":"曹安公路1781弄","lng":121.38655983906227,"lat":31.252671299863945,"确诊日期36":"t"},{"SH_ID_36":"10frixh","区36":"e","地址":"曹安公路1798号","lng":121.36320252986545,"lat":31.254898893587054,"确诊日期36":"k"},{"SH_ID_36":"10g7mgt","区36":"e","地址":"曹安公路1798号","lng":121.36320252986545,"lat":31.254898893587054,"确诊日期36":"q"},{"SH_ID_36":"10g9emk","区36":"e","地址":"曹安公路1798号","lng":121.36320252986545,"lat":31.254898893587054,"确诊日期36":"y"},{"SH_ID_36":"10fselb","区36":"e","地址":"曹安公路1833号","lng":121.36114557220348,"lat":31.253367876941905,"确诊日期36":"o"},{"SH_ID_36":"10g96rx","区36":"e","地址":"曹安公路1865号","lng":121.36070858243245,"lat":31.253325864320715,"确诊日期36":"x"},{"SH_ID_36":"10fr38z","区36":"e","地址":"曹安公路1901号","lng":121.35990360397066,"lat":31.252607846518,"确诊日期36":"i"},{"SH_ID_36":"10g96ry","区36":"e","地址":"曹安公路1901号","lng":121.35990360397066,"lat":31.252607846518,"确诊日期36":"x"},{"SH_ID_36":"10frqx4","区36":"e","地址":"曹安公路1909号","lng":121.3600715993618,"lat":31.252800850464617,"确诊日期36":"l"},{"SH_ID_36":"10g7usd","区36":"e","地址":"曹安公路1909号","lng":121.3600715993618,"lat":31.252800850464617,"确诊日期36":"r"},{"SH_ID_36":"10g8qw5","区36":"e","地址":"曹安公路1909号","lng":121.3600715993618,"lat":31.252800850464617,"确诊日期36":"v"},{"SH_ID_36":"10g96rz","区36":"e","地址":"曹安公路1909号","lng":121.3600715993618,"lat":31.252800850464617,"确诊日期36":"x"},{"SH_ID_36":"10g7mgu","区36":"e","地址":"曹安公路1911号","lng":121.29516592602114,"lat":31.268975643342564,"确诊日期36":"q"},{"SH_ID_36":"10g7uoe","区36":"e","地址":"曹安公路1911号","lng":121.29516592602114,"lat":31.268975643342564,"确诊日期36":"r"},{"SH_ID_36":"10g96s0","区36":"e","地址":"曹安公路1911号","lng":121.29516592602114,"lat":31.268975643342564,"确诊日期36":"x"},{"SH_ID_36":"10g9mkh","区36":"e","地址":"曹安公路1911号","lng":121.29516592602114,"lat":31.268975643342564,"确诊日期36":"z"},{"SH_ID_36":"10ga1u5","区36":"e","地址":"曹安公路1911号","lng":121.29516592602114,"lat":31.268975643342564,"确诊日期36":"11"},{"SH_ID_36":"10ga9hl","区36":"e","地址":"曹安公路1911号","lng":121.29516592602114,"lat":31.268975643342564,"确诊日期36":"12"},{"SH_ID_36":"10fr390","区36":"e","地址":"曹安公路1936号","lng":121.35913463001495,"lat":31.256060754322895,"确诊日期36":"i"},{"SH_ID_36":"10frb7a","区36":"e","地址":"曹安公路1936号","lng":121.35913463001495,"lat":31.256060754322895,"确诊日期36":"j"},{"SH_ID_36":"10friw0","区36":"e","地址":"曹安公路1936号","lng":121.35913463001495,"lat":31.256060754322895,"确诊日期36":"k"},{"SH_ID_36":"10frqx5","区36":"e","地址":"曹安公路1936号","lng":121.35913463001495,"lat":31.256060754322895,"确诊日期36":"l"},{"SH_ID_36":"10frz0u","区36":"e","地址":"曹安公路1936号","lng":121.35913463001495,"lat":31.256060754322895,"确诊日期36":"m"},{"SH_ID_36":"10fs6uv","区36":"e","地址":"曹安公路1936号","lng":121.35913463001495,"lat":31.256060754322895,"确诊日期36":"n"},{"SH_ID_36":"10fsel8","区36":"e","地址":"曹安公路1936号","lng":121.35913463001495,"lat":31.256060754322895,"确诊日期36":"o"},{"SH_ID_36":"10fsm3f","区36":"e","地址":"曹安公路1936号","lng":121.35913463001495,"lat":31.256060754322895,"确诊日期36":"p"},{"SH_ID_36":"10g7mgv","区36":"e","地址":"曹安公路1936号","lng":121.35913463001495,"lat":31.256060754322895,"确诊日期36":"q"},{"SH_ID_36":"10g7uof","区36":"e","地址":"曹安公路1936号","lng":121.35913463001495,"lat":31.256060754322895,"确诊日期36":"r"},{"SH_ID_36":"10g82hj","区36":"e","地址":"曹安公路1936号","lng":121.35913463001495,"lat":31.256060754322895,"确诊日期36":"s"},{"SH_ID_36":"10g8alm","区36":"e","地址":"曹安公路1936号","lng":121.35913463001495,"lat":31.256060754322895,"确诊日期36":"t"},{"SH_ID_36":"10g8qw6","区36":"e","地址":"曹安公路1936号","lng":121.35913463001495,"lat":31.256060754322895,"确诊日期36":"v"},{"SH_ID_36":"10g96s1","区36":"e","地址":"曹安公路1936号","lng":121.35913463001495,"lat":31.256060754322895,"确诊日期36":"x"},{"SH_ID_36":"10ga9hm","区36":"e","地址":"曹安公路1937号","lng":121.2693899115753,"lat":31.273550302909992,"确诊日期36":"12"},{"SH_ID_36":"10fqv7y","区36":"e","地址":"曹安公路1948号","lng":121.2693899115753,"lat":31.273550302909992,"确诊日期36":"h"},{"SH_ID_36":"10frqx6","区36":"e","地址":"曹安公路1978号","lng":121.35698769959072,"lat":31.25598963569461,"确诊日期36":"l"},{"SH_ID_36":"10fs6uw","区36":"e","地址":"曹安公路1978号","lng":121.35698769959072,"lat":31.25598963569461,"确诊日期36":"n"},{"SH_ID_36":"10fsel9","区36":"e","地址":"曹安公路1978号","lng":121.35698769959072,"lat":31.25598963569461,"确诊日期36":"o"},{"SH_ID_36":"10g7use","区36":"e","地址":"曹安公路1978号","lng":121.35698769959072,"lat":31.25598963569461,"确诊日期36":"r"},{"SH_ID_36":"10g8qw7","区36":"e","地址":"曹安公路1978号","lng":121.35698769959072,"lat":31.25598963569461,"确诊日期36":"v"},{"SH_ID_36":"10fq81i","区36":"e","地址":"曹安公路1978弄","lng":121.2693899115753,"lat":31.273550302909992,"确诊日期36":"e"},{"SH_ID_36":"10fs6ux","区36":"e","地址":"曹安公路1980号","lng":121.35656971480671,"lat":31.256169605503413,"确诊日期36":"n"},{"SH_ID_36":"10g8yl5","区36":"e","地址":"曹安公路1980号","lng":121.35656971480671,"lat":31.256169605503413,"确诊日期36":"w"},{"SH_ID_36":"10frixg","区36":"e","地址":"曹安公路1986号","lng":121.35364983218665,"lat":31.25730336672578,"确诊日期36":"k"},{"SH_ID_36":"10frqvp","区36":"e","地址":"曹安公路1986号","lng":121.35364983218665,"lat":31.25730336672578,"确诊日期36":"l"},{"SH_ID_36":"10fs6tc","区36":"e","地址":"曹安公路1986号","lng":121.35364983218665,"lat":31.25730336672578,"确诊日期36":"n"},{"SH_ID_36":"10g7mgk","区36":"e","地址":"曹安公路1986号","lng":121.35364983218665,"lat":31.25730336672578,"确诊日期36":"q"},{"SH_ID_36":"10g7uog","区36":"e","地址":"曹安公路1986号","lng":121.35364983218665,"lat":31.25730336672578,"确诊日期36":"r"},{"SH_ID_36":"10g82ha","区36":"e","地址":"曹安公路1986号","lng":121.35364983218665,"lat":31.25730336672578,"确诊日期36":"s"},{"SH_ID_36":"10g8ifd","区36":"e","地址":"曹安公路1986号","lng":121.35364983218665,"lat":31.25730336672578,"确诊日期36":"u"},{"SH_ID_36":"10g8yl6","区36":"e","地址":"曹安公路1986号","lng":121.35364983218665,"lat":31.25730336672578,"确诊日期36":"w"},{"SH_ID_36":"10g96s2","区36":"e","地址":"曹安公路1986号","lng":121.35364983218665,"lat":31.25730336672578,"确诊日期36":"x"},{"SH_ID_36":"10fr391","区36":"e","地址":"曹安公路1991号","lng":121.21499946538378,"lat":31.273917984911403,"确诊日期36":"i"},{"SH_ID_36":"10friw1","区36":"e","地址":"曹安公路1991号","lng":121.21499946538378,"lat":31.273917984911403,"确诊日期36":"k"},{"SH_ID_36":"10frqvq","区36":"e","地址":"曹安公路1991号","lng":121.21499946538378,"lat":31.273917984911403,"确诊日期36":"l"},{"SH_ID_36":"10frz0v","区36":"e","地址":"曹安公路1991号","lng":121.21499946538378,"lat":31.273917984911403,"确诊日期36":"m"},{"SH_ID_36":"10fs6td","区36":"e","地址":"曹安公路1991号","lng":121.21499946538378,"lat":31.273917984911403,"确诊日期36":"n"},{"SH_ID_36":"10g7mgw","区36":"e","地址":"曹安公路1991号","lng":121.21499946538378,"lat":31.273917984911403,"确诊日期36":"q"},{"SH_ID_36":"10g7uoh","区36":"e","地址":"曹安公路1991号","lng":121.21499946538378,"lat":31.273917984911403,"确诊日期36":"r"},{"SH_ID_36":"10g7uop","区36":"e","地址":"曹安公路1991号","lng":121.21499946538378,"lat":31.273917984911403,"确诊日期36":"r"},{"SH_ID_36":"10g82hb","区36":"e","地址":"曹安公路1991号","lng":121.21499946538378,"lat":31.273917984911403,"确诊日期36":"s"},{"SH_ID_36":"10g8ife","区36":"e","地址":"曹安公路1991号","lng":121.21499946538378,"lat":31.273917984911403,"确诊日期36":"u"},{"SH_ID_36":"10g8qw8","区36":"e","地址":"曹安公路1991号","lng":121.21499946538378,"lat":31.273917984911403,"确诊日期36":"v"},{"SH_ID_36":"10g8yl7","区36":"e","地址":"曹安公路1991号","lng":121.21499946538378,"lat":31.273917984911403,"确诊日期36":"w"},{"SH_ID_36":"10g96s3","区36":"e","地址":"曹安公路1991号","lng":121.21499946538378,"lat":31.273917984911403,"确诊日期36":"x"},{"SH_ID_36":"10g9emg","区36":"e","地址":"曹安公路1991号","lng":121.21499946538378,"lat":31.273917984911403,"确诊日期36":"y"},{"SH_ID_36":"10g9mki","区36":"e","地址":"曹安公路1991号","lng":121.21499946538378,"lat":31.273917984911403,"确诊日期36":"z"},{"SH_ID_36":"10g9u6k","区36":"e","地址":"曹安公路1991号","lng":121.21499946538378,"lat":31.273917984911403,"确诊日期36":"10"},{"SH_ID_36":"10ga1u6","区36":"e","地址":"曹安公路1991号","lng":121.21499946538378,"lat":31.273917984911403,"确诊日期36":"11"},{"SH_ID_36":"10frix0","区36":"e","地址":"曹安公路1991弄","lng":121.21499946538378,"lat":31.273917984911403,"确诊日期36":"k"},{"SH_ID_36":"10fsm34","区36":"e","地址":"曹安公路1993号","lng":121.35189490358236,"lat":31.256727230123364,"确诊日期36":"p"},{"SH_ID_36":"10g82hk","区36":"e","地址":"曹安公路1993号","lng":121.35189490358236,"lat":31.256727230123364,"确诊日期36":"s"},{"SH_ID_36":"10g8iff","区36":"e","地址":"曹安公路1993号","lng":121.35189490358236,"lat":31.256727230123364,"确诊日期36":"u"},{"SH_ID_36":"10fs6te","区36":"e","地址":"曹安公路2019弄","lng":121.34922902170662,"lat":31.257460981108125,"确诊日期36":"n"},{"SH_ID_36":"10g7uoi","区36":"e","地址":"曹安公路2019弄","lng":121.34922902170662,"lat":31.257460981108125,"确诊日期36":"r"},{"SH_ID_36":"10g8als","区36":"e","地址":"曹安公路2019弄","lng":121.34922902170662,"lat":31.257460981108125,"确诊日期36":"t"},{"SH_ID_36":"10g8qw9","区36":"e","地址":"曹安公路2020号","lng":121.34945501586988,"lat":31.258451981648044,"确诊日期36":"v"},{"SH_ID_36":"10g9mkj","区36":"e","地址":"曹安公路2020号","lng":121.34945501586988,"lat":31.258451981648044,"确诊日期36":"z"},{"SH_ID_36":"10g9emh","区36":"e","地址":"曹安公路2031号","lng":121.3488890383067,"lat":31.257861943437913,"确诊日期36":"y"},{"SH_ID_36":"10frix8","区36":"e","地址":"曹安公路2033号","lng":121.34874404473257,"lat":31.25790792915673,"确诊日期36":"k"},{"SH_ID_36":"10g7mgx","区36":"e","地址":"曹安公路2038号","lng":121.34880104568396,"lat":31.258747917786796,"确诊日期36":"q"},{"SH_ID_36":"10g9mkk","区36":"e","地址":"曹安公路2047号","lng":121.34818806903772,"lat":31.258007879052126,"确诊日期36":"z"},{"SH_ID_36":"10g8qwa","区36":"e","地址":"曹安公路2053号","lng":121.34822006798376,"lat":31.25813187894209,"确诊日期36":"v"},{"SH_ID_36":"10g9mkl","区36":"e","地址":"曹安公路2089弄","lng":121.34751009775064,"lat":31.25808381892452,"确诊日期36":"z"},{"SH_ID_36":"10g7uoj","区36":"e","地址":"曹安公路2095号","lng":121.2693899115753,"lat":31.273550302909992,"确诊日期36":"r"},{"SH_ID_36":"10frixi","区36":"e","地址":"曹安公路2098号","lng":121.34798208481868,"lat":31.25957983078352,"确诊日期36":"k"},{"SH_ID_36":"10frqvr","区36":"e","地址":"曹安公路2098号","lng":121.34798208481868,"lat":31.25957983078352,"确诊日期36":"l"},{"SH_ID_36":"10g7mgy","区36":"e","地址":"曹安公路2098号","lng":121.34798208481868,"lat":31.25957983078352,"确诊日期36":"q"},{"SH_ID_36":"10g8ifg","区36":"e","地址":"曹安公路2098号","lng":121.34798208481868,"lat":31.25957983078352,"确诊日期36":"u"},{"SH_ID_36":"10g8qwb","区36":"e","地址":"曹安公路2098号","lng":121.34798208481868,"lat":31.25957983078352,"确诊日期36":"v"},{"SH_ID_36":"10g96s4","区36":"e","地址":"曹安公路2098号","lng":121.34798208481868,"lat":31.25957983078352,"确诊日期36":"x"},{"SH_ID_36":"10fselc","区36":"e","地址":"曹安公路2118号","lng":121.34566418342663,"lat":31.2598786320823,"确诊日期36":"o"},{"SH_ID_36":"10g8alt","区36":"e","地址":"曹安公路2167弄","lng":121.34370225871466,"lat":31.259557491022413,"确诊日期36":"t"},{"SH_ID_36":"10g8qwc","区36":"e","地址":"曹安公路2167弄","lng":121.34370225871466,"lat":31.259557491022413,"确诊日期36":"v"},{"SH_ID_36":"10g9mkm","区36":"e","地址":"曹安公路2167弄","lng":121.34370225871466,"lat":31.259557491022413,"确诊日期36":"z"},{"SH_ID_36":"10ga9hn","区36":"e","地址":"曹安公路2167弄","lng":121.34370225871466,"lat":31.259557491022413,"确诊日期36":"12"},{"SH_ID_36":"10g7usf","区36":"e","地址":"曹安公路2199号","lng":121.37245450693831,"lat":31.253410596661745,"确诊日期36":"r"},{"SH_ID_36":"10frixb","区36":"e","地址":"曹安公路2258号","lng":121.34395425374973,"lat":31.260690488069567,"确诊日期36":"k"},{"SH_ID_36":"10frqvs","区36":"e","地址":"曹安公路2258号","lng":121.34395425374973,"lat":31.260690488069567,"确诊日期36":"l"},{"SH_ID_36":"10fs6tf","区36":"e","地址":"曹安公路2258号","lng":121.34395425374973,"lat":31.260690488069567,"确诊日期36":"n"},{"SH_ID_36":"10g7uok","区36":"e","地址":"曹安公路2258号","lng":121.34395425374973,"lat":31.260690488069567,"确诊日期36":"r"},{"SH_ID_36":"10g8aln","区36":"e","地址":"曹安公路2258号","lng":121.34395425374973,"lat":31.260690488069567,"确诊日期36":"t"},{"SH_ID_36":"10g8qwd","区36":"e","地址":"曹安公路2258号","lng":121.34395425374973,"lat":31.260690488069567,"确诊日期36":"v"},{"SH_ID_36":"10g8ifh","区36":"e","地址":"曹安公路2266号","lng":121.34449323169825,"lat":31.260374532781313,"确诊日期36":"u"},{"SH_ID_36":"10g96s5","区36":"e","地址":"曹安公路2266号","lng":121.34449323169825,"lat":31.260374532781313,"确诊日期36":"x"},{"SH_ID_36":"10g82hl","区36":"e","地址":"曹安公路2268号","lng":121.2693899115753,"lat":31.273550302909992,"确诊日期36":"s"},{"SH_ID_36":"10g8ifi","区36":"e","地址":"曹安公路2268号","lng":121.2693899115753,"lat":31.273550302909992,"确诊日期36":"u"},{"SH_ID_36":"10frixc","区36":"e","地址":"曹安公路2291号","lng":121.34280129109167,"lat":31.259561430902398,"确诊日期36":"k"},{"SH_ID_36":"10fqv7z","区36":"e","地址":"曹安公路2291号","lng":121.34280129109167,"lat":31.259561430902398,"确诊日期36":"h"},{"SH_ID_36":"10fq0c9","区36":"e","地址":"曹安公路2300号","lng":121.34192033048843,"lat":31.26162334181903,"确诊日期36":"d"},{"SH_ID_36":"10frixd","区36":"e","地址":"曹安公路2300弄","lng":121.34181533338855,"lat":31.261422338641612,"确诊日期36":"k"},{"SH_ID_36":"10frqvt","区36":"e","地址":"曹安公路2300弄","lng":121.34181533338855,"lat":31.261422338641612,"确诊日期36":"l"},{"SH_ID_36":"10fq81j","区36":"e","地址":"曹安公路2300弄","lng":121.34181533338855,"lat":31.261422338641612,"确诊日期36":"e"},{"SH_ID_36":"10fqfsx","区36":"e","地址":"曹安公路2300弄","lng":121.34181533338855,"lat":31.261422338641612,"确诊日期36":"f"},{"SH_ID_36":"10g8qwe","区36":"e","地址":"曹安公路2341号","lng":121.34166133147524,"lat":31.259822358969213,"确诊日期36":"v"},{"SH_ID_36":"10g8yl8","区36":"e","地址":"曹安公路2341号","lng":121.34166133147524,"lat":31.259822358969213,"确诊日期36":"w"},{"SH_ID_36":"10g96s6","区36":"e","地址":"曹安公路2341号","lng":121.34166133147524,"lat":31.259822358969213,"确诊日期36":"x"},{"SH_ID_36":"10g8qwf","区36":"e","地址":"曹安公路2378号","lng":121.34185133178052,"lat":31.261327342934923,"确诊日期36":"v"},{"SH_ID_36":"10g7uol","区36":"e","地址":"曹安公路2380号","lng":121.34047637527935,"lat":31.26153526889594,"确诊日期36":"r"},{"SH_ID_36":"10g8yl9","区36":"e","地址":"曹安公路2388号","lng":121.33966639991847,"lat":31.261850229804942,"确诊日期36":"w"},{"SH_ID_36":"10g96s7","区36":"e","地址":"曹安公路2388号","lng":121.33966639991847,"lat":31.261850229804942,"确诊日期36":"x"},{"SH_ID_36":"10g9emi","区36":"e","地址":"曹安公路2388号","lng":121.33966639991847,"lat":31.261850229804942,"确诊日期36":"y"},{"SH_ID_36":"10g9mkn","区36":"e","地址":"曹安公路2388号","lng":121.33966639991847,"lat":31.261850229804942,"确诊日期36":"z"},{"SH_ID_36":"10ga9ho","区36":"e","地址":"曹安公路2388号","lng":121.33966639991847,"lat":31.261850229804942,"确诊日期36":"12"},{"SH_ID_36":"10g8qwg","区36":"e","地址":"曹安公路2389号","lng":121.34043637282325,"lat":31.260348287610682,"确诊日期36":"v"},{"SH_ID_36":"10g9mko","区36":"e","地址":"曹安公路2515号","lng":121.33735545393321,"lat":31.261366171995455,"确诊日期36":"z"},{"SH_ID_36":"10ga1u7","区36":"e","地址":"曹安公路2515号","lng":121.33735545393321,"lat":31.261366171995455,"确诊日期36":"11"},{"SH_ID_36":"10g8alo","区36":"e","地址":"曹安公路2611号","lng":121.33379650956915,"lat":31.262335156188794,"确诊日期36":"t"},{"SH_ID_36":"10g8qwh","区36":"e","地址":"曹安公路2613号","lng":121.33372851061418,"lat":31.26224715872626,"确诊日期36":"v"},{"SH_ID_36":"10ga1u8","区36":"e","地址":"曹安公路2613号","lng":121.33372851061418,"lat":31.26224715872626,"确诊日期36":"11"},{"SH_ID_36":"10g8qwi","区36":"e","地址":"曹安公路2620号","lng":121.33477449999279,"lat":31.263021134291336,"确诊日期36":"v"},{"SH_ID_36":"10g8qwj","区36":"e","地址":"曹安公路2622号","lng":121.33511949589753,"lat":31.263000132656735,"确诊日期36":"v"},{"SH_ID_36":"10ga1u9","区36":"e","地址":"曹安公路2622号","lng":121.33511949589753,"lat":31.263000132656735,"确诊日期36":"11"},{"SH_ID_36":"10ga9hp","区36":"e","地址":"曹安公路2622号","lng":121.33511949589753,"lat":31.263000132656735,"确诊日期36":"12"},{"SH_ID_36":"10frixe","区36":"e","地址":"曹安公路2688号","lng":121.331630521318,"lat":31.263477202543577,"确诊日期36":"k"},{"SH_ID_36":"10ga1ua","区36":"e","地址":"曹安公路2688号","lng":121.331630521318,"lat":31.263477202543577,"确诊日期36":"11"},{"SH_ID_36":"10g9mkp","区36":"e","地址":"曹安公路2698号","lng":121.32988651959418,"lat":31.263696280239337,"确诊日期36":"z"},{"SH_ID_36":"10ga1ub","区36":"e","地址":"曹安公路2698号","lng":121.32988651959418,"lat":31.263696280239337,"确诊日期36":"11"},{"SH_ID_36":"10ga9hq","区36":"e","地址":"曹安公路2698号","lng":121.32988651959418,"lat":31.263696280239337,"确诊日期36":"12"},{"SH_ID_36":"10g8qwk","区36":"e","地址":"曹安公路2715号","lng":121.32814650924611,"lat":31.263118390220427,"确诊日期36":"v"},{"SH_ID_36":"10g7uom","区36":"e","地址":"曹安公路2738号","lng":121.32797050567287,"lat":31.2640853938658,"确诊日期36":"r"},{"SH_ID_36":"10g82hm","区36":"e","地址":"曹安公路2742号","lng":121.32795750576432,"lat":31.26390139700648,"确诊日期36":"s"},{"SH_ID_36":"10g8ifj","区36":"e","地址":"曹安公路2742号","lng":121.32795750576432,"lat":31.26390139700648,"确诊日期36":"u"},{"SH_ID_36":"10g8qwl","区36":"e","地址":"曹安公路2742号","lng":121.32795750576432,"lat":31.26390139700648,"确诊日期36":"v"},{"SH_ID_36":"10g8yla","区36":"e","地址":"曹安公路2742号","lng":121.32795750576432,"lat":31.26390139700648,"确诊日期36":"w"},{"SH_ID_36":"10g96s8","区36":"e","地址":"曹安公路2742号","lng":121.32795750576432,"lat":31.26390139700648,"确诊日期36":"x"},{"SH_ID_36":"10g9emj","区36":"e","地址":"曹安公路2742号","lng":121.32795750576432,"lat":31.26390139700648,"确诊日期36":"y"},{"SH_ID_36":"10g9mkq","区36":"e","地址":"曹安公路2742号","lng":121.32795750576432,"lat":31.26390139700648,"确诊日期36":"z"},{"SH_ID_36":"10ga1uc","区36":"e","地址":"曹安公路2742号","lng":121.32795750576432,"lat":31.26390139700648,"确诊日期36":"11"},{"SH_ID_36":"10ga9hr","区36":"e","地址":"曹安公路2742号","lng":121.32795750576432,"lat":31.26390139700648,"确诊日期36":"12"},{"SH_ID_36":"10g7uon","区36":"e","地址":"曹安公路2758号","lng":121.32782050485187,"lat":31.26399340559295,"确诊日期36":"r"},{"SH_ID_36":"10g82hn","区36":"e","地址":"曹安公路2758号","lng":121.32782050485187,"lat":31.26399340559295,"确诊日期36":"s"},{"SH_ID_36":"10g8qwm","区36":"e","地址":"曹安公路2758号","lng":121.32782050485187,"lat":31.26399340559295,"确诊日期36":"v"},{"SH_ID_36":"10g8ylb","区36":"e","地址":"曹安公路2758号","lng":121.32782050485187,"lat":31.26399340559295,"确诊日期36":"w"},{"SH_ID_36":"10g96s9","区36":"e","地址":"曹安公路2758号","lng":121.32782050485187,"lat":31.26399340559295,"确诊日期36":"x"},{"SH_ID_36":"10g9mkr","区36":"e","地址":"曹安公路2758号","lng":121.32782050485187,"lat":31.26399340559295,"确诊日期36":"z"},{"SH_ID_36":"10ga1ud","区36":"e","地址":"曹安公路2758号","lng":121.32782050485187,"lat":31.26399340559295,"确诊日期36":"11"},{"SH_ID_36":"10ga9hs","区36":"e","地址":"曹安公路2758号","lng":121.32782050485187,"lat":31.26399340559295,"确诊日期36":"12"},{"SH_ID_36":"10g8ifk","区36":"e","地址":"曹安公路2831弄","lng":121.32251141783605,"lat":31.263917853863934,"确诊日期36":"u"},{"SH_ID_36":"10g8ylc","区36":"e","地址":"曹安公路2989号","lng":121.31446320902546,"lat":31.264331606045662,"确诊日期36":"w"},{"SH_ID_36":"10ga1ue","区36":"e","地址":"曹安公路2989号","lng":121.31446320902546,"lat":31.264331606045662,"确诊日期36":"11"},{"SH_ID_36":"10ga9ht","区36":"e","地址":"曹安公路2989号","lng":121.31446320902546,"lat":31.264331606045662,"确诊日期36":"12"},{"SH_ID_36":"10fs6tg","区36":"e","地址":"曹安公路3055弄","lng":121.2693899115753,"lat":31.273550302909992,"确诊日期36":"n"},{"SH_ID_36":"10frqvu","区36":"e","地址":"曹安公路3057号","lng":121.30872806221676,"lat":31.265610963752405,"确诊日期36":"l"},{"SH_ID_36":"10frz0w","区36":"e","地址":"曹安公路3057弄","lng":121.2693899115753,"lat":31.273550302909992,"确诊日期36":"m"},{"SH_ID_36":"10ga9hu","区36":"e","地址":"曹安公路3057弄","lng":121.2693899115753,"lat":31.273550302909992,"确诊日期36":"12"},{"SH_ID_36":"10g8yld","区36":"e","地址":"曹安公路3080号","lng":121.31123110059812,"lat":31.267743856021525,"确诊日期36":"w"},{"SH_ID_36":"10ga9hv","区36":"e","地址":"曹安公路3080号","lng":121.31123110059812,"lat":31.267743856021525,"确诊日期36":"12"},{"SH_ID_36":"10ga9hw","区36":"e","地址":"曹安公路3580弄","lng":121.29274794035028,"lat":31.268408420631015,"确诊日期36":"12"},{"SH_ID_36":"10g9mks","区36":"e","地址":"曹安公路3620号","lng":121.2693899115753,"lat":31.273550302909992,"确诊日期36":"z"},{"SH_ID_36":"10fsela","区36":"e","地址":"曹安公路3798弄","lng":121.28260099486161,"lat":31.27323356441405,"确诊日期36":"o"},{"SH_ID_36":"10g9mkt","区36":"e","地址":"曹安公路3798弄","lng":121.28260099486161,"lat":31.27323356441405,"确诊日期36":"z"},{"SH_ID_36":"10ga1uf","区36":"e","地址":"曹安公路3798弄","lng":121.28260099486161,"lat":31.27323356441405,"确诊日期36":"11"},{"SH_ID_36":"10fseld","区36":"e","地址":"曹安公路3816号","lng":121.27967799581359,"lat":31.26997632623936,"确诊日期36":"o"},{"SH_ID_36":"10g7mgz","区36":"e","地址":"曹安公路3962号","lng":121.27259995332656,"lat":31.272474210187973,"确诊日期36":"q"},{"SH_ID_36":"10g8qwn","区36":"e","地址":"曹安公路4058号","lng":121.26681190847509,"lat":31.277372458783603,"确诊日期36":"v"},{"SH_ID_36":"10ga1ug","区36":"e","地址":"曹安公路4058号","lng":121.26681190847509,"lat":31.277372458783603,"确诊日期36":"11"},{"SH_ID_36":"10g8yle","区36":"e","地址":"曹安公路4058弄","lng":121.2693899115753,"lat":31.273550302909992,"确诊日期36":"w"},{"SH_ID_36":"10g96sa","区36":"e","地址":"曹安公路4068号","lng":121.2650858557619,"lat":31.275980553089443,"确诊日期36":"x"},{"SH_ID_36":"10ga1uh","区36":"e","地址":"曹安公路4078弄","lng":121.25880784971604,"lat":31.28347205403865,"确诊日期36":"11"},{"SH_ID_36":"10ga9hx","区36":"e","地址":"曹安公路4078弄","lng":121.25880784971604,"lat":31.28347205403865,"确诊日期36":"12"},{"SH_ID_36":"10g8qwo","区36":"e","地址":"曹安公路4118弄","lng":121.26218480026702,"lat":31.276380763356563,"确诊日期36":"v"},{"SH_ID_36":"10g9mku","区36":"e","地址":"曹安公路4118弄","lng":121.26218480026702,"lat":31.276380763356563,"确诊日期36":"z"},{"SH_ID_36":"10g8alp","区36":"e","地址":"曹安公路4215弄","lng":121.2693899115753,"lat":31.273550302909992,"确诊日期36":"t"},{"SH_ID_36":"10g8alq","区36":"e","地址":"曹安公路4512弄","lng":121.23064104435772,"lat":31.276031782473662,"确诊日期36":"t"},{"SH_ID_36":"10g8qwp","区36":"e","地址":"曹安公路4512弄","lng":121.23064104435772,"lat":31.276031782473662,"确诊日期36":"v"},{"SH_ID_36":"10g7uoo","区36":"e","地址":"曹安公路4671号","lng":121.21777942228289,"lat":31.275805965781057,"确诊日期36":"r"},{"SH_ID_36":"10g8qwq","区36":"e","地址":"曹安公路4800号","lng":121.21489733730199,"lat":31.28675786433752,"确诊日期36":"v"},{"SH_ID_36":"10g8ylf","区36":"e","地址":"曹安公路4800号","lng":121.21489733730199,"lat":31.28675786433752,"确诊日期36":"w"},{"SH_ID_36":"10g96sb","区36":"e","地址":"曹安公路4800号","lng":121.21489733730199,"lat":31.28675786433752,"确诊日期36":"x"},{"SH_ID_36":"10g9mkv","区36":"e","地址":"曹安公路4800号","lng":121.21489733730199,"lat":31.28675786433752,"确诊日期36":"z"},{"SH_ID_36":"10ga1ui","区36":"e","地址":"曹安公路4800号","lng":121.21489733730199,"lat":31.28675786433752,"确诊日期36":"11"},{"SH_ID_36":"10ga9hy","区36":"e","地址":"曹安公路4800号","lng":121.21489733730199,"lat":31.28675786433752,"确诊日期36":"12"},{"SH_ID_36":"10g8qwr","区36":"e","地址":"曹安公路4908弄","lng":121.20366815352268,"lat":31.28711061508556,"确诊日期36":"v"},{"SH_ID_36":"10g96sc","区36":"e","地址":"曹安公路5098号","lng":121.2693899115753,"lat":31.273550302909992,"确诊日期36":"x"},{"SH_ID_36":"10g8ylg","区36":"e","地址":"曹安路1501号","lng":121.37480056342044,"lat":31.250256427648917,"确诊日期36":"w"},{"SH_ID_36":"10g8qws","区36":"e","地址":"曹安路1509号","lng":121.37130450788247,"lat":31.25108769925319,"确诊日期36":"v"},{"SH_ID_36":"10g82ho","区36":"e","地址":"曹安路1911号","lng":121.36889848543339,"lat":31.252861817490825,"确诊日期36":"s"},{"SH_ID_36":"10g8qwt","区36":"e","地址":"曹安路1911弄","lng":121.35766567184197,"lat":31.254131710458612,"确诊日期36":"v"},{"SH_ID_36":"10g82hp","区36":"e","地址":"曹安路1991号","lng":121.35185990353102,"lat":31.25643023247087,"确诊日期36":"s"},{"SH_ID_36":"10g82hq","区36":"e","地址":"曹安路2167弄","lng":121.34520319379611,"lat":31.258059629185972,"确诊日期36":"s"},{"SH_ID_36":"10g82hr","区36":"e","地址":"曹安路2742号","lng":121.32841150963719,"lat":31.264331362339206,"确诊日期36":"s"},{"SH_ID_36":"10g8ylh","区36":"e","地址":"曹安路4908弄","lng":121.36889848543339,"lat":31.252861817490825,"确诊日期36":"w"},{"SH_ID_36":"10friw2","区36":"e","地址":"曹安路华江路","lng":121.34595416140333,"lat":31.25774869525562,"确诊日期36":"k"},{"SH_ID_36":"10fsele","区36":"e","地址":"曹丰路600号","lng":121.27040989858423,"lat":31.26914022097515,"确诊日期36":"o"},{"SH_ID_36":"10g82hs","区36":"e","地址":"曹丰路619号","lng":121.27026989867464,"lat":31.269679231643885,"确诊日期36":"s"},{"SH_ID_36":"10g8qwu","区36":"e","地址":"曹联路43号","lng":121.25320957251469,"lat":31.270788435495888,"确诊日期36":"v"},{"SH_ID_36":"10frqvv","区36":"e","地址":"曹南路12号","lng":121.35427982603902,"lat":31.261553336571147,"确诊日期36":"l"},{"SH_ID_36":"10fsm35","区36":"e","地址":"曹南路12号","lng":121.35427982603902,"lat":31.261553336571147,"确诊日期36":"p"},{"SH_ID_36":"10foia0","区36":"e","地址":"曹南路12弄","lng":121.3525628899363,"lat":31.259987224594212,"确诊日期36":"6"},{"SH_ID_36":"10foia1","区36":"e","地址":"曹南路12弄","lng":121.3525628899363,"lat":31.259987224594212,"确诊日期36":"6"},{"SH_ID_36":"10g8qwv","区36":"e","地址":"曹南路12弄","lng":121.3525628899363,"lat":31.259987224594212,"确诊日期36":"v"},{"SH_ID_36":"10g8yli","区36":"e","地址":"曹南路12弄","lng":121.3525628899363,"lat":31.259987224594212,"确诊日期36":"w"},{"SH_ID_36":"10g96sd","区36":"e","地址":"曹南路12弄","lng":121.3525628899363,"lat":31.259987224594212,"确诊日期36":"x"},{"SH_ID_36":"10g9eml","区36":"e","地址":"曹南路12弄","lng":121.3525628899363,"lat":31.259987224594212,"确诊日期36":"y"},{"SH_ID_36":"10g9mkw","区36":"e","地址":"曹南路12弄","lng":121.3525628899363,"lat":31.259987224594212,"确诊日期36":"z"},{"SH_ID_36":"10g9u6l","区36":"e","地址":"曹南路12弄","lng":121.3525628899363,"lat":31.259987224594212,"确诊日期36":"10"},{"SH_ID_36":"10ga1uj","区36":"e","地址":"曹南路12弄","lng":121.3525628899363,"lat":31.259987224594212,"确诊日期36":"11"},{"SH_ID_36":"10ga9hz","区36":"e","地址":"曹南路12弄","lng":121.3525628899363,"lat":31.259987224594212,"确诊日期36":"12"},{"SH_ID_36":"10g8alu","区36":"e","地址":"曹王村","lng":121.30608049340886,"lat":31.44027982029228,"确诊日期36":"t"},{"SH_ID_36":"10g8ifl","区36":"e","地址":"曹王村","lng":121.30608049340886,"lat":31.44027982029228,"确诊日期36":"u"},{"SH_ID_36":"10g8qww","区36":"e","地址":"曹王村","lng":121.30608049340886,"lat":31.44027982029228,"确诊日期36":"v"},{"SH_ID_36":"10g8ylj","区36":"e","地址":"曹王村","lng":121.30608049340886,"lat":31.44027982029228,"确诊日期36":"w"},{"SH_ID_36":"10g96se","区36":"e","地址":"曹王村","lng":121.30608049340886,"lat":31.44027982029228,"确诊日期36":"x"},{"SH_ID_36":"10g9emm","区36":"e","地址":"曹王村","lng":121.30608049340886,"lat":31.44027982029228,"确诊日期36":"y"},{"SH_ID_36":"10g9mkx","区36":"e","地址":"曹王村","lng":121.30608049340886,"lat":31.44027982029228,"确诊日期36":"z"},{"SH_ID_36":"10ga1uk","区36":"e","地址":"曹王村","lng":121.30608049340886,"lat":31.44027982029228,"确诊日期36":"11"},{"SH_ID_36":"10ga9i0","区36":"e","地址":"曹王村","lng":121.30608049340886,"lat":31.44027982029228,"确诊日期36":"12"},{"SH_ID_36":"10frz0x","区36":"e","地址":"曹王路158弄","lng":121.30382051595423,"lat":31.433539925583634,"确诊日期36":"m"},{"SH_ID_36":"10fs6up","区36":"e","地址":"曹王路158弄","lng":121.30382051595423,"lat":31.433539925583634,"确诊日期36":"n"},{"SH_ID_36":"10g7urx","区36":"e","地址":"曹王路158弄","lng":121.30382051595423,"lat":31.433539925583634,"确诊日期36":"r"},{"SH_ID_36":"10g82ht","区36":"e","地址":"曹王路158弄","lng":121.30382051595423,"lat":31.433539925583634,"确诊日期36":"s"},{"SH_ID_36":"10g8qwx","区36":"e","地址":"曹王路158弄","lng":121.30382051595423,"lat":31.433539925583634,"确诊日期36":"v"},{"SH_ID_36":"10g96sf","区36":"e","地址":"曹新公路1285号","lng":121.31077450250977,"lat":31.43003975524796,"确诊日期36":"x"},{"SH_ID_36":"10g96sg","区36":"e","地址":"曹新公路12号","lng":121.33497998387975,"lat":31.437231998010166,"确诊日期36":"x"},{"SH_ID_36":"10foq00","区36":"e","地址":"草庵村","lng":121.21465096916079,"lat":31.45021717488446,"确诊日期36":"7"},{"SH_ID_36":"10foq03","区36":"e","地址":"草庵村","lng":121.21465096916079,"lat":31.45021717488446,"确诊日期36":"7"},{"SH_ID_36":"10fpd71","区36":"e","地址":"草庵村","lng":121.21465096916079,"lat":31.45021717488446,"确诊日期36":"a"},{"SH_ID_36":"10g8qwy","区36":"e","地址":"草庵村","lng":121.21465096916079,"lat":31.45021717488446,"确诊日期36":"v"},{"SH_ID_36":"10fsm39","区36":"e","地址":"槎溪路20号","lng":121.32867638876705,"lat":31.279212207265495,"确诊日期36":"p"},{"SH_ID_36":"10g7mh0","区36":"e","地址":"槎溪路222弄","lng":121.32776831710024,"lat":31.283077248605153,"确诊日期36":"q"},{"SH_ID_36":"10g96sh","区36":"e","地址":"槎溪路222弄","lng":121.32776831710024,"lat":31.283077248605153,"确诊日期36":"x"},{"SH_ID_36":"10g9mky","区36":"e","地址":"槎溪路222弄","lng":121.32776831710024,"lat":31.283077248605153,"确诊日期36":"z"},{"SH_ID_36":"10fr392","区36":"e","地址":"槎溪路650弄","lng":121.32340113228344,"lat":31.28788263906599,"确诊日期36":"i"},{"SH_ID_36":"10fqv80","区36":"e","地址":"槎溪路650弄","lng":121.32340113228344,"lat":31.28788263906599,"确诊日期36":"h"},{"SH_ID_36":"10g96si","区36":"e","地址":"槎溪路650弄","lng":121.32340113228344,"lat":31.28788263906599,"确诊日期36":"x"},{"SH_ID_36":"10ga9i1","区36":"e","地址":"槎溪路650弄","lng":121.32340113228344,"lat":31.28788263906599,"确诊日期36":"12"},{"SH_ID_36":"10g8qwz","区36":"e","地址":"槎溪路680弄","lng":121.32278510627428,"lat":31.288371702703028,"确诊日期36":"v"},{"SH_ID_36":"10g8ylk","区36":"e","地址":"槎溪路680弄","lng":121.32278510627428,"lat":31.288371702703028,"确诊日期36":"w"},{"SH_ID_36":"10g96sj","区36":"e","地址":"槎溪路680弄","lng":121.32278510627428,"lat":31.288371702703028,"确诊日期36":"x"},{"SH_ID_36":"10g9mkz","区36":"e","地址":"槎溪路680弄","lng":121.32278510627428,"lat":31.288371702703028,"确诊日期36":"z"},{"SH_ID_36":"10g8qx0","区36":"e","地址":"槎溪路833弄","lng":121.31977998599311,"lat":31.290153029302825,"确诊日期36":"v"},{"SH_ID_36":"10g96sk","区36":"e","地址":"槎溪路833弄","lng":121.31977998599311,"lat":31.290153029302825,"确诊日期36":"x"},{"SH_ID_36":"10g9emn","区36":"e","地址":"槎溪路833弄","lng":121.31977998599311,"lat":31.290153029302825,"确诊日期36":"y"},{"SH_ID_36":"10g8qx1","区36":"e","地址":"槎溪路金通路路口工地","lng":121.32357315361033,"lat":31.286985625544855,"确诊日期36":"v"},{"SH_ID_36":"10g8yll","区36":"e","地址":"槎溪路幼儿园工地","lng":121.40338904724577,"lat":31.255524317805126,"确诊日期36":"w"},{"SH_ID_36":"10g9ml0","区36":"e","地址":"槎溪路幼儿园工地","lng":121.40338904724577,"lat":31.255524317805126,"确诊日期36":"z"},{"SH_ID_36":"10g7unc","区36":"e","地址":"昌吉东路888弄","lng":121.2035690476682,"lat":31.292654598728326,"确诊日期36":"r"},{"SH_ID_36":"10g82hu","区36":"e","地址":"昌吉路156弄","lng":121.17242083989508,"lat":31.295812570006657,"确诊日期36":"s"},{"SH_ID_36":"10g8qx2","区36":"e","地址":"昌吉路156弄","lng":121.17242083989508,"lat":31.295812570006657,"确诊日期36":"v"},{"SH_ID_36":"10g8qx3","区36":"e","地址":"昌吉路216号","lng":121.16020616823849,"lat":31.29535455753358,"确诊日期36":"v"},{"SH_ID_36":"10g7und","区36":"e","地址":"昌吉路219号","lng":121.16050215989603,"lat":31.29507457536187,"确诊日期36":"r"},{"SH_ID_36":"10g8qx4","区36":"e","地址":"昌吉路219号","lng":121.16050215989603,"lat":31.29507457536187,"确诊日期36":"v"},{"SH_ID_36":"10g7une","区36":"e","地址":"昌吉路248弄","lng":121.15685622403693,"lat":31.295633412428824,"确诊日期36":"r"},{"SH_ID_36":"10g82hv","区36":"e","地址":"昌吉路248弄","lng":121.15685622403693,"lat":31.295633412428824,"确诊日期36":"s"},{"SH_ID_36":"10g8qx5","区36":"e","地址":"昌吉路253弄","lng":121.15650721814198,"lat":31.294879403673267,"确诊日期36":"v"},{"SH_ID_36":"10g9u6m","区36":"e","地址":"昌吉路253弄","lng":121.15650721814198,"lat":31.294879403673267,"确诊日期36":"10"},{"SH_ID_36":"10ga1ul","区36":"e","地址":"昌吉路253弄","lng":121.15650721814198,"lat":31.294879403673267,"确诊日期36":"11"},{"SH_ID_36":"10g9emo","区36":"e","地址":"昌翔路288号","lng":121.33303896487824,"lat":31.315000994561334,"确诊日期36":"y"},{"SH_ID_36":"10g9ml1","区36":"e","地址":"昌翔路288号","lng":121.33303896487824,"lat":31.315000994561334,"确诊日期36":"z"},{"SH_ID_36":"10ga1um","区36":"e","地址":"昌翔路568号","lng":121.33219094675111,"lat":31.315334018313347,"确诊日期36":"11"},{"SH_ID_36":"10g8ylm","区36":"e","地址":"昌翔路88弄","lng":121.33714707086001,"lat":31.309340926595556,"确诊日期36":"w"},{"SH_ID_36":"10g8yln","区36":"e","地址":"陈宝路30号","lng":121.32967313199237,"lat":31.348806415649005,"确诊日期36":"w"},{"SH_ID_36":"10g96sl","区36":"e","地址":"陈宝路30号","lng":121.32967313199237,"lat":31.348806415649005,"确诊日期36":"x"},{"SH_ID_36":"10g96sm","区36":"e","地址":"陈宝路848号","lng":121.32903017131272,"lat":31.35141845014481,"确诊日期36":"x"},{"SH_ID_36":"10g8ifm","区36":"e","地址":"陈村村","lng":121.32597923856775,"lat":31.35703761745717,"确诊日期36":"u"},{"SH_ID_36":"10g8qx6","区36":"e","地址":"陈村村","lng":121.32597923856775,"lat":31.35703761745717,"确诊日期36":"v"},{"SH_ID_36":"10g8ylo","区36":"e","地址":"陈村村","lng":121.32597923856775,"lat":31.35703761745717,"确诊日期36":"w"},{"SH_ID_36":"10g96sn","区36":"e","地址":"陈村村","lng":121.32597923856775,"lat":31.35703761745717,"确诊日期36":"x"},{"SH_ID_36":"10g9emp","区36":"e","地址":"陈村村","lng":121.32597923856775,"lat":31.35703761745717,"确诊日期36":"y"},{"SH_ID_36":"10g9ml2","区36":"e","地址":"陈村村","lng":121.32597923856775,"lat":31.35703761745717,"确诊日期36":"z"},{"SH_ID_36":"10ga1un","区36":"e","地址":"陈村村","lng":121.32597923856775,"lat":31.35703761745717,"确诊日期36":"11"},{"SH_ID_36":"10ga9i2","区36":"e","地址":"陈村村","lng":121.32597923856775,"lat":31.35703761745717,"确诊日期36":"12"},{"SH_ID_36":"10fs6ub","区36":"e","地址":"陈家山路388号","lng":121.24078667796027,"lat":31.39230358157668,"确诊日期36":"n"},{"SH_ID_36":"10fqfsy","区36":"e","地址":"陈家山路388号","lng":121.24078667796027,"lat":31.39230358157668,"确诊日期36":"f"},{"SH_ID_36":"10friy2","区36":"e","地址":"陈家山路388弄","lng":121.23966869814966,"lat":31.391292541007726,"确诊日期36":"k"},{"SH_ID_36":"10g8ylp","区36":"e","地址":"陈家山路388弄","lng":121.23966869814966,"lat":31.391292541007726,"确诊日期36":"w"},{"SH_ID_36":"10g9emq","区36":"e","地址":"陈家山路388弄","lng":121.23966869814966,"lat":31.391292541007726,"确诊日期36":"y"},{"SH_ID_36":"10g9ml3","区36":"e","地址":"陈翔公路1111弄","lng":121.34774502533621,"lat":31.317256727137437,"确诊日期36":"z"},{"SH_ID_36":"10g8ylq","区36":"e","地址":"陈翔公路1588弄","lng":121.34774502533621,"lat":31.317256727137437,"确诊日期36":"w"},{"SH_ID_36":"10g9ml4","区36":"e","地址":"陈翔公路1588弄","lng":121.34774502533621,"lat":31.317256727137437,"确诊日期36":"z"},{"SH_ID_36":"10ga9i3","区36":"e","地址":"陈翔公路1588弄","lng":121.34774502533621,"lat":31.317256727137437,"确诊日期36":"12"},{"SH_ID_36":"10g8ylr","区36":"e","地址":"陈翔公路2299号","lng":121.30613453153991,"lat":31.305046013745862,"确诊日期36":"w"},{"SH_ID_36":"10g9ml5","区36":"e","地址":"陈翔公路2299号","lng":121.30613453153991,"lat":31.305046013745862,"确诊日期36":"z"},{"SH_ID_36":"10ga1uo","区36":"e","地址":"陈翔公路2299号","lng":121.30613453153991,"lat":31.305046013745862,"确诊日期36":"11"},{"SH_ID_36":"10g8yls","区36":"e","地址":"陈翔公路2400弄","lng":121.30156857725001,"lat":31.305864003709345,"确诊日期36":"w"},{"SH_ID_36":"10g8qx7","区36":"e","地址":"陈翔公路浩翔路中央公园地下室","lng":121.31622557481501,"lat":31.311628295496334,"确诊日期36":"v"},{"SH_ID_36":"10g8qx8","区36":"e","地址":"陈翔路1588弄","lng":121.31591556951628,"lat":31.311459326439483,"确诊日期36":"v"},{"SH_ID_36":"10g96so","区36":"e","地址":"陈翔路2299号","lng":121.32408875983211,"lat":31.313746520189632,"确诊日期36":"x"},{"SH_ID_36":"10ga9i4","区36":"e","地址":"陈翔路2299号","lng":121.32408875983211,"lat":31.313746520189632,"确诊日期36":"12"},{"SH_ID_36":"10g9u6n","区36":"e","地址":"陈翔路388号","lng":121.34025602989207,"lat":31.317485148752482,"确诊日期36":"10"},{"SH_ID_36":"10ga1up","区36":"e","地址":"陈泽路386弄","lng":121.27888705480228,"lat":31.372936016287266,"确诊日期36":"11"},{"SH_ID_36":"10fpd8l","区36":"e","地址":"陈周村","lng":121.19066383813653,"lat":31.349010567454943,"确诊日期36":"a"},{"SH_ID_36":"10frqwz","区36":"e","地址":"成泽路386弄","lng":121.27670902840671,"lat":31.373916970077154,"确诊日期36":"l"},{"SH_ID_36":"10fqfsz","区36":"e","地址":"成泽路386弄","lng":121.27670902840671,"lat":31.373916970077154,"确诊日期36":"f"},{"SH_ID_36":"10fqft0","区36":"e","地址":"城北路1号","lng":121.24019065049333,"lat":31.38723562187312,"确诊日期36":"f"},{"SH_ID_36":"10fr393","区36":"e","地址":"城北路3980号","lng":121.19285853554481,"lat":31.447426480209995,"确诊日期36":"i"},{"SH_ID_36":"10fsm32","区36":"e","地址":"城北路3980号","lng":121.19285853554481,"lat":31.447426480209995,"确诊日期36":"p"},{"SH_ID_36":"10fq0ca","区36":"e","地址":"城北路3980号","lng":121.19285853554481,"lat":31.447426480209995,"确诊日期36":"d"},{"SH_ID_36":"10fqft1","区36":"e","地址":"城北路3980号","lng":121.19285853554481,"lat":31.447426480209995,"确诊日期36":"f"},{"SH_ID_36":"10fqnhk","区36":"e","地址":"城北路3980号","lng":121.19285853554481,"lat":31.447426480209995,"确诊日期36":"g"},{"SH_ID_36":"10fqv81","区36":"e","地址":"城北路3980号","lng":121.19285853554481,"lat":31.447426480209995,"确诊日期36":"h"},{"SH_ID_36":"10frix1","区36":"e","地址":"城北路4089号","lng":121.19095952226503,"lat":31.447420588493024,"确诊日期36":"k"},{"SH_ID_36":"10frqvj","区36":"e","地址":"城北路4089号","lng":121.19095952226503,"lat":31.447420588493024,"确诊日期36":"l"},{"SH_ID_36":"10g96sp","区36":"e","地址":"城北路4089号","lng":121.19095952226503,"lat":31.447420588493024,"确诊日期36":"x"},{"SH_ID_36":"10fq81k","区36":"e","地址":"城中街26号","lng":121.25047549914554,"lat":31.38447762733867,"确诊日期36":"e"},{"SH_ID_36":"10g8qx9","区36":"e","地址":"城中路153弄","lng":121.24674450710647,"lat":31.384140756880733,"确诊日期36":"v"},{"SH_ID_36":"10g96sq","区36":"e","地址":"城中路171弄","lng":121.24645751936184,"lat":31.38569774467832,"确诊日期36":"x"},{"SH_ID_36":"10g8ylt","区36":"e","地址":"城中路197号","lng":121.24449655414858,"lat":31.387050735549472,"确诊日期36":"w"},{"SH_ID_36":"10g96sr","区36":"e","地址":"城中路197号","lng":121.24449655414858,"lat":31.387050735549472,"确诊日期36":"x"},{"SH_ID_36":"10fnnfu","区36":"e","地址":"城中路20号","lng":121.24914647695832,"lat":31.376636766417366,"确诊日期36":"2"},{"SH_ID_36":"10foako","区36":"e","地址":"城中路20号","lng":121.24914647695832,"lat":31.376636766417366,"确诊日期36":"5"},{"SH_ID_36":"10foakp","区36":"e","地址":"城中路20号","lng":121.24914647695832,"lat":31.376636766417366,"确诊日期36":"5"},{"SH_ID_36":"10foakr","区36":"e","地址":"城中路20号","lng":121.24914647695832,"lat":31.376636766417366,"确诊日期36":"5"},{"SH_ID_36":"10fpslw","区36":"e","地址":"城中路213弄","lng":121.24516055653986,"lat":31.38839872259159,"确诊日期36":"c"},{"SH_ID_36":"10fq0cb","区36":"e","地址":"城中路213弄","lng":121.24516055653986,"lat":31.38839872259159,"确诊日期36":"d"},{"SH_ID_36":"10g8qxa","区36":"e","地址":"城中路213弄","lng":121.24516055653986,"lat":31.38839872259159,"确诊日期36":"v"},{"SH_ID_36":"10fp5gu","区36":"e","地址":"城中路29弄","lng":121.2534785097098,"lat":31.37612349885794,"确诊日期36":"9"},{"SH_ID_36":"10fp5ij","区36":"e","地址":"城中路29弄","lng":121.2534785097098,"lat":31.37612349885794,"确诊日期36":"9"},{"SH_ID_36":"10fp5jp","区36":"e","地址":"城中路29弄","lng":121.2534785097098,"lat":31.37612349885794,"确诊日期36":"9"},{"SH_ID_36":"10fq81l","区36":"e","地址":"城中路29弄","lng":121.2534785097098,"lat":31.37612349885794,"确诊日期36":"e"},{"SH_ID_36":"10fr394","区36":"e","地址":"城中路35号","lng":121.25239049542292,"lat":31.376618576685015,"确诊日期36":"i"},{"SH_ID_36":"10fqv82","区36":"e","地址":"城中路35号","lng":121.25239049542292,"lat":31.376618576685015,"确诊日期36":"h"},{"SH_ID_36":"10fs6uq","区36":"e","地址":"澄浏公路108号","lng":121.27325706394276,"lat":31.402823308414376,"确诊日期36":"n"},{"SH_ID_36":"10g7ury","区36":"e","地址":"澄浏公路108号","lng":121.27325706394276,"lat":31.402823308414376,"确诊日期36":"r"},{"SH_ID_36":"10fsm3e","区36":"e","地址":"澄浏公路455号","lng":121.2736502214592,"lat":31.4137193608173,"确诊日期36":"p"},{"SH_ID_36":"10g7urz","区36":"e","地址":"澄浏公路455号","lng":121.2736502214592,"lat":31.4137193608173,"确诊日期36":"r"},{"SH_ID_36":"10g7us0","区36":"e","地址":"澄浏公路700号","lng":121.27570933269203,"lat":31.42265135762796,"确诊日期36":"r"},{"SH_ID_36":"10g7us1","区36":"e","地址":"澄浏中路108号","lng":121.2733120676932,"lat":31.403069310366398,"确诊日期36":"r"},{"SH_ID_36":"10g96ss","区36":"e","地址":"澄浏中路1228号","lng":121.29050508091083,"lat":31.35802471224841,"确诊日期36":"x"},{"SH_ID_36":"10g9ml6","区36":"e","地址":"澄浏中路1228号","lng":121.29050508091083,"lat":31.35802471224841,"确诊日期36":"z"},{"SH_ID_36":"10ga1uq","区36":"e","地址":"澄浏中路1228号","lng":121.29050508091083,"lat":31.35802471224841,"确诊日期36":"11"},{"SH_ID_36":"10ga9i5","区36":"e","地址":"澄浏中路1333号","lng":121.28865411383238,"lat":31.35700952876689,"确诊日期36":"12"},{"SH_ID_36":"10fpslx","区36":"e","地址":"澄浏中路1855弄","lng":121.28483309977288,"lat":31.36747130144726,"确诊日期36":"c"},{"SH_ID_36":"10g8ylu","区36":"e","地址":"澄浏中路225弄","lng":121.29880881703886,"lat":31.341107399157526,"确诊日期36":"w"},{"SH_ID_36":"10ga1ur","区36":"e","地址":"澄浏中路225弄","lng":121.29880881703886,"lat":31.341107399157526,"确诊日期36":"11"},{"SH_ID_36":"10g96st","区36":"e","地址":"澄浏中路2275号","lng":121.28191506059396,"lat":31.37370318233877,"确诊日期36":"x"},{"SH_ID_36":"10ga1us","区36":"e","地址":"澄浏中路2278号","lng":121.28483309977288,"lat":31.36747130144726,"确诊日期36":"11"},{"SH_ID_36":"10g8qxb","区36":"e","地址":"澄浏中路2499号","lng":121.28010102661509,"lat":31.378163150485637,"确诊日期36":"v"},{"SH_ID_36":"10g8qxc","区36":"e","地址":"澄浏中路2500弄","lng":121.27997900560335,"lat":31.382660218833852,"确诊日期36":"v"},{"SH_ID_36":"10g8qxd","区36":"e","地址":"澄浏中路2539号","lng":121.27943701570268,"lat":31.37949513950563,"确诊日期36":"v"},{"SH_ID_36":"10g82hw","区36":"e","地址":"澄浏中路3000号","lng":121.27912899702179,"lat":31.384465206268338,"确诊日期36":"s"},{"SH_ID_36":"10fqft2","区36":"e","地址":"澄浏中路3000号","lng":121.27912899702179,"lat":31.384465206268338,"确诊日期36":"f"},{"SH_ID_36":"10g8qxe","区36":"e","地址":"澄浏中路3000号","lng":121.27912899702179,"lat":31.384465206268338,"确诊日期36":"v"},{"SH_ID_36":"10g96su","区36":"e","地址":"澄浏中路3000号","lng":121.27912899702179,"lat":31.384465206268338,"确诊日期36":"x"},{"SH_ID_36":"10fq0cc","区36":"e","地址":"澄浏中路3128弄","lng":121.2783519912217,"lat":31.38655820706514,"确诊日期36":"d"},{"SH_ID_36":"10g96sv","区36":"e","地址":"澄浏中路3380弄","lng":121.27630198964938,"lat":31.392275225574856,"确诊日期36":"x"},{"SH_ID_36":"10g96sw","区36":"e","地址":"崇教路169号","lng":121.27446950022744,"lat":31.320169171556856,"确诊日期36":"x"},{"SH_ID_36":"10fpsly","区36":"e","地址":"崇教路267号","lng":121.27419650449667,"lat":31.320706167531867,"确诊日期36":"c"},{"SH_ID_36":"10ga1ut","区36":"e","地址":"崇教路267号（工地）","lng":121.27419650449667,"lat":31.320706167531867,"确诊日期36":"11"},{"SH_ID_36":"10foxpn","区36":"e","地址":"崇教路267号对面工地宿舍","lng":121.27419650449667,"lat":31.320706167531867,"确诊日期36":"8"},{"SH_ID_36":"10foxpo","区36":"e","地址":"崇教路267号对面工地宿舍","lng":121.27419650449667,"lat":31.320706167531867,"确诊日期36":"8"},{"SH_ID_36":"10foxqo","区36":"e","地址":"崇教路267号对面工地宿舍","lng":121.27419650449667,"lat":31.320706167531867,"确诊日期36":"8"},{"SH_ID_36":"10foxsa","区36":"e","地址":"崇教路267号对面工地宿舍","lng":121.27419650449667,"lat":31.320706167531867,"确诊日期36":"8"},{"SH_ID_36":"10foxsb","区36":"e","地址":"崇教路267号对面工地宿舍","lng":121.27419650449667,"lat":31.320706167531867,"确诊日期36":"8"},{"SH_ID_36":"10foxsc","区36":"e","地址":"崇教路267号对面工地宿舍","lng":121.27419650449667,"lat":31.320706167531867,"确诊日期36":"8"},{"SH_ID_36":"10foxsd","区36":"e","地址":"崇教路267号对面工地宿舍","lng":121.27419650449667,"lat":31.320706167531867,"确诊日期36":"8"},{"SH_ID_36":"10fp5jq","区36":"e","地址":"崇教路267号对面工地宿舍","lng":121.27419650449667,"lat":31.320706167531867,"确诊日期36":"9"},{"SH_ID_36":"10fp5ju","区36":"e","地址":"崇教路267号对面工地宿舍","lng":121.27419650449667,"lat":31.320706167531867,"确诊日期36":"9"},{"SH_ID_36":"10fp5ki","区36":"e","地址":"崇教路267号对面工地宿舍","lng":121.27419650449667,"lat":31.320706167531867,"确诊日期36":"9"},{"SH_ID_36":"10fp5kj","区36":"e","地址":"崇教路267号对面工地宿舍","lng":121.27419650449667,"lat":31.320706167531867,"确诊日期36":"9"},{"SH_ID_36":"10fp5kl","区36":"e","地址":"崇教路267号对面工地宿舍","lng":121.27419650449667,"lat":31.320706167531867,"确诊日期36":"9"},{"SH_ID_36":"10fpd50","区36":"e","地址":"崇教路267号对面工地宿舍","lng":121.27419650449667,"lat":31.320706167531867,"确诊日期36":"a"},{"SH_ID_36":"10fpd53","区36":"e","地址":"崇教路267号对面工地宿舍","lng":121.27419650449667,"lat":31.320706167531867,"确诊日期36":"a"},{"SH_ID_36":"10fpd6d","区36":"e","地址":"崇教路267号对面工地宿舍","lng":121.27419650449667,"lat":31.320706167531867,"确诊日期36":"a"},{"SH_ID_36":"10fpd6z","区36":"e","地址":"崇教路267号对面工地宿舍","lng":121.27419650449667,"lat":31.320706167531867,"确诊日期36":"a"},{"SH_ID_36":"10fpd74","区36":"e","地址":"崇教路267号对面工地宿舍","lng":121.27419650449667,"lat":31.320706167531867,"确诊日期36":"a"},{"SH_ID_36":"10fpd8j","区36":"e","地址":"崇教路267号对面工地宿舍","lng":121.27419650449667,"lat":31.320706167531867,"确诊日期36":"a"},{"SH_ID_36":"10fpd8m","区36":"e","地址":"崇教路267号对面工地宿舍","lng":121.27419650449667,"lat":31.320706167531867,"确诊日期36":"a"},{"SH_ID_36":"10fpd8n","区36":"e","地址":"崇教路267号对面工地宿舍","lng":121.27419650449667,"lat":31.320706167531867,"确诊日期36":"a"},{"SH_ID_36":"10fpkxk","区36":"e","地址":"崇教路267号对面工地宿舍","lng":121.27419650449667,"lat":31.320706167531867,"确诊日期36":"b"},{"SH_ID_36":"10fq0cd","区36":"e","地址":"崇教路267号对面工地宿舍","lng":121.27419650449667,"lat":31.320706167531867,"确诊日期36":"d"},{"SH_ID_36":"10fqft3","区36":"e","地址":"崇教路267号对面工地宿舍","lng":121.27419650449667,"lat":31.320706167531867,"确诊日期36":"f"},{"SH_ID_36":"10ga1uu","区36":"e","地址":"崇教路280-2号","lng":121.27419650449667,"lat":31.320706167531867,"确诊日期36":"11"},{"SH_ID_36":"10g96sx","区36":"e","地址":"崇教路工地","lng":121.27419650449667,"lat":31.320706167531867,"确诊日期36":"x"},{"SH_ID_36":"10g8ylv","区36":"e","地址":"崇文路1851号","lng":121.27404549948966,"lat":31.318842193400847,"确诊日期36":"w"},{"SH_ID_36":"10ga1uv","区36":"e","地址":"崇文路1851弄","lng":121.26000136701192,"lat":31.32233708939616,"确诊日期36":"11"},{"SH_ID_36":"10fnv4p","区36":"e","地址":"崇文路1855号","lng":121.2599403660068,"lat":31.322333095320587,"确诊日期36":"3"},{"SH_ID_36":"10fo2vt","区36":"e","地址":"崇文路1855号","lng":121.2599403660068,"lat":31.322333095320587,"确诊日期36":"4"},{"SH_ID_36":"10fo2vu","区36":"e","地址":"崇文路1855号","lng":121.2599403660068,"lat":31.322333095320587,"确诊日期36":"4"},{"SH_ID_36":"10g8qxf","区36":"e","地址":"春归路258号","lng":121.2463177691475,"lat":31.285809631275605,"确诊日期36":"v"},{"SH_ID_36":"10g9emr","区36":"e","地址":"春归路258号","lng":121.2463177691475,"lat":31.285809631275605,"确诊日期36":"y"},{"SH_ID_36":"10g8ifn","区36":"e","地址":"春海路355弄","lng":121.23072705465172,"lat":31.279705749389354,"确诊日期36":"u"},{"SH_ID_36":"10g8qxg","区36":"e","地址":"春海路355弄","lng":121.23072705465172,"lat":31.279705749389354,"确诊日期36":"v"},{"SH_ID_36":"10g96sy","区36":"e","地址":"春海路355弄","lng":121.23072705465172,"lat":31.279705749389354,"确诊日期36":"x"},{"SH_ID_36":"10g8qxh","区36":"e","地址":"春海路370弄","lng":121.23276698501283,"lat":31.279740934453926,"确诊日期36":"v"},{"SH_ID_36":"10fs6sr","区36":"e","地址":"春海路400弄","lng":121.36399187725844,"lat":31.216546135422195,"确诊日期36":"n"},{"SH_ID_36":"10g8qxi","区36":"e","地址":"春及路54号","lng":121.17749098994622,"lat":31.36098336786094,"确诊日期36":"v"},{"SH_ID_36":"10fs6ss","区36":"e","地址":"春荣路799弄","lng":121.22562121466086,"lat":31.268115475731683,"确诊日期36":"n"},{"SH_ID_36":"10g8qxj","区36":"e","地址":"春荣路799弄","lng":121.22562121466086,"lat":31.268115475731683,"确诊日期36":"v"},{"SH_ID_36":"10g96sz","区36":"e","地址":"春荣路799弄","lng":121.22562121466086,"lat":31.268115475731683,"确诊日期36":"x"},{"SH_ID_36":"10g82hx","区36":"e","地址":"慈竹路1087弄","lng":121.20870251527116,"lat":31.382470359268797,"确诊日期36":"s"},{"SH_ID_36":"10g8ifo","区36":"e","地址":"慈竹路1087弄","lng":121.20870251527116,"lat":31.382470359268797,"确诊日期36":"u"},{"SH_ID_36":"10g8qxk","区36":"e","地址":"慈竹路1087弄","lng":121.20870251527116,"lat":31.382470359268797,"确诊日期36":"v"},{"SH_ID_36":"10fr395","区36":"e","地址":"慈竹路175弄","lng":121.21766537504172,"lat":31.369523342787982,"确诊日期36":"i"},{"SH_ID_36":"10fq81m","区36":"e","地址":"慈竹路175弄","lng":121.21766537504172,"lat":31.369523342787982,"确诊日期36":"e"},{"SH_ID_36":"10g8alw","区36":"e","地址":"慈竹路176弄","lng":121.21877135704759,"lat":31.370381368468642,"确诊日期36":"t"},{"SH_ID_36":"10g96t0","区36":"e","地址":"慈竹路176弄","lng":121.21877135704759,"lat":31.370381368468642,"确诊日期36":"x"},{"SH_ID_36":"10g9ems","区36":"e","地址":"慈竹路176弄","lng":121.21877135704759,"lat":31.370381368468642,"确诊日期36":"y"},{"SH_ID_36":"10frz0y","区36":"e","地址":"慈竹路265弄","lng":121.21211451495955,"lat":31.379177233459718,"确诊日期36":"m"},{"SH_ID_36":"10g82hy","区36":"e","地址":"慈竹路265弄","lng":121.21211451495955,"lat":31.379177233459718,"确诊日期36":"s"},{"SH_ID_36":"10g82hz","区36":"e","地址":"慈竹路450弄","lng":121.2151844722661,"lat":31.37610122473847,"确诊日期36":"s"},{"SH_ID_36":"10g8qxl","区36":"e","地址":"慈竹路450弄","lng":121.2151844722661,"lat":31.37610122473847,"确诊日期36":"v"},{"SH_ID_36":"10g8qxm","区36":"e","地址":"慈竹路615弄","lng":121.21265850579239,"lat":31.37750423704411,"确诊日期36":"v"},{"SH_ID_36":"10g8ylw","区36":"e","地址":"慈竹路615弄","lng":121.21265850579239,"lat":31.37750423704411,"确诊日期36":"w"},{"SH_ID_36":"10g96t1","区36":"e","地址":"慈竹路615弄","lng":121.21265850579239,"lat":31.37750423704411,"确诊日期36":"x"},{"SH_ID_36":"10g9ml7","区36":"e","地址":"慈竹路615弄","lng":121.21265850579239,"lat":31.37750423704411,"确诊日期36":"z"},{"SH_ID_36":"10g7mh1","区36":"e","地址":"慈竹路69弄","lng":121.21884833609818,"lat":31.36823139762047,"确诊日期36":"q"},{"SH_ID_36":"10g8qxn","区36":"e","地址":"慈竹路69弄","lng":121.21884833609818,"lat":31.36823139762047,"确诊日期36":"v"},{"SH_ID_36":"10g96t2","区36":"e","地址":"慈竹路69弄","lng":121.21884833609818,"lat":31.36823139762047,"确诊日期36":"x"},{"SH_ID_36":"10g9emt","区36":"e","地址":"慈竹路69弄","lng":121.21884833609818,"lat":31.36823139762047,"确诊日期36":"y"},{"SH_ID_36":"10g9ml8","区36":"e","地址":"慈竹路69弄","lng":121.21884833609818,"lat":31.36823139762047,"确诊日期36":"z"},{"SH_ID_36":"10g9u6o","区36":"e","地址":"慈竹路69弄","lng":121.21884833609818,"lat":31.36823139762047,"确诊日期36":"10"},{"SH_ID_36":"10ga9i6","区36":"e","地址":"慈竹路69弄","lng":121.21884833609818,"lat":31.36823139762047,"确诊日期36":"12"},{"SH_ID_36":"10g7mh2","区36":"e","地址":"慈竹路70弄","lng":121.22111928304875,"lat":31.369269494656496,"确诊日期36":"q"},{"SH_ID_36":"10g82i0","区36":"e","地址":"慈竹路70弄","lng":121.22111928304875,"lat":31.369269494656496,"确诊日期36":"s"},{"SH_ID_36":"10frqwx","区36":"e","地址":"慈竹路836弄","lng":121.21266651584224,"lat":31.38038020282665,"确诊日期36":"l"},{"SH_ID_36":"10fq0ce","区36":"e","地址":"慈竹路836弄","lng":121.21266651584224,"lat":31.38038020282665,"确诊日期36":"d"},{"SH_ID_36":"10g8qxo","区36":"e","地址":"慈竹路987弄","lng":121.20978652092585,"lat":31.38203630045643,"确诊日期36":"v"},{"SH_ID_36":"10foq0g","区36":"e","地址":"大北街129弄","lng":121.21568503713733,"lat":31.43145293115047,"确诊日期36":"7"},{"SH_ID_36":"10fqnhl","区36":"e","地址":"大北街208号","lng":121.21362201896952,"lat":31.430149932791135,"确诊日期36":"g"},{"SH_ID_36":"10fr396","区36":"e","地址":"大北街254弄","lng":121.21278200573036,"lat":31.430039950554047,"确诊日期36":"i"},{"SH_ID_36":"10fqft4","区36":"e","地址":"大北街254弄","lng":121.21278200573036,"lat":31.430039950554047,"确诊日期36":"f"},{"SH_ID_36":"10g8ylx","区36":"e","地址":"大宏村","lng":121.318632291969,"lat":31.369998201382565,"确诊日期36":"w"},{"SH_ID_36":"10g96t3","区36":"e","地址":"大宏村","lng":121.318632291969,"lat":31.369998201382565,"确诊日期36":"x"},{"SH_ID_36":"10g9emu","区36":"e","地址":"大宏村","lng":121.318632291969,"lat":31.369998201382565,"确诊日期36":"y"},{"SH_ID_36":"10g9ml9","区36":"e","地址":"大宏村","lng":121.318632291969,"lat":31.369998201382565,"确诊日期36":"z"},{"SH_ID_36":"10g9u6p","区36":"e","地址":"大宏村","lng":121.318632291969,"lat":31.369998201382565,"确诊日期36":"10"},{"SH_ID_36":"10ga1uw","区36":"e","地址":"大宏村","lng":121.318632291969,"lat":31.369998201382565,"确诊日期36":"11"},{"SH_ID_36":"10ga9i7","区36":"e","地址":"大宏村","lng":121.318632291969,"lat":31.369998201382565,"确诊日期36":"12"},{"SH_ID_36":"10g8qxp","区36":"e","地址":"大陆村","lng":121.19046911900392,"lat":31.37135875434066,"确诊日期36":"v"},{"SH_ID_36":"10g96t4","区36":"e","地址":"大陆村","lng":121.19046911900392,"lat":31.37135875434066,"确诊日期36":"x"},{"SH_ID_36":"10g8alx","区36":"e","地址":"大石皮村","lng":121.25573708748114,"lat":31.419393356616307,"确诊日期36":"t"},{"SH_ID_36":"10g8qxq","区36":"e","地址":"大石皮村","lng":121.25573708748114,"lat":31.419393356616307,"确诊日期36":"v"},{"SH_ID_36":"10g8yly","区36":"e","地址":"大石皮村","lng":121.25573708748114,"lat":31.419393356616307,"确诊日期36":"w"},{"SH_ID_36":"10g96t5","区36":"e","地址":"大石皮村","lng":121.25573708748114,"lat":31.419393356616307,"确诊日期36":"x"},{"SH_ID_36":"10g9emv","区36":"e","地址":"大石皮村","lng":121.25573708748114,"lat":31.419393356616307,"确诊日期36":"y"},{"SH_ID_36":"10g9mla","区36":"e","地址":"大石皮村","lng":121.25573708748114,"lat":31.419393356616307,"确诊日期36":"z"},{"SH_ID_36":"10ga1ux","区36":"e","地址":"大石皮村","lng":121.25573708748114,"lat":31.419393356616307,"确诊日期36":"11"},{"SH_ID_36":"10ga9i8","区36":"e","地址":"大石皮村","lng":121.25573708748114,"lat":31.419393356616307,"确诊日期36":"12"},{"SH_ID_36":"10g8aly","区36":"e","地址":"大裕村","lng":121.31615626720392,"lat":31.381093453233564,"确诊日期36":"t"},{"SH_ID_36":"10g8qxr","区36":"e","地址":"大裕村","lng":121.31615626720392,"lat":31.381093453233564,"确诊日期36":"v"},{"SH_ID_36":"10g8ylz","区36":"e","地址":"大裕村","lng":121.31615626720392,"lat":31.381093453233564,"确诊日期36":"w"},{"SH_ID_36":"10g96t6","区36":"e","地址":"大裕村","lng":121.31615626720392,"lat":31.381093453233564,"确诊日期36":"x"},{"SH_ID_36":"10g9emw","区36":"e","地址":"大裕村","lng":121.31615626720392,"lat":31.381093453233564,"确诊日期36":"y"},{"SH_ID_36":"10g9mlb","区36":"e","地址":"大裕村","lng":121.31615626720392,"lat":31.381093453233564,"确诊日期36":"z"},{"SH_ID_36":"10g9u6q","区36":"e","地址":"大裕村","lng":121.31615626720392,"lat":31.381093453233564,"确诊日期36":"10"},{"SH_ID_36":"10ga1uy","区36":"e","地址":"大裕村","lng":121.31615626720392,"lat":31.381093453233564,"确诊日期36":"11"},{"SH_ID_36":"10ga9i9","区36":"e","地址":"大裕村","lng":121.31615626720392,"lat":31.381093453233564,"确诊日期36":"12"},{"SH_ID_36":"10fq0cf","区36":"e","地址":"大宅风范城","lng":121.32591734560013,"lat":31.243578629534102,"确诊日期36":"d"},{"SH_ID_36":"10ga9ia","区36":"e","地址":"大治路31号","lng":121.31481323299111,"lat":31.38074656281463,"确诊日期36":"12"},{"SH_ID_36":"10ga9ib","区36":"e","地址":"大治路435弄","lng":121.29936499612234,"lat":31.375924720680214,"确诊日期36":"12"},{"SH_ID_36":"10g96t7","区36":"e","地址":"大治路445弄","lng":121.29865399404413,"lat":31.375953677708342,"确诊日期36":"x"},{"SH_ID_36":"10ga1uz","区36":"e","地址":"大治路668弄","lng":121.29273401026055,"lat":31.375197175393183,"确诊日期36":"11"},{"SH_ID_36":"10ga1v0","区36":"e","地址":"德富路吴沙塘桥工地","lng":121.26683542274255,"lat":31.33479238136431,"确诊日期36":"11"},{"SH_ID_36":"10g8qxs","区36":"e","地址":"德华二村","lng":121.30952866672584,"lat":31.294725966655925,"确诊日期36":"v"},{"SH_ID_36":"10g9emx","区36":"e","地址":"德华路226弄","lng":121.31476874821446,"lat":31.295688539603393,"确诊日期36":"y"},{"SH_ID_36":"10g8qxt","区36":"e","地址":"德华路316弄","lng":121.31436174370369,"lat":31.295407581143586,"确诊日期36":"v"},{"SH_ID_36":"10g7mh3","区36":"e","地址":"德华路475号","lng":121.31048670029243,"lat":31.293438913595622,"确诊日期36":"q"},{"SH_ID_36":"10fself","区36":"e","地址":"德华路79弄","lng":121.31732880394641,"lat":31.296173271315766,"确诊日期36":"o"},{"SH_ID_36":"10g8ym0","区36":"e","地址":"德华路79弄","lng":121.31732880394641,"lat":31.296173271315766,"确诊日期36":"w"},{"SH_ID_36":"10g96t8","区36":"e","地址":"德华路79弄","lng":121.31732880394641,"lat":31.296173271315766,"确诊日期36":"x"},{"SH_ID_36":"10g9mlc","区36":"e","地址":"德华路79弄","lng":121.31732880394641,"lat":31.296173271315766,"确诊日期36":"z"},{"SH_ID_36":"10g9u6r","区36":"e","地址":"德华路79弄","lng":121.31732880394641,"lat":31.296173271315766,"确诊日期36":"10"},{"SH_ID_36":"10frz0z","区36":"e","地址":"德华路80弄","lng":121.31701478651209,"lat":31.296730302577128,"确诊日期36":"m"},{"SH_ID_36":"10g9mld","区36":"e","地址":"德华路80弄","lng":121.31701478651209,"lat":31.296730302577128,"确诊日期36":"z"},{"SH_ID_36":"10g8ym1","区36":"e","地址":"德华路898弄","lng":121.30005471676526,"lat":31.28990409687422,"确诊日期36":"w"},{"SH_ID_36":"10g7uqz","区36":"e","地址":"德立路88弄","lng":121.28064537429348,"lat":31.334555063265057,"确诊日期36":"r"},{"SH_ID_36":"10g9mle","区36":"e","地址":"德立路88弄","lng":121.28064537429348,"lat":31.334555063265057,"确诊日期36":"z"},{"SH_ID_36":"10g9emy","区36":"e","地址":"德园路1055弄","lng":121.30338755157715,"lat":31.305418034930195,"确诊日期36":"y"},{"SH_ID_36":"10g9mlf","区36":"e","地址":"德园路1055弄","lng":121.30338755157715,"lat":31.305418034930195,"确诊日期36":"z"},{"SH_ID_36":"10ga1v1","区36":"e","地址":"德园路1055弄","lng":121.30338755157715,"lat":31.305418034930195,"确诊日期36":"11"},{"SH_ID_36":"10g8qxu","区36":"e","地址":"德园路1259弄","lng":121.30048459250445,"lat":31.30805694189663,"确诊日期36":"v"},{"SH_ID_36":"10g8ym2","区36":"e","地址":"德园路1259弄","lng":121.30048459250445,"lat":31.30805694189663,"确诊日期36":"w"},{"SH_ID_36":"10g96t9","区36":"e","地址":"德园路1259弄","lng":121.30048459250445,"lat":31.30805694189663,"确诊日期36":"x"},{"SH_ID_36":"10g9emz","区36":"e","地址":"德园路1259弄","lng":121.30048459250445,"lat":31.30805694189663,"确诊日期36":"y"},{"SH_ID_36":"10ga1v2","区36":"e","地址":"德园路1259弄","lng":121.30048459250445,"lat":31.30805694189663,"确诊日期36":"11"},{"SH_ID_36":"10g7ure","区36":"e","地址":"德园路1437弄","lng":121.2974736734208,"lat":31.31107075351464,"确诊日期36":"r"},{"SH_ID_36":"10g8ym3","区36":"e","地址":"德园路1437弄","lng":121.2974736734208,"lat":31.31107075351464,"确诊日期36":"w"},{"SH_ID_36":"10g96ta","区36":"e","地址":"德园路1437弄","lng":121.2974736734208,"lat":31.31107075351464,"确诊日期36":"x"},{"SH_ID_36":"10g9mlg","区36":"e","地址":"德园路1437弄","lng":121.2974736734208,"lat":31.31107075351464,"确诊日期36":"z"},{"SH_ID_36":"10g8qxv","区36":"e","地址":"德园路1500弄","lng":121.29953961147622,"lat":31.31196084438182,"确诊日期36":"v"},{"SH_ID_36":"10g8ym4","区36":"e","地址":"德园路1500弄","lng":121.29953961147622,"lat":31.31196084438182,"确诊日期36":"w"},{"SH_ID_36":"10g96tb","区36":"e","地址":"德园路1500弄","lng":121.29953961147622,"lat":31.31196084438182,"确诊日期36":"x"},{"SH_ID_36":"10g9mlh","区36":"e","地址":"德园路1500弄","lng":121.29953961147622,"lat":31.31196084438182,"确诊日期36":"z"},{"SH_ID_36":"10ga1v3","区36":"e","地址":"德园路1500弄","lng":121.29953961147622,"lat":31.31196084438182,"确诊日期36":"11"},{"SH_ID_36":"10ga9ic","区36":"e","地址":"德园路1500弄","lng":121.29953961147622,"lat":31.31196084438182,"确诊日期36":"12"},{"SH_ID_36":"10g7urf","区36":"e","地址":"德园路1509弄","lng":121.2982116511096,"lat":31.312579769109636,"确诊日期36":"r"},{"SH_ID_36":"10g8qxw","区36":"e","地址":"德园路1509弄","lng":121.2982116511096,"lat":31.312579769109636,"确诊日期36":"v"},{"SH_ID_36":"10g8ym5","区36":"e","地址":"德园路1509弄","lng":121.2982116511096,"lat":31.312579769109636,"确诊日期36":"w"},{"SH_ID_36":"10g96tc","区36":"e","地址":"德园路1509弄","lng":121.2982116511096,"lat":31.312579769109636,"确诊日期36":"x"},{"SH_ID_36":"10g9mli","区36":"e","地址":"德园路1509弄","lng":121.2982116511096,"lat":31.312579769109636,"确诊日期36":"z"},{"SH_ID_36":"10g8ifp","区36":"e","地址":"德园路366弄","lng":121.30944866541726,"lat":31.294796970772193,"确诊日期36":"u"},{"SH_ID_36":"10g8qxx","区36":"e","地址":"德园路375弄","lng":121.30857967303925,"lat":31.29364102484583,"确诊日期36":"v"},{"SH_ID_36":"10g8ym6","区36":"e","地址":"德园路375弄","lng":121.30857967303925,"lat":31.29364102484583,"确诊日期36":"w"},{"SH_ID_36":"10g82i1","区36":"e","地址":"德园路627弄","lng":121.3055166025732,"lat":31.29779310141045,"确诊日期36":"s"},{"SH_ID_36":"10g9mlj","区36":"e","地址":"德园路627弄","lng":121.3055166025732,"lat":31.29779310141045,"确诊日期36":"z"},{"SH_ID_36":"10g8ym7","区36":"e","地址":"德园路685弄","lng":121.3061635935054,"lat":31.298629080100834,"确诊日期36":"w"},{"SH_ID_36":"10frz10","区36":"e","地址":"德园路703号","lng":121.30623359017201,"lat":31.2989060754488,"确诊日期36":"m"},{"SH_ID_36":"10g96td","区36":"e","地址":"德园路703号","lng":121.30623359017201,"lat":31.2989060754488,"确诊日期36":"x"},{"SH_ID_36":"10g8qxy","区36":"e","地址":"德园路79弄","lng":121.31692978338305,"lat":31.296738310863393,"确诊日期36":"v"},{"SH_ID_36":"10ga9id","区36":"e","地址":"德园路955弄","lng":121.30297356492409,"lat":31.30397205038417,"确诊日期36":"12"},{"SH_ID_36":"10g8qxz","区36":"e","地址":"德园南路111弄","lng":121.3172020747078,"lat":31.281309352543246,"确诊日期36":"v"},{"SH_ID_36":"10g8ym8","区36":"e","地址":"德园南路111弄","lng":121.3172020747078,"lat":31.281309352543246,"确诊日期36":"w"},{"SH_ID_36":"10g9mlk","区36":"e","地址":"德园南路111弄","lng":121.3172020747078,"lat":31.281309352543246,"确诊日期36":"z"},{"SH_ID_36":"10g9u6s","区36":"e","地址":"德园南路1500弄","lng":121.31756406264743,"lat":31.282563309679954,"确诊日期36":"10"},{"SH_ID_36":"10g96te","区36":"e","地址":"德园南路485弄","lng":121.31239486795478,"lat":31.28578780244912,"确诊日期36":"x"},{"SH_ID_36":"10g9mll","区36":"e","地址":"德园南路485弄","lng":121.31239486795478,"lat":31.28578780244912,"确诊日期36":"z"},{"SH_ID_36":"10g9u6t","区36":"e","地址":"德园南路485弄","lng":121.31239486795478,"lat":31.28578780244912,"确诊日期36":"10"},{"SH_ID_36":"10g8qy0","区36":"e","地址":"德园南路508弄","lng":121.3147989110135,"lat":31.286709581834312,"确诊日期36":"v"},{"SH_ID_36":"10g8ym9","区36":"e","地址":"德园南路508弄","lng":121.3147989110135,"lat":31.286709581834312,"确诊日期36":"w"},{"SH_ID_36":"10g8ifq","区36":"e","地址":"邓家角村","lng":121.19982236153663,"lat":31.25750011442408,"确诊日期36":"u"},{"SH_ID_36":"10g96tf","区36":"e","地址":"邓家角村","lng":121.19982236153663,"lat":31.25750011442408,"确诊日期36":"x"},{"SH_ID_36":"10frqx8","区36":"e","地址":"定边路119号","lng":121.3638255218336,"lat":31.257704856984947,"确诊日期36":"l"},{"SH_ID_36":"10g96tg","区36":"e","地址":"定边路119号","lng":121.3638255218336,"lat":31.257704856984947,"确诊日期36":"x"},{"SH_ID_36":"10g8qy1","区36":"e","地址":"定边路145号","lng":121.36412051693142,"lat":31.25816085115498,"确诊日期36":"v"},{"SH_ID_36":"10g82i2","区36":"e","地址":"定边路19号","lng":121.36339952584436,"lat":31.255560885218856,"确诊日期36":"s"},{"SH_ID_36":"10fselg","区36":"e","地址":"定边路33号","lng":121.36337652671618,"lat":31.25524988974385,"确诊日期36":"o"},{"SH_ID_36":"10frqx9","区36":"e","地址":"定边路35号","lng":121.36165856298238,"lat":31.256656837940778,"确诊日期36":"l"},{"SH_ID_36":"10g8qy2","区36":"e","地址":"定边路56号","lng":121.36372952024577,"lat":31.255139894590556,"确诊日期36":"v"},{"SH_ID_36":"10g8yma","区36":"e","地址":"定边路56号","lng":121.36372952024577,"lat":31.255139894590556,"确诊日期36":"w"},{"SH_ID_36":"10g96th","区36":"e","地址":"定边路56号","lng":121.36372952024577,"lat":31.255139894590556,"确诊日期36":"x"},{"SH_ID_36":"10ga1v4","区36":"e","地址":"定边路56号","lng":121.36372952024577,"lat":31.255139894590556,"确诊日期36":"11"},{"SH_ID_36":"10g8qy3","区36":"e","地址":"定边路64号","lng":121.36378751973692,"lat":31.255382890863302,"确诊日期36":"v"},{"SH_ID_36":"10g96ti","区36":"e","地址":"定边路64号","lng":121.36378751973692,"lat":31.255382890863302,"确诊日期36":"x"},{"SH_ID_36":"10frqxa","区36":"e","地址":"定边路99弄","lng":121.36380352056146,"lat":31.257097865364035,"确诊日期36":"l"},{"SH_ID_36":"10fs6uz","区36":"e","地址":"定边路99弄","lng":121.36380352056146,"lat":31.257097865364035,"确诊日期36":"n"},{"SH_ID_36":"10g82i3","区36":"e","地址":"定边路99弄","lng":121.36380352056146,"lat":31.257097865364035,"确诊日期36":"s"},{"SH_ID_36":"10g8qy4","区36":"e","地址":"定边路99弄","lng":121.36380352056146,"lat":31.257097865364035,"确诊日期36":"v"},{"SH_ID_36":"10g8alz","区36":"e","地址":"东大小区","lng":121.25593458709332,"lat":31.38875924801167,"确诊日期36":"t"},{"SH_ID_36":"10g8qy5","区36":"e","地址":"东大小区","lng":121.25593458709332,"lat":31.38875924801167,"确诊日期36":"v"},{"SH_ID_36":"10g8qy6","区36":"e","地址":"东环路129弄","lng":121.22266902141355,"lat":31.32019434646163,"确诊日期36":"v"},{"SH_ID_36":"10g8qy7","区36":"e","地址":"东街村","lng":121.22996204797181,"lat":31.270220807891675,"确诊日期36":"v"},{"SH_ID_36":"10g8ymb","区36":"e","地址":"东街村","lng":121.22996204797181,"lat":31.270220807891675,"确诊日期36":"w"},{"SH_ID_36":"10g96tj","区36":"e","地址":"东街村","lng":121.22996204797181,"lat":31.270220807891675,"确诊日期36":"x"},{"SH_ID_36":"10g9mlm","区36":"e","地址":"东街村","lng":121.22996204797181,"lat":31.270220807891675,"确诊日期36":"z"},{"SH_ID_36":"10ga1v5","区36":"e","地址":"东街村","lng":121.22996204797181,"lat":31.270220807891675,"确诊日期36":"11"},{"SH_ID_36":"10g8am0","区36":"e","地址":"樊家村","lng":121.29203901512672,"lat":31.340797859307305,"确诊日期36":"t"},{"SH_ID_36":"10g8qy8","区36":"e","地址":"樊家村","lng":121.29203901512672,"lat":31.340797859307305,"确诊日期36":"v"},{"SH_ID_36":"10g8ymc","区36":"e","地址":"樊家村","lng":121.29203901512672,"lat":31.340797859307305,"确诊日期36":"w"},{"SH_ID_36":"10g96tk","区36":"e","地址":"樊家村","lng":121.29203901512672,"lat":31.340797859307305,"确诊日期36":"x"},{"SH_ID_36":"10g9en0","区36":"e","地址":"樊家村","lng":121.29203901512672,"lat":31.340797859307305,"确诊日期36":"y"},{"SH_ID_36":"10g9mln","区36":"e","地址":"樊家村","lng":121.29203901512672,"lat":31.340797859307305,"确诊日期36":"z"},{"SH_ID_36":"10ga1v6","区36":"e","地址":"樊家村","lng":121.29203901512672,"lat":31.340797859307305,"确诊日期36":"11"},{"SH_ID_36":"10ga9ie","区36":"e","地址":"樊家村","lng":121.29203901512672,"lat":31.340797859307305,"确诊日期36":"12"},{"SH_ID_36":"10frz11","区36":"e","地址":"方德路200弄","lng":121.23007602846359,"lat":31.314353900903633,"确诊日期36":"m"},{"SH_ID_36":"10g8ymd","区36":"e","地址":"方德路200弄","lng":121.23007602846359,"lat":31.314353900903633,"确诊日期36":"w"},{"SH_ID_36":"10g9mlo","区36":"e","地址":"方德路200弄","lng":121.23007602846359,"lat":31.314353900903633,"确诊日期36":"z"},{"SH_ID_36":"10g7unf","区36":"e","地址":"方德路201弄","lng":121.2316500179649,"lat":31.314740062290827,"确诊日期36":"r"},{"SH_ID_36":"10g96tl","区36":"e","地址":"方德路201弄","lng":121.2316500179649,"lat":31.314740062290827,"确诊日期36":"x"},{"SH_ID_36":"10g7ung","区36":"e","地址":"方陆路100弄","lng":121.22865703948011,"lat":31.313796751368006,"确诊日期36":"r"},{"SH_ID_36":"10fselh","区36":"e","地址":"方陆路191号","lng":121.22775503828892,"lat":31.314936685009975,"确诊日期36":"o"},{"SH_ID_36":"10g8yme","区36":"e","地址":"方南路350弄","lng":121.21854606807682,"lat":31.310815979780006,"确诊日期36":"w"},{"SH_ID_36":"10g8ifr","区36":"e","地址":"方泰村","lng":121.20855586778566,"lat":31.315294183627273,"确诊日期36":"u"},{"SH_ID_36":"10g8qy9","区36":"e","地址":"方泰村","lng":121.20855586778566,"lat":31.315294183627273,"确诊日期36":"v"},{"SH_ID_36":"10g8ymf","区36":"e","地址":"芳礼路99弄","lng":121.31359853553995,"lat":31.310385540084372,"确诊日期36":"w"},{"SH_ID_36":"10g96tm","区36":"e","地址":"芳礼路99弄","lng":121.31359853553995,"lat":31.310385540084372,"确诊日期36":"x"},{"SH_ID_36":"10ga1v7","区36":"e","地址":"芳礼路99弄","lng":121.31359853553995,"lat":31.310385540084372,"确诊日期36":"11"},{"SH_ID_36":"10fpslz","区36":"e","地址":"芳林路1357弄","lng":121.30664448511078,"lat":31.313874889915294,"确诊日期36":"c"},{"SH_ID_36":"10fq81n","区36":"e","地址":"芳林路1357弄","lng":121.30664448511078,"lat":31.313874889915294,"确诊日期36":"e"},{"SH_ID_36":"10g96tn","区36":"e","地址":"芳林路1357弄","lng":121.30664448511078,"lat":31.313874889915294,"确诊日期36":"x"},{"SH_ID_36":"10g9mlp","区36":"e","地址":"芳林路1357弄","lng":121.30664448511078,"lat":31.313874889915294,"确诊日期36":"z"},